latitude,longitude,historic,start_date,ref:mhs,wikidata,name,heritage,mhs:inscription_date,wikipedia,left,right,top,bottom
49.565084,3.61646,building,C17,PA00115733,Q22966420,,3,1927-06-24 ,,3.615735,3.617185,49.565514,49.564654
49.045017,3.402843,tower,yes,PA00115592,Q3533021,Tour Balhan,3,1926-12-02 ,fr:Tour Balhan,3.4021179999999998,3.403568,49.045447,49.044587
49.3638,3.34734,building,C13,PA02000071,Q22995470,Maisons de source et aqueduc (également sur commune de Belleu),3,2007-05-07 ,fr:Belleu,3.346615,3.348065,49.36423,49.363369999999996
49.5645,3.616507,yes,,PA00115711,Q22966415,Chapelle Saint-Genebaud,3,1927-07-22 ,,3.615782,3.617232,49.564930000000004,49.56407
49.578919,3.603957,,C20,PA02000088,Q2385461,Rotonde et halle-atelier ferroviaires,3,2015-06-30 ,fr:Gare de Laon,3.6032319999999998,3.604682,49.579349,49.578489
44.794,6.9276,,C17,PA00080516,,Vieille Halle,,,,6.926875,6.928325,44.79443,44.793569999999995
48.8427,-0.894,,C17,PA00111814,Q22964270,Ancien Hôtel de ville,3,1987-07-21 ,,-0.894725,-0.893275,48.84313,48.84227
48.894861,-0.200139,,C13,PA00111317,Q21099776,Ancien Hôtel-Dieu,3,1927-05-31 ,fr:Hôtel-Dieu de Falaise,-0.20086400000000001,-0.199414,48.895291,48.894431
48.969529,-0.223522,stone,grooves,PA00111108,Q3394298,Polissoir,3,1976-08-24 ,fr:Polissoirs de Poussendre,-0.224247,-0.222797,48.969959,48.969099
49.15839,-0.384015,city_gate,C17,PA00111512,Q22964039,Porte du 17e siècle,3,1928-02-17 ,fr:Porte de Louvigny,-0.38473999999999997,-0.38329,49.15882,49.157959999999996
49.0325,-0.32472,archaeological_site,megalith,PA00111371,Q3387141,"Menhir dit La Pierre Tourneresse, situé dans le parc du château d'Outrelaize",2,1936-09-24 ,fr:Pierre Tourneresse,-0.325445,-0.32399500000000003,49.03293,49.03207
49.2532,0.1732,,C14,PA00111681,Q22964185,Ancien prieuré de Saint-Hymer,,,fr:Prieuré de Saint-Hymer,0.172475,0.173925,49.25363,49.25277
49.24361,-0.31278,archaeological_site,megalith,PA00111094,Q3387869,Mégalithe dit Les Pierres branlantes,2,1958-05-24 ,fr:Pierres branlantes,-0.313505,-0.312055,49.24404,49.243179999999995
49.28489,0.18337,,C17,PA00111606,Q20083809,Ancien hôtel de Brilly,3,1926-07-17 ,fr:Hôtel de ville de Pont-l'Évêque,0.182645,0.184095,49.28532,49.284459999999996
48.940903,-0.957778,wayside_cross,C17,PA00111519,Q18196033,Croix de chemin,3,1970-11-23 ,fr:Croix de chemin de Malloué,-0.958503,-0.957053,48.941333,48.940473
49.419583,0.233611,,,PA00111441,Q22964000,Puits situé dans la cour du Musée du Vieux Honfleur,2,1932-09-28 ,,0.232886,0.23433600000000002,49.420013000000004,49.419153
48.897763,-0.201117,yes,C13,PA00111315,Q20669840,Vestiges de l'enceinte fortifiée,,,fr:Remparts de Falaise,-0.201842,-0.200392,48.898193,48.897332999999996
49.125164,0.319293,,C16,PA00111251,Q22963844,Chambre de Charité,3,1971-10-29 ,fr:Chambre de Charité de Courtonne-la-Meurdrac,0.318568,0.32001799999999997,49.125594,49.124734
49.018719,-0.036047,building,C16,PA00111717,Q22964210,Maison de bois contiguë au manoir dit cour d'Elu,3,1927-01-19 ,fr:Cour l'Élu,-0.036772,-0.035322000000000006,49.019149,49.018288999999996
49.4204,0.2285,,C17,PA00111442,Q22964001,Puits situé à l'angle de la rue du Puits et de la rue Bucaille (anciennement rue de l'Homme-de-Bois),3,1930-10-11 ,"fr:Puits de l'angle de la rue du Puits et de la rue Bucaille, à Honfleur",0.227775,0.229225,49.42083,49.41997
48.8003,-0.8502,,,PA00111517,Q22964043,Pupitre en pierre,3,1928-09-19 ,,-0.8509249999999999,-0.849475,48.80073,48.79987
49.342361,0.101944,,C16,PA00111755,Q22964227,Ancien hôtel de l'Amirauté,3,1969-12-01 ,fr:Manoir du Grenier à sel,0.101219,0.10266900000000001,49.342791,49.341930999999995
49.109637,-0.423245,yes,C13,PA00132686,Q22969341,Chapelle Saint-Jean-Baptiste-du-Clos,3,1994-08-24 ,fr:Chapelle Saint-Jean-Baptiste-du-Clos,-0.42396999999999996,-0.42252,49.110067,49.109207
49.14524,0.22216,fountain,yes,PA00111474,Q15948814,Fontaine publique,2,1919-11-18 ,fr:Fontaine de La Ferronnays,0.221435,0.222885,49.14567,49.14481
49.02,-0.03278,,C11,PA00111713,Q2820701,Ancienne abbaye,,,fr:Abbaye de Saint-Pierre-sur-Dives,-0.03350499999999999,-0.032055,49.020430000000005,49.01957
49.09302,-0.352778,building,C16,PA00111345,Q22963911,Maison sise à la lisière ouest du bourg,3,1948-03-06 ,,-0.35350299999999996,-0.352053,49.093450000000004,49.09259
48.7912,-0.8741,archaeological_site,megalith,PA00111674,Q13518433,Dolmen de la Loge aux Sarrazins,2,1934-06-26 ,fr:Dolmen de la Loge aux Sarrazins,-0.874825,-0.873375,48.791630000000005,48.79077
49.020972,0.407778,,C15,PA00111581,Q20731610,Hospice,3,1927-01-19 ,fr:Hospice d'Orbec,0.407053,0.40850299999999995,49.021402,49.020542
48.892065,-0.190039,,C17,PA00111308,Q22963879,Ancienne auberge de La Romaine,3,1946-09-20 ,fr:Auberge de la Romaine,-0.19076400000000002,-0.189314,48.892495000000004,48.891635
49.1523,0.2118,,,PA00111665,Q22964174,Théâtre amphithéâtre ou amphithéâtre,2,1984-12-21 ,,0.21107499999999998,0.212525,49.15273,49.151869999999995
49.278291,-0.566332,,C11,PA00111668,Q3403036,"Restes du prieuré de Saint-Gabriel, puis Centre d'apprentissage horticole",2,1840 ,fr:Prieuré de Saint-Gabriel (Saint-Gabriel-Brécy),-0.5670569999999999,-0.565607,49.278721000000004,49.277861
49.30167,-0.45528,archaeological_site,megalith,PA00111635,Q3387768,Menhir dit Pierre debout,2,1934-02-21 ,fr:Pierre debout (Reviers),-0.456005,-0.45455500000000004,49.3021,49.30124
49.1362,0.1318,,C17,PA00111624,,Hostellerie Henri IV,,,fr:Hostellerie Henri IV,0.131075,0.132525,49.136630000000004,49.13577
49.279583,-0.688611,,C13,PA00111725,Q2820447,Ancien prieuré,2,1908-05-18 ,fr:Abbaye Saint-Vigor-le-Grand,-0.689336,-0.687886,49.280013000000004,49.279153
49.021667,0.406389,,C16,PA00111584,Q22964088,Ancien manoir Venelle-Dossin,,,fr:Manoir Venelle-Dossin,0.405664,0.407114,49.022097,49.021237
48.969339,-0.223716,stone,grooves,PA00111107,Q3394298,Polissoir,3,1976-08-24 ,fr:Polissoirs de Poussendre,-0.224441,-0.222991,48.969769,48.968909
49.28528,0.18274,,C17,PA00111603,Q22964104,Ancien couvent des Dominicains de l'Isle,3,1927-02-09 ,fr:Couvent des Dominicaines de l'Isle,0.182015,0.18346500000000002,49.28571,49.28485
49.118004,-0.393139,wayside_cross,C12,PA00111334,Q3003686,Croix romane,3,1932-10-04 ,fr:Croix romane de Feuguerolles-Bully,-0.393864,-0.39241400000000004,49.118434,49.117574
48.829583,-1.036667,,,PA00111722,Q22964212,Motte castrale,2,1983-03-11 ,fr:Motte castrale de Saint-Sever-Calvados,-1.037392,-1.035942,48.830013,48.829153
48.99667,-0.32056,archaeological_site,megalith,PA00111677,Q3305932,Menhir dit la Roche Piquée,2,1951-11-24 ,fr:Menhir de la Roche Piquée (Saint-Germain-le-Vasson),-0.321285,-0.31983500000000004,48.9971,48.99624
49.285162,0.182052,,C17,PA00111617,Q22964124,Siège de la Vicomté d'Auge,3,1971-10-29 ,fr:Siège de la vicomté d'Auge,0.181327,0.182777,49.285592,49.284732
49.2856,0.18217,,C19,PA14000006,Q22995734,Ancienne prison,3,1997-12-05 ,fr:Prison de Pont-l'Évêque,0.181445,0.182895,49.286030000000004,49.28517
48.949639,-0.551306,archaeological_site,megalith,PA00111273,Q2894732,Menhir dit La Belle Roche,2,1954-05-19 ,fr:Belle Roche,-0.5520309999999999,-0.550581,48.950069,48.949208999999996
49.2112,-0.5391,wayside_cross,C17,PA00111631,Q22964139,Croix,3,1932-10-04 ,fr:Croix du cimetière de Putot-en-Bessin,-0.539825,-0.538375,49.21163,49.21077
48.928361,-0.432917,archaeological_site,megalith,PA00111705,Q3332773,Mégalithe,3,1954-05-19 ,fr:Mégalithe du Pré-du-Vivret,-0.43364199999999997,-0.432192,48.928791000000004,48.927931
49.419491,0.233808,castle,manor,PA00111439,Q22963996,Manoir Vigneron,2,1932-09-28 ,,0.23308299999999998,0.234533,49.419921,49.419061
49.018637,-0.036041,castle,manor,PA00111718,Q19945464,Manoir dit Cour d'Elu,3,1927-01-19 ,fr:Cour l'Élu,-0.03676599999999999,-0.035316,49.019067,49.018207
49.213524,-0.341889,yes,C13,PA14000045,Q22995775,Chapelle Saint-Vincent,3,2004-10-29 ,fr:Chapelle Saint-Vincent d'Hérouville-Saint-Clair,-0.342614,-0.341164,49.213954,49.213094
49.28521,0.18253,,C19,PA14000007,Q22995735,Tribunal,3,1997-12-05 ,fr:Tribunal de Pont-l'Évêque,0.181805,0.183255,49.28564,49.28478
49.419583,0.233472,citywalls,,PA00111443,Q22964002,Rempart de ville,2,1932-09-28 ,,0.232747,0.23419700000000002,49.420013000000004,49.419153
45.9421,-0.5214,building,C18,PA00105182,Q22955651,Hôtel de Hausen,3,1942-02-13 ,,-0.522125,-0.520675,45.942530000000005,45.94167
46.158401,-1.153771,building,C16,PA00104901,Q22955154,Maison Pillaud,2,1923-10-20 ,,-1.1544960000000002,-1.153046,46.158831,46.157970999999996
45.8285,-0.8757,,C15,PA00104850,Q22955082,Anciennes fortifications,3,1926-06-16 ,,-0.876425,-0.8749750000000001,45.82893,45.82807
46.1275,-1.0781,building,C17,PA00104774,Q22955040,Maison dite Le Bois Not,3,1973-07-02 ,,-1.0788250000000001,-1.077375,46.12793,46.127069999999996
46.01183,-1.175,building,,PA00104752,Q22954976,,3,1931-05-05 ,,-1.1757250000000001,-1.174275,46.012260000000005,46.0114
46.159366,-1.153607,building,C18,PA00105117,Q22955586,,3,1928-09-29 ,,-1.1543320000000001,-1.152882,46.159796,46.158936
45.74583,-0.63333,building,C16,PA00105256,Q22955722,Maison de l'Echevinage,3,1939-02-09 ,fr:Musée de l'Échevinage de Saintes,-0.6340549999999999,-0.632605,45.74626,45.7454
46.0783,-0.4114,,,PA00104666,Q22954807,Restes du camp romain,3,1945-01-25 ,,-0.41212499999999996,-0.410675,46.07873,46.07787
46.161951,-1.149914,building,,PA00105123,Q22955595,,3,1931-10-07 ,,-1.1506390000000002,-1.149189,46.162381,46.161521
45.94059,-0.969356,place_of_worship,christian,PA17000103,Q29582757,Église Notre Dame du Faubourg,3,2015-08-24 ,,-0.970081,-0.968631,45.94102,45.94016
45.6988,-1.2102,,C20,PA17000043,Q22995939,Batterie d'artillerie Rest Adler Cosel (le Requin),3,2002-07-24 ,,-1.210925,-1.2094749999999999,45.69923,45.69837
46.160296,-1.153551,building,C16,PA00104900,Q22955153,Maison dite Maison au Chien,3,1928-06-14 ,,-1.154276,-1.152826,46.160726000000004,46.159866
46.159403,-1.153575,building,C17,PA00105116,Q22955584,,3,1928-09-29 ,,-1.1543,-1.15285,46.159833,46.158972999999996
46.159693,-1.153484,building,C18,PA00105110,Q22955573,,3,1928-09-29 ,,-1.154209,-1.1527589999999999,46.160123,46.159262999999996
46.159028,-1.153704,building,,PA00105118,Q22955587,,3,1928-09-29 ,,-1.1544290000000001,-1.152979,46.159458,46.158598
46.160192,-1.153589,building,C18,PA00105101,Q22955561,,3,1928-09-29 ,,-1.154314,-1.1528639999999999,46.160622000000004,46.159762
45.8571,-1.1743,fort,C17,PA00104630,Q2916553,Fort du Chapus,2,1929-06-14 ,fr:Fort Louvois,-1.175025,-1.1735749999999998,45.857530000000004,45.85667
45.6838,-0.8878,,C1,PA00105225,Q22955702,Camp dit de César,2,1886-07-12 ,,-0.888525,-0.8870750000000001,45.68423,45.68337
45.77255,-0.422556,castle,C16,PA00104636,Q22954788,,3,1925-02-23 ,,-0.42328099999999996,-0.421831,45.772980000000004,45.77212
45.936948,-0.957084,building,C17,PA17000104,Q2970400,Hôtel de la Marine,3,2015-10-08 ,fr:Château de Rochefort-sur-Charente,-0.957809,-0.9563590000000001,45.937378,45.936518
46.2079,-1.1621,,C16,PA00104830,Q22955068,Ancien domaine du Portail,2,1920-08-05 ,,-1.162825,-1.1613749999999998,46.208330000000004,46.20747
45.943165,-0.963715,,C18,PA00104867,Q3145308,Hôpital maritime,3,1965-09-14 ,fr:Hôpital maritime de Rochefort,-0.96444,-0.96299,45.943595,45.942735
46.160194,-1.150676,building,C16,PA00105000,Q22955384,,2,1923-10-27 ,,-1.1514010000000001,-1.149951,46.160624,46.159763999999996
46.158935,-1.153736,building,C17,PA00105120,Q22955592,,3,1928-09-29 ,,-1.1544610000000002,-1.153011,46.159365,46.158505
45.9435,-0.5207,,C16,PA00105181,Q22955650,Ancien hôtel de l'Echevinage,3,1925-02-23 ,,-0.521425,-0.5199750000000001,45.94393,45.94307
45.9915,-0.5986,,C16,PA00104781,Q22955045,Logis des Varennes,3,1948-11-29 ,,-0.599325,-0.597875,45.99193,45.99107
45.775,-0.4569,yes,C12,PA00105160,Q333915,Vestiges de l'ancienne abbaye de Fontdouce,2,1986-12-16 ,fr:Abbaye de Fontdouce,-0.45762499999999995,-0.456175,45.77543,45.77457
45.925,-0.5506,castle,C13,PA00104799,Q2968460,Château de Beaufief,3,1973-10-04 ,fr:Château de Beaufief,-0.551325,-0.549875,45.92543,45.924569999999996
46.159802,-1.153479,building,C17,PA00105107,Q22955568,,3,1928-09-29 ,,-1.154204,-1.1527539999999998,46.160232,46.159372
45.74306,-0.63389,building,C18,PA00105254,Q22955719,"Hôtel Monconseil, actuellement musée d'art régional",3,2009-07-17 ,fr:Musée Dupuy-Mestreau,-0.6346149999999999,-0.633165,45.74349,45.74263
46.155877,-1.15518,citywalls,C17,PA00104883,Q22955106,Fortifications maritimes,,,fr:Tour de la Chaîne,-1.1559050000000002,-1.154455,46.156307,46.155446999999995
46.158386,-1.152942,building,C16,PA00104995,Q22955365,Maison Léon,3,1926-10-28 ,,-1.153667,-1.1522169999999998,46.158816,46.157956
45.944,-1.3056,building,C18,PA00105217,Q22955691,,3,1969-10-22 ,,-1.3063250000000002,-1.304875,45.944430000000004,45.94357
45.7752,-0.9623,,C17,PA00105238,Q22955715,Domaine de la Mauvignière,3,1988-12-21 ,,-0.963025,-0.9615750000000001,45.77563,45.77477
46.0353,-0.7005,yes,C12,PA00105195,Q22955672,Ruines de l'église Saint-Laurent,3,1948-12-06 ,,-0.701225,-0.699775,46.03573,46.03487
45.828,-0.8753,,C14,PA00104851,Q22955083,Ancien prieuré Saint-Pierre,3,1987-03-06 ,,-0.8760249999999999,-0.874575,45.828430000000004,45.82757
45.7464,-0.6322,,,PA00105264,Q22955728,Terrain sur lequel est édifié l'immeuble Guinguenaud,2,1937-09-14 ,,-0.632925,-0.631475,45.74683,45.74597
45.901,-1.2988,yes,C12,PA00104670,Q22954809,Chapelle Saint-Jean-Baptiste de la Perroche,3,1988-04-29 ,,-1.299525,-1.2980749999999999,45.901430000000005,45.90057
45.74583,-0.64389,,C1,PA00105246,Q2844420,Restes de l'amphithéâtre gallo-romain,2,1840 ,fr:Amphithéâtre de Saintes,-0.6446149999999999,-0.643165,45.74626,45.7454
45.86595,-1.067681,,C17,PA00104710,Q22954829,Poudrières et casernes anciennes,3,1949-08-09 ,,-1.0684060000000002,-1.066956,45.86638,45.86552
45.7611,-0.5403,,C18,PA17000086,Q22995975,Four de potier dit  Varoqueaux ,3,2011-05-26 ,,-0.541025,-0.539575,45.76153,45.76067
46.2287,-1.0154,,,PA00105308,Q22955760,Motte castrale du Breuil-Bertin,3,1989-04-19 ,,-1.0161250000000002,-1.014675,46.229130000000005,46.22827
45.74639,-0.63222,building,C17,PA00105258,Q22955723,Maison dite du Présidial,2,1919-06-07 ,fr:Musée du Présidial de Saintes,-0.632945,-0.631495,45.74682,45.74596
45.962855,-0.983374,,C19,PA17000106,,Poudrière extérieure,3,2015-10-02 ,,-0.984099,-0.982649,45.963285,45.962424999999996
46.2037,-1.365,,C17,PA00105207,Q22955686,Demeure,3,1986-10-08 ,,-1.365725,-1.364275,46.20413,46.203269999999996
45.6979,-0.6254,,,PA00105284,Q22955739,Ruines romaines,2,1912-05-02 ,fr:Ruines romaines de Thénac,-0.6261249999999999,-0.624675,45.69833,45.697469999999996
45.9024,-0.9199,place_of_worship,christian,PA17000008,Q15953556,Église Notre-Dame de Monthérault,3,1996-10-28 ,fr:Église Notre-Dame de Monthérault,-0.920625,-0.9191750000000001,45.90283,45.90197
46.102877,-0.744563,,C12,PA17000067,Q22995961,Aumônerie Saint-Gilles ou chapelle des Minimes,3,2004-07-23 ,,-0.745288,-0.743838,46.103307,46.102447
45.7455,-0.6422,,,PA00105262,Q22955725,Terrain appartenant à M. Pitard situé en face de l'amphithéâtre,2,1932-03-13 ,,-0.642925,-0.641475,45.74593,45.74507
45.7011,-0.9054,archaeological_site,megalith,PA00105157,Q20971029,Dolmen effondré appelé La Pierre Levée de Berthe-grille,2,1937-02-04 ,fr:Dolmen effondré appelé la Pierre Levée de Berthe-grille,-0.906125,-0.904675,45.70153,45.700669999999995
46.165735,-0.859622,yes,C12,PA00104629,Q22954783,Ruines de l'église Saint-Laurent,2,1911-01-19 ,,-0.860347,-0.858897,46.166165,46.165305
45.7173,-0.8781,,C12,PA00105156,Q334129,Ancienne abbaye Notre-Dame,,,fr:Abbaye de Sablonceaux,-0.878825,-0.877375,45.71773,45.71687
45.9443,-0.5217,fountain,yes,PA00105180,Q22955648,Fontaine du Pilori,2,1892-04-25 ,,-0.522425,-0.5209750000000001,45.94473,45.94387
45.9351,-0.9579,,C19,PA00104861,Q17537921,Arsenal,3,1928-06-11 ,fr:Arsenal de Rochefort,-0.958625,-0.957175,45.93553,45.93467
45.6961,-0.7114,,C18,PA00105319,Q2140365,Logis de Vallade,3,1992-07-03 ,fr:Logis de Vallade,-0.712125,-0.7106750000000001,45.69653,45.69567
45.8011,-1.0427,building,C16,PA00105193,Q22955670,,3,1925-02-23 ,,-1.043425,-1.0419749999999999,45.80153,45.80067
46.160038,-1.153632,building,C17,PA00105105,Q22955566,,3,1928-09-29 ,,-1.154357,-1.152907,46.160468,46.159608
45.9439,-0.5211,building,C16,PA00105183,Q22955652,,3,1943-08-26 ,,-0.521825,-0.520375,45.94433,45.94347
46.149891,-1.151936,,C20,PA17000051,Q22995948,Slip way,2,2002-12-13 ,,-1.1526610000000002,-1.151211,46.150321,46.149460999999995
46.2022,-1.3685,building,C18,PA00105209,Q22955687,Hôtel des Cadets,3,1965-05-19 ,,-1.3692250000000001,-1.367775,46.20263,46.201769999999996
46.159962,-1.153409,building,C17,PA00105102,Q22955562,,3,1928-09-29 ,,-1.154134,-1.1526839999999998,46.160392,46.159532
46.159772,-1.153487,building,C17,PA00105108,Q22955569,,3,1928-09-29 ,,-1.154212,-1.1527619999999998,46.160202,46.159341999999995
46.1549,-1.1533,,,PA00105306,Q22955757,Bastion du Gabut et rempart,3,1990-02-26 ,,-1.154025,-1.152575,46.15533,46.154469999999996
45.9357,-0.9575,,C17,PA00104873,Q22955097,Formes de radoub de l'arsenal,,,,-0.958225,-0.956775,45.93613,45.935269999999996
46.16004,-1.153377,building,C17,PA00105100,Q22955560,,3,1928-09-29 ,,-1.1541020000000002,-1.152652,46.160470000000004,46.15961
46.1339,-1.2736,lighthouse,yes,PA17000088,Q3378202,Phare de Chauveau,3,2011-04-15 ,fr:Phare de Chauveau,-1.2743250000000002,-1.272875,46.13433,46.133469999999996
46.19,-1.0257,,,PA00105310,Q22955764,Motte castrale de la Roche-Bertin,3,1989-04-19 ,,-1.0264250000000001,-1.024975,46.19043,46.189569999999996
45.4694,-0.4786,,C18,PA17000021,Q2969758,Domaine de Lussac,3,1999-12-21 ,"fr:Château de Lussac (Lussac, Charente-Maritime)",-0.479325,-0.47787500000000005,45.46983,45.46897
46.159504,-1.153538,building,C17,PA00105114,Q22955579,,3,1928-09-29 ,,-1.154263,-1.1528129999999999,46.159934,46.159074
46.1568,-1.1544,,C17,PA00104879,Q22955103,"Ancienne église des Carmes, marché aux poissons",3,1925-02-23 ,,-1.1551250000000002,-1.153675,46.15723,46.156369999999995
45.7449,-0.6444,,,PA00105263,Q22955726,"Terrain appartenant à M. Robin, limitrophe de l'amphithéâtre",2,1933-10-23 ,,-0.645125,-0.643675,45.74533,45.74447
45.9626,-1.3947,,C15,PA17000099,Q22995982,Ecluses à poissons des Sables-Vignier,3,2012-06-14 ,,-1.3954250000000001,-1.393975,45.96303,45.96217
45.6981,-0.6249,,,PA00105311,Q22955765,Théâtre gallo-romain,2,1990-12-18 ,,-0.625625,-0.624175,45.69853,45.697669999999995
46.15882,-1.151148,building,C15,PA00104921,Q22955176,,3,1931-01-12 ,,-1.1518730000000001,-1.150423,46.15925,46.15839
46.162987,-1.152374,building,,PA00104943,Q22955241,,3,1928-06-14 ,,-1.153099,-1.151649,46.163417,46.162557
46.160194,-1.153586,building,C18,PA00104996,Q22955366,,3,1928-09-29 ,,-1.154311,-1.152861,46.160624,46.159763999999996
46.1601,-1.148,,C19,PA00104874,Q22955099,Bâtiment dit Les Dames Blanches,3,1980-08-05 ,,-1.148725,-1.1472749999999998,46.16053,46.15967
45.578377,-0.548724,building,C18,PA00104847,Q22955078,Hôtel Kervilio-Broussard,3,1944-06-27 ,,-0.549449,-0.547999,45.578807000000005,45.577947
46.2031,-1.3672,,C16,PA00105205,,"Ancienne abbaye, dénommée aussi ancien château des Seigneurs de Rhé ou ancien hôtel de Clerjotte",2,1929-04-09 ,fr:Musée Ernest-Cognacq,-1.367925,-1.3664749999999999,46.20353,46.20267
45.9439,-0.5212,building,C16,PA00105184,Q22955653,,3,1943-08-26 ,,-0.521925,-0.520475,45.94433,45.94347
45.8023,-1.0391,building,C15,PA00105194,Q22955671,Maison Hervé,3,1925-02-23 ,,-1.039825,-1.0383749999999998,45.802730000000004,45.80187
46.159117,-1.153913,building,C17,PA00105112,Q22955576,,3,1928-09-29 ,,-1.154638,-1.1531879999999999,46.159547,46.158687
45.745417,-0.630917,citywalls,C 4,PA00105261,Q3127289,Rempart gallo-romain,2,1977-09-01 ,,-0.6316419999999999,-0.630192,45.745847000000005,45.744987
45.9701,-1.2363,,C19,PA17000066,Q22995960,La Maison Heureuse,3,2004-07-23 ,,-1.237025,-1.2355749999999999,45.970530000000004,45.96967
46.158991,-1.153731,building,C17,PA00105119,Q22955590,,3,1928-09-29 ,,-1.1544560000000001,-1.153006,46.159421,46.158561
46.1605,-1.1541,building,,PA00104997,Q22955371,,3,1928-09-29 ,,-1.154825,-1.1533749999999998,46.16093,46.16007
45.8167,-0.5533,,C1,PA00104671,Q22954811,Aqueduc,2,1840 ,fr:Aqueduc du Douhet,-0.554025,-0.552575,45.81713,45.816269999999996
45.8948,-0.9884,,,PA00105272,Q20947656,Deux dolmens,2,1938-09-02 ,fr:Dolmens de Soubise,-0.9891249999999999,-0.987675,45.89523,45.894369999999995
46.2085,-1.1502,yes,C13,PA00104832,Q22955070,Ruines de l'ancien prieuré de Sermaize,3,1925-02-18 ,,-1.150925,-1.1494749999999998,46.20893,46.20807
46.01247,-1.17712,,,PA00104744,Q22954886,Caserne Vaudreuil,3,1931-05-05 ,,-1.177845,-1.1763949999999999,46.0129,46.01204
46.159897,-1.153433,building,C17,PA00105104,Q22955565,,3,1928-09-29 ,,-1.154158,-1.1527079999999998,46.160327,46.159467
45.8196,-0.9467,marketplace,yes,PA17000093,Q22995977,Halle,3,2011-05-26 ,,-0.947425,-0.945975,45.82003,45.81917
46.01239,-1.17359,building,,PA00104716,Q22954833,Hôtel de ville et bâtiments voisins appartenant à la commune,3,1931-05-19 ,,-1.174315,-1.1728649999999998,46.012820000000005,46.01196
46.159744,-1.153495,building,C17,PA00105109,Q22955572,,3,1928-09-29 ,,-1.15422,-1.1527699999999999,46.160174000000005,46.159314
45.991114,-0.216559,,C12,PA00104681,Q22954813,Ancienne église Saint-Révérend,3,1973-07-23 ,,-0.217284,-0.215834,45.991544000000005,45.990684
45.4409,-0.5538,,C12,PA00105236,Q22955712,Ancienne abbaye de la Tenaille,,,,-0.5545249999999999,-0.553075,45.44133,45.44047
46.161857,-1.149981,building,C16,PA00105122,Q22955594,,3,1924-12-02 ,,-1.150706,-1.1492559999999998,46.162287,46.161426999999996
46.159848,-1.15346,building,C17,PA00105106,Q22955567,,3,1928-09-29 ,,-1.154185,-1.1527349999999998,46.160278,46.159417999999995
45.7456,-0.6343,building,C16,PA00105253,Q22955717,Hôtel de Brémond d'Ars,3,1967-05-18 ,fr:Hôtel de Brémond d'Ars,-0.635025,-0.633575,45.746030000000005,45.74517
45.745545,-0.811374,,,PA00104660,Q22954801,Place de l'église,2,1938-11-09 ,,-0.812099,-0.8106490000000001,45.745975,45.745115
45.74361,-0.61611,,C19,PA00125682,Q3127289,Haras national,3,1993-03-02 ,fr:Haras national de Saintes,-0.616835,-0.6153850000000001,45.74404,45.743179999999995
45.9439,-1.3039,building,C18,PA17000074,Q22995966,Maison des aïeules de Pierre Loti,3,2006-12-20 ,,-1.3046250000000001,-1.303175,45.94433,45.94347
45.7226,-1.2155,,C20,PA17000056,Q22995951,Batterie Muschel,3,2002-07-24 ,,-1.2162250000000001,-1.214775,45.72303,45.72217
45.9427,-0.5219,building,C16,PA00105186,Q22955656,,3,1943-08-26 ,,-0.522625,-0.521175,45.943130000000004,45.94227
46.159433,-1.153548,building,C17,PA00105115,Q22955581,,3,1928-09-29 ,,-1.154273,-1.152823,46.159863,46.159003
45.7463,-0.6206,stone,grooves,PA00105260,Q21523428,Polissoir,2,1964-07-15 ,,-0.621325,-0.6198750000000001,45.74673,45.74587
46.161969,-1.152526,building,,PA00104999,Q22955379,,3,1928-06-14 ,,-1.153251,-1.1518009999999999,46.162399,46.161539
46.156655,-1.163786,archaeological_site,roman_villa,PA00105320,Q22955772,Villa Alsace,3,1992-12-11 ,,-1.164511,-1.163061,46.157085,46.156225
46.1598,-1.1539,building,C18,PA00104888,Q22955117,"Hôtel de la Bourse, actuellement Greffe du Tribunal de Commerce",2,1929-06-14 ,,-1.154625,-1.1531749999999998,46.16023,46.159369999999996
46.0784,-0.4114,,,PA00105235,Q22955710,Restes du camp romain,3,1945-05-11 ,,-0.41212499999999996,-0.410675,46.07883,46.07797
45.9529,-1.0534,fountain,yes,PA00135586,Q22994889,Fontaine de Lupin,,,,-1.054125,-1.0526749999999998,45.95333,45.95247
46.160364,-1.151828,monastery,convent,PA17000105,,Couvent des Augustins (ancien),3,2015-12-29 ,,-1.1525530000000002,-1.151103,46.160794,46.159934
45.9986,-1.3225,archaeological_site,roman_villa,PA00105321,Q22955773,Villa Blockhaus,3,1992-12-11 ,,-1.323225,-1.321775,45.999030000000005,45.99817
45.9474,-0.9637,,C20,PA00104866,Q2577090,Gare,3,1984-12-28 ,fr:Gare de Rochefort,-0.964425,-0.962975,45.94783,45.94697
46.01523,-0.392301,monastery,C12,PA00104835,Q22955072,Prieuré Notre-Dame-d'Oulmes,2,1980-11-14 ,,-0.393026,-0.39157600000000004,46.015660000000004,46.0148
45.8563,-0.8547,archaeological_site,megalith,PA00125680,Q20971028,Dolmen du Bois de la Grosse Pierre,,,fr:Dolmen du Bois de la Grosse Pierre,-0.855425,-0.853975,45.85673,45.855869999999996
46.160081,-1.153613,building,C17,PA00105103,Q22955564,,3,1928-09-29 ,,-1.154338,-1.152888,46.160511,46.159651
46.159798,-1.150767,building,,PA00104899,Q22955152,Maison dite du Maire Jean Guiton,2,1923-10-27 ,,-1.1514920000000002,-1.150042,46.160228000000004,46.159368
46.158887,-1.153752,building,C17,PA00105121,Q22955593,,3,1928-09-29 ,,-1.1544770000000002,-1.153027,46.159317,46.158457
45.8814,-0.9139,,,PA00105288,Q334367,Ruines de l'ancienne abbaye,2,1920-12-20 ,fr:Abbaye de Trizay,-0.914625,-0.9131750000000001,45.88183,45.88097
46.159898,-1.153748,castle,palace,PA00105143,Q22955621,Palais de justice,3,1925-05-14 ,,-1.154473,-1.153023,46.160328,46.159468
46.168121,-1.150555,city_gate,C17,PA00105144,Q22955623,Porte Dauphine,,,fr:Monuments historiques de La Rochelle,-1.15128,-1.14983,46.168551,46.167691
46.2049,-1.3588,,C17,PA00105206,Q22955683,Citadelle et fortifications,2,1984-03-20 ,fr:Citadelle de Saint-Martin-de-Ré,-1.359525,-1.358075,46.205330000000004,46.20447
46.160385,-1.153001,building,C16,PA00104897,Q22955150,Maison de Diane,2,1897-12-03 ,fr:Monuments historiques de La Rochelle,-1.153726,-1.1522759999999999,46.160815,46.159955
45.74722,-0.63778,place_of_worship,C20,PA17000020,Q3517701,Temple protestant de Saintes,3,1998-10-26 ,fr:Temple protestant de Saintes,-0.638505,-0.637055,45.74765,45.74679
46.159087,-1.153913,building,C17,PA00105113,Q22955578,,3,1928-09-29 ,,-1.154638,-1.1531879999999999,46.159517,46.158657
45.4447,-0.4345,,C14,PA00104778,Q22955042,Vieille porte de ville,2,1926-11-25 ,,-0.435225,-0.433775,45.44513,45.444269999999996
45.702583,-0.7079,,C17,PA00132780,Q22975609,Logis du Fief Gallet,3,1994-10-04 ,,-0.708625,-0.707175,45.703013,45.702152999999996
45.7226,-0.7638,,C16,PA00132882,Q22975751,Domaine de Luchat,2,1994-09-02 ,,-0.764525,-0.7630750000000001,45.72303,45.72217
46.159645,-1.1535,building,C18,PA00105111,Q22955574,,3,1928-09-29 ,,-1.154225,-1.1527749999999999,46.160075,46.159214999999996
45.9407,-0.9591,,C18,PA00104862,Q22955089,Caserne Latouche-Tréville,3,1967-04-07 ,,-0.9598249999999999,-0.958375,45.94113,45.94027
45.7719,-0.888,monastery,C11,PA00105173,Q3403054,Prieuré de Sainte-Gemme,,,fr:Prieuré de Sainte-Gemme,-0.888725,-0.887275,45.772330000000004,45.77147
45.704428,-0.438993,building,C17,PA17000102,,Maison dite de la Gaieté,3,2015-08-24 ,,-0.439718,-0.43826800000000005,45.704858,45.703998
45.7435,-0.6344,building,C18,PA00105255,Q22955720,Maison de la Juridiction Consulaire,3,1931-01-12 ,,-0.6351249999999999,-0.633675,45.74393,45.743069999999996
45.7016,-1.2184,,C20,PA17000045,Q22995941,Batterie d'artillerie Wesel Flakberg,3,2002-07-24 ,,-1.219125,-1.2176749999999998,45.70203,45.70117
45.6796,-0.7272,,C18,PA00104857,Q22955086,Ecole,3,1931-01-12 ,,-0.7279249999999999,-0.726475,45.68003,45.67917
45.9402,-0.886,bridge,C19,PA00105287,Q3397643,Pont suspendu et anciens pavillons à péage,,,fr:Pont suspendu de Tonnay-Charente,-0.886725,-0.885275,45.94063,45.939769999999996
46.16327,-1.175581,,C20,PA17000050,Q22995947,Groupe scolaire Pierre-Loti,3,2002-02-12 ,,-1.176306,-1.174856,46.1637,46.162839999999996
45.9682,-0.7073,city_gate,C14,PA00105286,Q22955741,"Porte de Ville, dite Porte Saint-Pierre",3,1928-09-19 ,,-0.708025,-0.7065750000000001,45.968630000000005,45.96777
45.74583,-0.63417,,C15,PA00105257,Q3001722,"Ancien couvent des Jacobins et ancienne maison de Maurice Martineau, actuellement bibliothèque municipale",,,fr:Couvent des Jacobins de Saintes,-0.634895,-0.633445,45.74626,45.7454
45.9425,-0.9573,,C17,PA17000078,Q22995970,Magasin aux vivres,3,2007-03-28 ,,-0.958025,-0.9565750000000001,45.942930000000004,45.94207
45.876,-0.9499,,C12,PA00105158,Q15139014,Ancienne abbaye de Montierneuf,,,fr:Abbaye de Montierneuf (Charente-Maritime),-0.9506249999999999,-0.949175,45.87643,45.875569999999996
45.75083,-0.63667,,C1,PA00105265,Q3523845,Thermes de Saint-Saloine,2,1904-05-27 ,fr:Thermes de Saint-Saloine de Saintes,-0.6373949999999999,-0.635945,45.75126,45.7504
46.1604,-1.1542,building,,PA00104998,Q22955375,,3,1928-09-29 ,,-1.154925,-1.1534749999999998,46.160830000000004,46.15997
47.07961,2.39783,city_gate,C11,PA00096737,Q22940530,"Porte Saint-Ours, provenant de la collégiale Saint-Ursin",2,1840 ,,2.397105,2.398555,47.080040000000004,47.07918
47.08303,2.39961,,C 4,PA00096671,Q22940376,Ancien rempart gallo-romain,,,fr:Rempart gallo-romain de Bourges,2.398885,2.400335,47.08346,47.0826
47.089276,2.391542,,C17,PA18000054,Q22996031,Ermitage dit  de l'Incarnation  ou de  Notre-Dame de Grâce  de l'ancien monastère de Notre-Dame et Saint-Joseph du Mont-Carmel,3,2011-12-22 ,,2.3908169999999997,2.392267,47.089706,47.088846
47.08152484,2.39483504,,,PA00096738,Q22940531,Portique monumental gallo-romain,3,1988-12-20 ,,2.3941100399999997,2.39556004,47.08195484,47.08109484
47.07803,2.40275,,C11,PA00096666,Q22940372,Ancienne église Saint-Aoustrille-du-Château,3,1926-02-19 ,,2.402025,2.4034750000000003,47.07846,47.0776
47.08561,2.39353,building,C15,PA00096691,Q22940390,,3,1968-02-16 ,,2.392805,2.3942550000000002,47.086040000000004,47.08518
47.08958,2.42414,castle,C16,PA18000042,Q22996022,Château de Chappe,3,2008-07-31 ,,2.423415,2.424865,47.09001,47.08915
47.08492,2.39239,,C17,PA00096742,Q22940533,"Ancien couvent des Ursulines, ou ancien Grand Séminaire, actuel Palais de Justice",,,,2.3916649999999997,2.393115,47.08535,47.084489999999995
47.12072,2.448,,C18,PA00096662,Q22940365,Domaine des Quatre-Vents,3,1987-03-11 ,,2.447275,2.448725,47.12115,47.12029
47.086003,2.398455,building,C15,PA00096708,Q22940436,Maisons à pans de bois,3,1965-07-12 ,,2.3977299999999997,2.39918,47.086433,47.085573
47.085954,2.398402,building,C15,PA00096707,Q22940429,,3,1931-04-17 ,,2.397677,2.399127,47.086384,47.085524
47.079965,2.410249,,C19,PA00135281,Q22975944,"Ecole d'artillerie (actuellement direction des services fiscaux du Cher) et fonderie de canons (actuellement direction des armements terrestres, centre de formation des armements terrestres)",3,1995-03-08 ,,2.4095239999999998,2.410974,47.080395,47.079535
47.08126,2.395,fountain,yes,PA00096677,Q22940382,Fontaine monumentale gallo-romaine,2,1989-12-08 ,,2.394275,2.395725,47.08169,47.08083
47.09322,2.39575,,C17,PA18000027,Q22996005,Hôpital général,3,2004-06-10 ,,2.395025,2.396475,47.093650000000004,47.09279
47.05319,2.40475,,C13,PA00096946,Q22940674,Ancien château de Lazenay,,,,2.404025,2.405475,47.05362,47.05276
47.08183,2.39589,,C12,PA00096669,Q22940375,Ancienne église Saint-Jean-le-Vieil,,,,2.395165,2.396615,47.08226,47.081399999999995
47.08903,2.40014,building,C15,PA00096709,Q22940443,Maison à pans de bois,3,1978-12-29 ,,2.399415,2.400865,47.08946,47.0886
47.08025,2.39719,building,C17,PA00096682,Q22940387,"Hôtel de Bosredon, ou de Chouys",3,1933-05-01 ,,2.396465,2.3979150000000002,47.08068,47.07982
47.0851,2.39885,building,,PA00096694,Q22940393,Maison de bois dite Maison des Trois Flûtes,,,,2.398125,2.399575,47.08553,47.084669999999996
47.08614,2.38519,monastery,abbey,PA00096672,Q22940377,Abbaye de Saint-Sulpice située enclos des Bénédictins,,,,2.384465,2.3859150000000002,47.08657,47.08571
47.08183,2.39816,building,C16,PA00096710,Q22940449,,3,1937-10-11 ,,2.3974349999999998,2.398885,47.08226,47.081399999999995
47.083788,2.392345,,C16,PA00096664,Q22940368,Ancienne église des Clarisses,3,1933-05-01 ,,2.39162,2.3930700000000003,47.084218,47.083358
47.084211,2.394135,,,PA18000064,,Monument à Jacques Coeur,3,2017-03-23,,2.39341,2.39486,47.084641000000005,47.083781
47.08586,2.39831,building,C15,PA00096725,Q22940519,"Maison dite de la Paneterie, ou maison André",3,1931-04-17 ,,2.397585,2.399035,47.08629,47.085429999999995
47.085926,2.39837,building,C15,PA00096706,Q22940421,,3,1928-11-10 ,,2.397645,2.399095,47.086356,47.085496
47.0815,2.39611,,C15,PA00096689,Q3145926,Ancien hôtel des Trésoriers de la Sainte-Chapelle,3,1928-02-17 ,,2.395385,2.3968350000000003,47.08193,47.08107
47.08728,2.39819,,C19,PA00096680,Q22940385,Halles Saint-Bonnet,3,1987-02-17 ,,2.397465,2.398915,47.08771,47.08685
47.08611,2.40172,place_of_worship,christian,PA18000041,Q22996021,Église Saint-Pierre-le-Marché (actuelle église Notre-Dame),,,,2.400995,2.402445,47.08654,47.085679999999996
47.08272,2.39719,,C15,PA00096712,Q22940465,"Maison, ou hôtel Chambetin",3,1928-02-17 ,,2.396465,2.3979150000000002,47.08315,47.08229
44.81866667,1.294861111,,,PA00082574,Q22919767,Gisement préhistorique moustérien de la Gane,2,1927-07-19 ,,1.2941361109999998,1.295586111,44.81909667,44.81823667
44.99038,0.632861,archaeological_site,megalith,PA00082357,Q22987072,Dolmen,2,1940-03-01 ,,0.632136,0.633586,44.99081,44.98995
45.494929,0.745678,,C20,PA24000092,,Monument aux Morts de la guerre 14-18,3,2015-02-03 ,,0.744953,0.7464029999999999,45.495359,45.494499
44.9153,0.9761,,,PA24000080,Q22996223,Grotte préhistorique de la Muzardie,3,2013-07-03 ,,0.975375,0.9768249999999999,44.91573,44.91487
44.88997222,1.217,building,C17,PA00082940,Q3146189,Hôtel de ville,2,1947-04-11 ,fr:Hôtel de ville de Sarlat-la-Canéda,1.216275,1.2177250000000002,44.89040222,44.889542219999996
44.890472,1.216306,building,C15,PA00082947,Q22988021,,2,1944-08-18 ,,1.215581,1.2170310000000002,44.890902000000004,44.890042
44.769267,0.766836,building,,PA00082351,Q22986913,,3,1952-05-17 ,,0.766111,0.7675609999999999,44.769697,44.768837
44.769,0.766917,city_gate,C14,PA00082355,Q22987031,Porte de Luzier,3,1952-05-17 ,,0.766192,0.7676419999999999,44.76943,44.76857
45.182142,0.714656,monastery,convent,PA00082728,Q16008875,Couvent de Sainte-Marthe,2,1888-11-29 ,fr:Couvent Sainte-Marthe de Périgueux,0.713931,0.7153809999999999,45.182572,45.181712
44.888167,1.215278,building,C16,PA00082961,Q22988047,Immeuble des Contributions,3,1944-02-25 ,,1.214553,1.2160030000000002,44.888597000000004,44.887737
45.18325,0.723861,building,C15,PA00082751,Q3057899,Maison dite Moulin Saint-Front,2,1977-05-17 ,fr:Eschif (Périgueux),0.723136,0.724586,45.18368,45.18282
44.889751,1.216033,,C17,PA00082935,Q22988006,Ancien Hôtel-Dieu,3,1977-02-15 ,,1.2153079999999998,1.216758,44.890181,44.889320999999995
45.063333,1.248056,,C12,PA00082792,Q2315401,Ancienne abbaye,2,1965-07-05 ,fr:Abbaye de Saint-Amand-de-Coly,1.247331,1.2487810000000001,45.063763,45.062903
44.79701,0.75735,,,PA00082400,Q22987505,Gisement solutréen du Malpas,2,1927-11-11 ,,0.756625,0.7580749999999999,44.79744,44.79658
45.055278,1.178639,,,PA00082695,Q581818,Gisement préhistorique du Régourdou,2,1959-01-06 ,fr:Le Regourdou,1.177914,1.179364,45.055708,45.054848
44.858553,1.254501,,,PA00082436,Q2065991,Gisement préhistorique du Pech de l'Azé,2,1927-05-28 ,,1.253776,1.2552260000000002,44.858983,44.858123
45.06597222,1.162555556,building,,PA00082700,Q22920014,,3,1931-01-12 ,,1.161830556,1.1632805560000001,45.06640222,45.06554222
44.68041,0.89433,building,,PA00082664,Q22919888,,3,1962-01-02 ,,0.893605,0.8950549999999999,44.68084,44.67998
44.9369,1.0221,,C18,PA00082539,Q22919740,Ancienne forge des Eyzies,3,1986-08-29 ,,1.021375,1.022825,44.93733,44.93647
45.380083,0.804611,yes,C15,PA00082888,Q22987933,Chapelle des Ladres de Bruzac,3,1948-06-24 ,,0.803886,0.8053359999999999,45.380513,45.379653
44.994667,1.061556,,,PA00082858,Q22987893,Chemin vicinal,2,1931-10-06 ,,1.0608309999999999,1.062281,44.995097,44.994237
44.889735,1.21744,building,C15,PA00082960,Q22988046,,2,1944-05-30 ,,1.216715,1.2181650000000002,44.890165,44.889305
44.94830556,1.108305556,,,PA24000059,Q22996201,Gisement préhistorique de Laussel,3,2007-02-27 ,,1.1075805559999998,1.109030556,44.94873556,44.94787556
44.889472,1.216611,building,C15,PA00082956,Q22988042,,3,1944-04-17 ,,1.215886,1.2173360000000002,44.889902,44.889041999999996
44.7285,1.17,,,PA00082895,Q22987939,Enceinte et monument des Grilloux,3,1980-06-17 ,,1.1692749999999998,1.170725,44.72893,44.728069999999995
44.768725,0.767184,building,C14,PA00082346,Q22986703,Maison à cornière,3,1952-05-17 ,,0.766459,0.767909,44.769155000000005,44.768295
45.187444,0.722056,building,C18,PA00082731,Q15617005,Hôtel de la Division,3,1960-11-09 ,fr:Hôtel de la Division (Périgueux),0.721331,0.722781,45.187874,45.187014
45.04004,0.38088,,,PA00083008,Q22988158,Grotte de Las Agnelas ou de Gabillou,2,1942-07-20 ,fr:Grotte de Gabillou,0.380155,0.38160499999999997,45.04047,45.039609999999996
44.99294444,0.933333333,stone,grooves,PA00082640,Q21523432,Polissoir,2,1968-01-04 ,fr:Polissoir (archéologie),0.932608333,0.934058333,44.993374440000004,44.99251444
45.183167,0.723,building,C15,PA00082741,Q16508848,,3,1946-10-04 ,fr:Maison du Thouin (Périgueux),0.722275,0.723725,45.183597,45.182736999999996
44.8893,1.2164,building,C15,PA00082962,Q22988049,,3,1977-03-01 ,,1.2156749999999998,1.217125,44.88973,44.88887
44.97977778,1.055416667,,,PA00083037,Q22988219,Gisement péhistorique dit de la Maison Forte de Reignac,2,1966-04-25 ,,1.054691667,1.0561416670000001,44.98020778,44.97934778
44.841167,0.493806,building,C20,PA24000065,Q22996208,Maison Pic,3,2008-03-27 ,,0.49308100000000005,0.494531,44.841597,44.840737
45.174528,0.546306,,C17,PA24000069,Q22996211,Chartreuse de Fareyroux,3,2008-12-16 ,,0.545581,0.5470309999999999,45.174958000000004,45.174098
44.8858,1.2163,building,C18,PA00082945,Q22988016,,3,1945-12-04 ,,1.2155749999999999,1.217025,44.886230000000005,44.88537
44.769824,0.766786,building,C15,PA00082353,Q22986963,,3,1952-05-17 ,,0.766061,0.7675109999999999,44.770254,44.769394
44.851333,0.484,building,C14,PA00082377,Q22987416,Maison dite La vieille auberge,3,1948-06-24 ,,0.483275,0.48472499999999996,44.851763,44.850902999999995
44.8111389,1.23013889,,,PA00082517,Q22919703,Grotte ornée dite du Pigeonnier,2,1983-06-27 ,fr:Grotte ornée du Pigeonnier,1.22941389,1.2308638900000002,44.811568900000005,44.8107089
44.7491,0.8658,building,C16,PA00082691,Q22920004,Maison du 16e siècle,3,1948-01-05 ,,0.865075,0.866525,44.74953,44.74867
45.015194,0.450333,tower,yes,PA00082580,Q17769796,Tour Saint-Jacques,3,1987-07-02 ,fr:Tour Saint-Jacques (Issac),0.449608,0.45105799999999996,45.015624,45.014764
44.9465,1.089,,,PA24000072,Q22996214,Grotte préhistorique de la Grèze,3,2009-10-09 ,,1.0882749999999999,1.089725,44.94693,44.94607
44.963361,1.274083,building,C18,PA00082817,Q22987834,Maison dite Les Granges,3,1975-11-21 ,,1.273358,1.2748080000000002,44.963791,44.962931
44.806306,1.225806,,,PA00082514,Q22919675,Gisement et abri de Combe-Grenal,2,1911-07-18 ,fr:Gisement et abri de Combe-Grenal,1.2250809999999999,1.226531,44.806736,44.805876
45.179444,0.714361,tower,yes,PA00082762,Q3533474,Tour de Vésone,2,1846 ,fr:Tour de Vésone,0.713636,0.715086,45.179874,45.179013999999995
44.9432,1.0066,,,PA00082549,Q22919746,Grotte de la Croze,2,1914-05-09 ,,1.0058749999999999,1.007325,44.94363,44.942769999999996
44.89066667,1.215722222,building,C16,PA00082946,Q22988019,,3,1946-08-23 ,,1.2149972219999998,1.216447222,44.89109667,44.89023667
44.68041,0.89443,building,,PA00082663,Q22919886,,2,1904-12-21 ,,0.893705,0.8951549999999999,44.68084,44.67998
44.84962,0.48366,building,C15,PA00082372,Q22987395,Maison dite Château Henri IV,3,1947-11-18 ,,0.482935,0.48438499999999995,44.85005,44.84919
44.68,0.89411,building,,PA00082674,Q22919985,,2,1904-12-21 ,,0.893385,0.8948349999999999,44.68043,44.67957
44.860694,0.919306,archaeological_site,megalith,PA24000070,Q22996212,Dolmen de Cantegrel,3,2008-12-01 ,,0.918581,0.9200309999999999,44.861124000000004,44.860264
44.8853,1.2361,tower,yes,PA00082988,Q22988106,Tour de la Croix des Pechs,3,1961-04-19 ,,1.235375,1.236825,44.88573,44.88487
44.890889,1.214417,building,C18,PA00082934,Q22988005,Hôtel d'Anglars,3,1948-06-24 ,,1.213692,1.2151420000000002,44.891319,44.890459
45.066,1.162694444,building,C17,PA00082699,Q22920013,,3,1931-01-12 ,,1.161969444,1.163419444,45.066430000000004,45.06557
44.97722222,1.053694444,,,PA00083041,Q22988229,Grotte de La Forêt,2,1981-07-03 ,,1.052969444,1.054419444,44.97765222,44.97679222
44.8268,0.1902,,,PA00082770,Q22987790,Cinq mosaïques gallo-romaines,2,1926-03-05 ,,0.189475,0.190925,44.82723,44.82637
44.6797,0.7123,building,C14,PA00083082,Q22988304,Maison à empilage de planches de Jouandis,2,1996-12-27 ,fr:Maisons à empilage du Nord-Agenais,0.7115750000000001,0.713025,44.68013,44.679269999999995
44.9372,1.0124,,,PA00082544,Q22919741,Gisement préhistorique du Vignaud,2,1932-11-29 ,,1.0116749999999999,1.013125,44.93763,44.936769999999996
44.89011111,1.215222222,,C17,PA00082921,Q3320395,Ancienne Chapelle des Récollets ou des Pénitents et son cloître,3,1937-12-08 ,fr:Monastère des Récollets (Sarlat-la-Canéda),1.2144972219999999,1.215947222,44.89054111,44.88968111
44.86980556,1.042972222,catholic,C16,PA00082825,Q22987844,,3,1965-06-16 ,,1.0422472219999999,1.043697222,44.870235560000005,44.86937556
44.768927,0.76701,building,,PA00082349,Q22986846,,3,1952-05-17 ,,0.766285,0.767735,44.769357,44.768496999999996
44.89252778,1.214055556,,C18,PA00082933,Q22988000,Hôpital,,,,1.2133305559999998,1.214780556,44.89295778,44.89209778
44.81075,1.23025,,,PA00082516,Q22919694,Grotte ornée dite du Mammouth,,,,1.229525,1.2309750000000002,44.81118,44.81032
44.8008611,1.21413889,building,C17,PA00082520,Q22919725,Maison dite Le Castelet,3,1956-11-20 ,,1.21341389,1.2148638900000002,44.8012911,44.8004311
44.93133333,1.067583333,,,PA00082644,Q549339,Grotte de Bernifal,2,1904-05-27 ,fr:Grotte de Bernifal,1.0668583329999999,1.068308333,44.93176333,44.93090333
44.80280556,1.21277778,monastery,abbey,PA00082511,Q22919642,Abbaye,3,1971-02-19 ,,1.2120527799999998,1.21350278,44.803235560000005,44.80237556
44.91111111,1.14525,,,PA00135166,Q22975854,Grotte de Puymartin,3,1995-10-24 ,,1.144525,1.1459750000000002,44.91154111,44.91068111
44.68006,0.89475,building,,PA00082657,Q22919876,,3,1962-01-02 ,,0.8940250000000001,0.895475,44.68049,44.679629999999996
44.88969444,1.217833333,building,C15,PA00082954,Q22988039,,3,1976-11-19 ,,1.2171083329999999,1.218558333,44.89012444,44.88926444
45.185,1.003417,archaeological_site,megalith,PA00082615,Q22919794,Dolmen,3,1980-06-27 ,fr:Dolmen de Peyrelevade (Limeyrat),1.002692,1.004142,45.185430000000004,45.18457
45.06594444,1.162444444,building,,PA00082701,Q22920016,,3,1931-01-12 ,,1.1617194439999998,1.163169444,45.066374440000004,45.06551444
44.88958333,1.216583333,building,C16,PA00082938,Q22988010,Hôtel de Maleville dit Hôtel de Vienne (maison Renaissance),2,1889 ,fr:Hôtel de Vienne (Sarlat),1.215858333,1.217308333,44.89001333,44.88915333
45.157611,1.140944,,,PA00135172,Q22975861,Site de la grotte du Peyrat,3,1995-10-24 ,,1.1402189999999999,1.141669,45.158041000000004,45.157181
44.67987,0.89417,building,,PA00082672,Q22919901,,2,1904-12-21 ,,0.893445,0.894895,44.6803,44.67944
44.920278,1.124444,building,C19,PA00083093,Q752519,Maison d'habitation et cabanes en pierre sèche du Breuilh,,,fr:Cabanes du Breuil,1.123719,1.125169,44.920708000000005,44.919848
44.99077778,1.052083333,,,PA00083038,Q22988220,Gisement préhistorique du Ruth ou Abri Pages,2,1927-08-16 ,,1.0513583329999998,1.052808333,44.99120778,44.99034778
44.90780556,1.132333333,,,PA00082798,Q22987817,"Grotte, gisement du Roch et abri sous roche du Pas-Estrét",2,1932-02-12 ,,1.131608333,1.1330583330000001,44.90823556,44.90737556
44.810889,0.824417,building,C14,PA00082649,Q22919869,Maison à arcades du 14e siècle,2,1920-02-20 ,,0.823692,0.8251419999999999,44.811319000000005,44.810459
45.446722,0.853917,,,PA00135171,Q22975859,Site de la grotte des Fraux,3,1995-10-24 ,,0.8531920000000001,0.854642,45.447152,45.446292
45.184222,0.724639,building,,PA00082757,Q22987776,,3,1927-01-06 ,,0.7239140000000001,0.725364,45.184652,45.183792
44.801056,1.213556,citywalls,C13,PA00082522,Q22919729,,2,1943-01-05 ,,1.212831,1.2142810000000002,44.801486000000004,44.800626
44.888833,1.215639,,C15,PA00082969,Q22988056,"Maison, ou Hôtel Saint-Clar",3,1931-01-12 ,,1.2149139999999998,1.216364,44.889263,44.888403
44.890722,1.215389,building,C15,PA00082943,Q22988014,,3,1944-01-03 ,,1.214664,1.2161140000000001,44.891152,44.890291999999995
44.841611,0.652639,,C19,PA24000008,Q22674415,Canal de Lalinde (pont-canal et murs d'encaissement qui lui font suite),3,1996-09-11 ,fr:Canal de Lalinde,0.651914,0.653364,44.842041,44.841181
44.9385,1.0116,,,PA00082543,Q331390,Gisement préhistorique du Pataud,,,fr:Abri Pataud,1.010875,1.0123250000000001,44.93893,44.938069999999996
44.769073,0.766972,building,C14,PA00082350,Q22986882,,3,1952-05-17 ,,0.766247,0.767697,44.769503,44.768643
45.145779,0.529435,building,C16,PA00082805,Q22987822,,3,1948-12-06 ,,0.52871,0.53016,45.146209,45.145348999999996
44.851346,0.483975,building,C16,PA00082376,Q22987413,,3,1948-11-29 ,,0.48325,0.48469999999999996,44.851776,44.850916
44.67983,0.89453,building,,PA00082668,Q22919893,,2,1961-10-23 ,,0.8938050000000001,0.895255,44.680260000000004,44.6794
44.93377778,1.281583333,castle,manor,PA00082777,Q22987800,Manoir,3,1948-12-06 ,,1.2808583329999998,1.282308333,44.93420778,44.93334778
44.811417,0.87375,,C12,PA00082415,Q333850,Ancienne abbaye de Cadouin,,,fr:Abbaye de Cadouin,0.873025,0.874475,44.811847,44.810987
44.88773232,1.16634871,,C16,PA00082794,Q22987814,"Autel, dit aussi croix de Lassagne",2,1931-04-11 ,,1.16562371,1.1670737100000002,44.88816232,44.887302319999996
44.9437,0.9965,,,PA00082552,Q22919747,Grotte et gisement de l'Oreille d'Enfer,2,1932-08-23 ,,0.9957750000000001,0.997225,44.94413,44.94327
45.12394444,1.293805556,,,PA00083012,Q22988170,Grotte préhistorique de Saint-Sours ou de Lachaud,2,1948-02-13 ,,1.2930805559999998,1.294530556,45.124374440000004,45.12351444
44.943,0.9967,,,PA00082545,Q22919742,Grotte d'Abzac,2,1934-07-31 ,,0.995975,0.997425,44.94343,44.942569999999996
44.89055556,1.216083333,building,C14,PA00082963,Q22988050,"Maison dite des Consuls, ou Hôtel de Plamon, ou Hôtel de Tapinois de Beton",2,1889 ,fr:Hôtel Plamon (Sarlat-la-Canéda),1.215358333,1.2168083330000001,44.890985560000004,44.89012556
45.104778,1.13675,place_of_worship,christian,PA00082329,Q3584741,Église Saint-Etienne,3,1973-12-27 ,fr:Église Saint-Étienne d'Auriac-du-Périgord,1.1360249999999998,1.137475,45.105208000000005,45.104348
44.89005556,1.217722222,building,C15,PA00082950,Q22988029,,3,1944-02-24 ,,1.2169972219999998,1.218447222,44.89048556,44.88962556
44.77916667,1.045777778,,C10,PA00082441,Q22919168,Cluzeau du Pétrou,3,1988-02-01 ,fr:Cluzeau du Pétrou,1.0450527779999998,1.046502778,44.779596670000004,44.77873667
45.493222,0.745833,building,C16,PA00082885,Q22987930,Hôtel des Voyageurs,3,1976-11-10 ,,0.745108,0.7465579999999999,45.493652000000004,45.492792
44.9395,1.0742,,C19,PA00082554,Q22919749,Pavillon avec pigeonnier à Sireuil,3,1982-12-21 ,,1.073475,1.0749250000000001,44.939930000000004,44.93907
45.05325,0.363861,,C18,PA00082831,Q22987854,Ancien presbytère,3,1974-02-04 ,,0.363136,0.36458599999999997,45.05368,45.05282
44.99888889,1.044333333,,,PA00083040,Q22988227,Gisement préhistorique du Roc du Barbeau,2,1936-11-21 ,,1.0436083329999999,1.045058333,44.999318890000005,44.99845889
44.6804,0.89421,building,,PA00082665,Q22919889,,2,1904-12-21 ,,0.893485,0.8949349999999999,44.68083,44.67997
44.9346,1.0288,,,PA00082550,Q914743,Grotte de Font-de-Gaume (grotte du Sourd),2,1902-07-03 ,fr:Grotte de Font-de-Gaume,1.0280749999999999,1.029525,44.935030000000005,44.93417
44.88005556,1.095444444,,,PA24000057,Q22996199,Gisement préhistorique du Roc Pointu,3,2007-02-27 ,,1.0947194439999999,1.096169444,44.880485560000004,44.87962556
44.72984,0.60529,,C17,PA00082584,Q22919772,Ancienne prévôté,3,1946-10-03 ,,0.604565,0.606015,44.730270000000004,44.72941
44.72608333,1.145861111,,C13,PA00082896,Q22987940,Ancienne porte fortifiée,2,1937-06-03 ,,1.145136111,1.1465861110000002,44.72651333,44.72565333
44.768675,0.767624,building,C14,PA00082345,Q22986687,Maison à cornière,3,1952-05-17 ,,0.766899,0.768349,44.769105,44.768245
44.8917,1.2208,yes,C17,PA00082918,Q22987972,Chapelle de Notre-Dame-de-Bonne-Rencontre,3,1949-08-22 ,,1.220075,1.2215250000000002,44.89213,44.89127
44.68026,0.89404,building,,PA00082677,Q22919989,,2,1904-12-21 ,,0.893315,0.8947649999999999,44.68069,44.679829999999995
44.85422222,1.263416667,,,PA00082437,Q22987690,Gisement préhistorique du Pech de la Boissière,2,1927-03-16 ,,1.262691667,1.264141667,44.85465222,44.853792219999995
44.890278,1.216167,building,C17,PA00082972,Q22920036,,2,1962-06-06 ,,1.215442,1.216892,44.890708000000004,44.889848
44.68042,0.89455,building,,PA00082662,Q22919885,,2,1904-12-21 ,,0.893825,0.8952749999999999,44.68085,44.67999
44.8297,0.8482,,,PA24000033,Q3087510,Grotte ornée souterraine de Cussac,2,2002-07-03 ,fr:Grotte de Cussac,0.847475,0.8489249999999999,44.830130000000004,44.82927
45.179556,0.713194,,,PA00082763,Q22987781,"Vestiges de la villa gallo-romaine, dite villa des Bouquets",2,1963-10-25 ,,0.712469,0.713919,45.179986,45.179126
45.185028,0.721667,building,C15,PA00082749,Q16508845,Maison dite La Maison du Pâtissier,2,1902-05-02 ,fr:Maison du Pâtissier (Périgueux),0.720942,0.7223919999999999,45.185458000000004,45.184598
44.8907,1.2147,yes,C14,PA00082931,Q21293499,Vestiges de l'enceinte,,,,1.2139749999999998,1.215425,44.891130000000004,44.89027
44.68021,0.89467,building,,PA00082659,Q22919881,,2,1904-12-21 ,,0.893945,0.8953949999999999,44.680640000000004,44.67978
44.68039,0.89411,building,,PA00082666,Q22919890,,2,1904-12-21 ,,0.893385,0.8948349999999999,44.680820000000004,44.67996
45.064111,1.163667,,C14,PA00082697,Q22920010,Ancien hôpital Saint-Jean ou ancien prieuré,,,,1.162942,1.164392,45.064541,45.063680999999995
44.89011111,1.218055556,building,C15,PA00082952,Q22988035,,3,1963-11-12 ,,1.2173305559999998,1.218780556,44.89054111,44.88968111
44.890611,1.216167,building,C15,PA00082970,Q22988057,,2,1946-09-18 ,,1.215442,1.216892,44.891041,44.890181
45.05243,0.40595,,C20,PA24000028,Q22996179,Jardins du Chaufourg,3,2000-11-02 ,,0.405225,0.40667499999999995,45.05286,45.052
44.80294444,1.215861111,,,PA00082515,Q22919686,Grotte préhistorique dite Grotte de la Martine,2,1978-03-15 ,,1.2151361109999999,1.216586111,44.80337444,44.802514439999996
45.146519,0.529865,,C20,PA24000088,Q22996232,Monument aux morts de la guerre1914-1918,3,2014-10-21 ,,0.52914,0.53059,45.146949,45.146088999999996
44.81084,0.71928,,,PA24000058,Q22996200,Grotte préhistorique de la Cavaille,3,2007-01-31 ,,0.718555,0.720005,44.81127,44.81041
45.065,1.164138889,,C15,PA00082698,Q22920012,Hôpital,3,1949-08-22 ,,1.1634138889999999,1.164863889,45.06543,45.064569999999996
44.844306,0.779722,,C19,PA24000005,Q22674412,Canal de Lalinde (aqueduc et pont-déversoir de la Tuilerie de Villeneuve),3,1996-09-11 ,fr:Canal de Lalinde,0.778997,0.780447,44.844736000000005,44.843876
45.36354,0.6502,building,C14,PA00082412,Q22987578,,3,1929-06-25 ,,0.649475,0.650925,45.36397,45.36311
44.9405,1.0097,,,PA00082533,Q331409,Abri de Cro-Magnon,2,1957-01-09 ,fr:Abri de Cro-Magnon,1.008975,1.0104250000000001,44.94093,44.94007
45.586054,0.574889,,,PA00083015,Q1643811,Grotte dite de la Mairie,2,1910-04-04 ,fr:Grotte de la Mairie,0.574164,0.575614,45.586484,45.585623999999996
45.17836111,1.257611111,,,PA24000050,Q22996195,Grotte préhistorique de la Sudrie,3,2005-12-20 ,,1.2568861109999998,1.258336111,45.17879111,45.177931109999996
44.98247222,0.955888889,,,PA00082639,Q22919863,Gisement préhistorique de la Faurelie,2,1930-02-04 ,,0.955163889,0.956613889,44.98290222,44.98204222
44.890639,1.215,building,C15,PA00082968,Q22988054,,3,1944-03-08 ,,1.214275,1.2157250000000002,44.891069,44.890209
45.36597,0.55961,,,PA00082566,Q22919759,Gisement de Tabaterie (abri Brouillaud et abri Sondougne),2,1909-09-20 ,,0.5588850000000001,0.560335,45.3664,45.365539999999996
45.32965,0.59,,,PA24000013,Q22996168,Site de la grotte préhistorique des Bernoux,3,1997-06-17 ,,0.589275,0.590725,45.33008,45.32922
45.015056,0.448861,building,C18,PA00082579,Q17769832,Immeuble dit Maison Chastenet,3,1987-07-02 ,fr:Maison Chastenet (Issac),0.44813600000000003,0.449586,45.015486,45.014626
45.423919,1.253605,,,PA00083100,Q22988328,Ensemble des bâtiments du Rouveix (Paradinas),3,1992-03-17 ,,1.25288,1.2543300000000002,45.424349,45.423489
44.851257,1.20474,archaeological_site,megalith,PA00083070,Q22988290,Dolmen de Peyrelevade,2,1910-02-28 ,,1.2040149999999998,1.205465,44.851687,44.850826999999995
44.889556,1.216806,building,C16,PA00082975,Q22979301,Maison dite maison d'Anne de Dautrery,3,1962-05-29 ,,1.216081,1.2175310000000001,44.889986,44.889126
44.96533333,1.148944444,,C14,PA00083010,Q22988163,Ancien prieuré,3,1978-06-26 ,,1.148219444,1.1496694440000002,44.96576333,44.96490333
44.9284,1.0346,,,PA24000052,Q22996196,Grotte préhistorique de Cournazac,3,2006-03-20 ,,1.0338749999999999,1.035325,44.928830000000005,44.92797
45.184528,0.721361,building,C16,PA00082758,Q16008597,Maison Renaissance ou ancien hôtel de Lestrade dit aussi hôtel de la Joubertie,,,"fr:Hôtel de Lestrade (rue de la Sagesse, Périgueux)",0.720636,0.722086,45.184958,45.184098
44.68083,0.8945,,C13,PA00082654,Q22919872,"Ancienne grange aux dîmes, dite Maison du Chapître",3,1929-06-25 ,fr:Maison du Chapître (Montpazier),0.893775,0.8952249999999999,44.68126,44.6804
44.67993,0.89407,building,,PA00082673,Q22919947,,2,1904-12-21 ,,0.8933450000000001,0.894795,44.68036,44.6795
44.829889,0.702111,,C16,PA00083076,Q2845932,Anciennes papeteries,,,fr:Anciennes papeteries de Couze-et-Saint-Front,0.7013860000000001,0.702836,44.830319,44.829459
45.210944,0.673472,,,PA00082471,Q22919193,Abri de Raymonden I,2,1926-08-20 ,,0.672747,0.6741969999999999,45.211374,45.210513999999996
44.768999,0.767729,building,C14,PA00082344,Q22986684,Maison à cornière,3,1952-05-17 ,,0.767004,0.768454,44.769429,44.768569
45.364833,0.649389,building,C12,PA00082410,Q22987561,,3,1958-11-05 ,,0.648664,0.650114,45.365263,45.364402999999996
44.68014,0.89475,building,,PA00082658,Q22919877,,3,1962-01-02 ,,0.8940250000000001,0.895475,44.68057,44.67971
44.88897222,1.215083333,monastery,convent,PA00082926,Q3001625,Couvent de Sainte-Claire,3,1944-02-25 ,fr:Couvent Sainte-Claire (Sarlat-la-Canéda),1.2143583329999998,1.215808333,44.88940222,44.88854222
44.9745,1.324361111,building,C13,PA00082914,Q22987966,,2,1995-07-04 ,,1.323636111,1.325086111,44.97493,44.97407
44.769008,0.767179,building,C14,PA00082343,Q22986683,Maison à cornière,3,1952-05-17 ,,0.7664540000000001,0.767904,44.769438,44.768578
45.334563,0.594004,,,PA00082392,Q1440044,Gisement préhistorique,2,1980-11-25 ,fr:Fourneau-du-Diable,0.593279,0.594729,45.334993000000004,45.334133
44.9336,1.066,,,PA00082553,Q22919748,Grotte,3,1974-02-26 ,,1.065275,1.0667250000000001,44.93403,44.93317
44.89472222,0.978194444,,,PA00083074,Q17644673,Gisement en grotte du Roc de Marsal,3,1989-11-28 ,fr:Roc de Marsal,0.977469444,0.978919444,44.89515222,44.89429222
44.88869444,1.216694444,,C15,PA00082932,Q22987998,Ancien Evêché,3,1927-01-06 ,,1.215969444,1.2174194440000001,44.88912444,44.88826444
44.890472,1.218306,building,C14,PA00082944,Q22988015,,3,1944-02-25 ,,1.2175809999999998,1.219031,44.890902000000004,44.890042
45.05008333,1.177527778,,,PA00082694,Q22920009,Gisement préhistorique de La Balutie,2,1960-12-28 ,,1.1768027779999999,1.178252778,45.05051333,45.04965333
44.874028,1.104722,,C12,PA00082451,Q22919175,Ancien prieuré de Redon-Espic,2,1999-12-02 ,,1.103997,1.105447,44.874458000000004,44.873598
45.01775,1.156472222,,,PA00083048,Q22988246,Gisement de la Combe,2,1935-08-20 ,,1.155747222,1.1571972220000002,45.01818,45.01732
44.88838889,1.216472222,building,C17,PA00082953,Q22988038,,3,1948-11-29 ,,1.2157472219999998,1.217197222,44.88881889,44.88795889
45.008611,0.988056,,,PA00082788,Q550252,Grotte du Cro de Granville ornée de peintures et de gravures pariétales,2,1957-08-20 ,fr:Grotte de Rouffignac,0.9873310000000001,0.988781,45.009041,45.008181
44.945556,1.096944,,,PA00082632,Q122281,Abri du Cap-Blanc à Laussel,,,fr:Abri de Cap Blanc,1.0962189999999998,1.097669,44.945986000000005,44.945126
45.30233,0.536313,,,PA00082569,Q3107779,Gisement préhistorique de Rochereil ou Rochereuil,2,1952-04-01 ,fr:Gisement préhistorique de Rochereil,0.5355880000000001,0.537038,45.30276,45.301899999999996
44.84675,0.634361,,C19,PA24000009,Q22674417,"Canal de Lalinde (bassin de radoub, y compris son gril)",3,1996-09-11 ,fr:Canal de Lalinde,0.633636,0.6350859999999999,44.84718,44.84632
45.421833,0.838056,,C16,PA00082844,Q22987870,Ancien prieuré ou ancienne abbaye,,,fr:Prieuré de Saint-Jean-de-Côle,0.837331,0.838781,45.422263,45.421403
45.473301,0.615894,,C13,PA24000025,Q22996176,Ancienne résidence médiévale dite du Repaire,3,1999-04-29 ,,0.6151690000000001,0.616619,45.473731,45.472871
45.617222,0.659722,,C12,PA00082827,Q22987847,Restes du prieuré de Badeix,3,1938-06-18 ,,0.658997,0.660447,45.617652,45.616792
44.75298,0.85011,,,PA00082810,Q1113596,Gisement préhistorique,,,fr:Combe-Capelle,0.8493850000000001,0.850835,44.75341,44.75255
44.951667,0.937861,,,PA00082992,Q39656,Gisement préhistorique de la Ferrassie,2,1960-01-05 ,fr:La Ferrassie,0.937136,0.9385859999999999,44.952097,44.951237
44.67997,0.89469,building,,PA00082656,Q22919875,,2,1904-12-21 ,,0.893965,0.895415,44.6804,44.679539999999996
44.889611,1.216833,building,C18,PA00082976,Q22988061,,3,1944-02-15 ,,1.216108,1.2175580000000001,44.890041000000004,44.889181
44.99433333,1.052555556,,,PA00083034,Q22988214,Gisement préhistorique dit Abri Cellier au Ruth,2,1927-04-12 ,,1.0518305559999999,1.053280556,44.994763330000005,44.99390333
44.89011111,1.215222222,yes,C17,PA00082919,Q3320395,Chapelle des Pénitents Blancs,2,1944-03-14 ,fr:Chapelle des Pénitents blancs (Sarlat-la-Canéda),1.2144972219999999,1.215947222,44.89054111,44.88968111
45.182972,0.720139,building,C12,PA00082750,Q16008843,Maison ancienne dite Maison des Dames de la Foi ou ancien hôtel Arnaud de Laborie,2,2011-03-17 ,fr:Couvent des Dames de la Foi de Périgueux,0.719414,0.720864,45.183402,45.182542
44.851083,0.482583,,C17,PA00082378,Q22987423,Ancien Séminaire ou Petite Mission,3,1984-12-21 ,,0.481858,0.48330799999999996,44.851513000000004,44.850653
44.8886,1.2164,building,C18,PA00082986,Q22988099,Maison du 18e siècle,3,1946-08-23 ,,1.2156749999999998,1.217125,44.88903,44.888169999999995
44.79954,0.74758,,,PA00082399,Q22987501,Gisement des Champs-Blancs ou Jean-Blancs,2,1944-03-11 ,,0.746855,0.748305,44.79997,44.79911
44.957639,0.92175,,,PA00082413,Q1732840,Grotte de Bara-Bahau,2,1961-04-20 ,fr:Grotte de Bara-Bahau,0.921025,0.9224749999999999,44.958069,44.957209
44.7687,0.7676,building,C14,PA00082347,Q22986732,Maison à cornières,3,1952-05-17 ,,0.766875,0.7683249999999999,44.769130000000004,44.76827
45.186583,0.720111,castle,palace,PA24000015,Q2416265,Palais de Justice,3,1997-10-10 ,fr:Palais de justice de Périgueux,0.719386,0.7208359999999999,45.187013,45.186153
45.053889,1.170833,,,PA00082696,Q172125,Grotte de Lascaux,,,fr:Grotte de Lascaux,1.170108,1.171558,45.054319,45.053459
45.06608333,1.162972222,building,C16,PA00082702,Q22920018,Maison à galerie,,,,1.162247222,1.1636972220000001,45.06651333,45.065653329999996
44.96813889,1.029111111,,,PA00083036,Q551959,Gisement préhistorique de la Madeleine,2,1956-10-22 ,fr:Abri de la Madeleine,1.0283861109999999,1.029836111,44.96856889,44.96770889
44.889222,1.216861,building,C17,PA00082978,Q22988066,,3,1946-08-23 ,,1.2161359999999999,1.217586,44.889652,44.888791999999995
45.444889,0.484806,,,PA24000019,Q22996173,Grotte préhistorique dite de Fronsac,3,1997-07-22 ,,0.48408100000000004,0.485531,45.445319000000005,45.444459
45.321667,0.660833,archaeological_site,megalith,PA00083046,Q22988241,Mégalithe,3,1962-03-22 ,,0.660108,0.661558,45.322097,45.321236999999996
44.68035,0.89465,building,,PA00082661,Q22919884,,2,1904-12-21 ,,0.893925,0.8953749999999999,44.68078,44.679919999999996
44.88425,1.353528,building,C14,PA00082432,Q22987660,,2,1905-08-21 ,,1.352803,1.3542530000000002,44.88468,44.88382
45.145417,0.529167,building,C16,PA00082806,Q22987824,,3,1948-12-06 ,,0.5284420000000001,0.529892,45.145847,45.144987
44.82083333,1.252027778,yes,,PA00082512,Q2957493,"Chapelle monolithe de Caudon, cimetière gallo-romain et parcelle voisine A 1981 contenant des vestiges",3,1948-11-29 ,fr:Chapelle monolithe de Caudon,1.251302778,1.252752778,44.82126333,44.82040333
45.185,0.723361,building,C13,PA24000043,Q22996189,Maison médiévale,3,2004-10-08 ,,0.7226360000000001,0.724086,45.185430000000004,45.18457
45.3268,0.58949,,,PA24000012,Q22996167,Grotte du Trou de la Chèvre,3,1997-06-17 ,,0.588765,0.5902149999999999,45.32723,45.32637
44.6803,0.89466,building,,PA00082660,Q22919883,,2,1904-12-21 ,,0.893935,0.895385,44.680730000000004,44.67987
45.029222,0.512861,,C15,PA24000076,Q22996218,Hospice de Malrigou,3,2010-12-16 ,,0.512136,0.513586,45.029652,45.028791999999996
44.88972122,1.215305556,building,C17,PA00082939,Q22988011,Hôtel de Montméjat,3,1944-03-08 ,,1.2145805559999998,1.216030556,44.89015122,44.88929122
44.68019,0.89406,building,,PA00082676,Q22919988,,2,1904-12-21 ,,0.893335,0.8947849999999999,44.680620000000005,44.67976
44.88869444,1.216694444,,C15,PA00082936,Q22988008,Ancien Hôtel de Génis,3,1961-04-24 ,,1.215969444,1.2174194440000001,44.88912444,44.88826444
45.18275,0.719194,tower,yes,PA00082761,Q3533129,Tour Mataguerre,2,1840 ,fr:Tour Mataguerre,0.718469,0.719919,45.18318,45.18232
44.89016667,1.219138889,,C17,PA00082925,Q3001612,Ancien couvent de l'Ordre de Notre-Dame,,,fr:Couvent Notre-Dame (Sarlat-la-Canéda),1.2184138889999998,1.219863889,44.89059667,44.88973667
44.92752778,1.072055556,,,PA00082645,Q22919865,Grotte dite Sous le Grand Lac,3,1981-02-26 ,,1.071330556,1.072780556,44.92795778,44.92709778
45.472703,0.781374,building,C19,PA00082646,Q22919866,,3,1974-03-29 ,,0.780649,0.782099,45.473133000000004,45.472273
44.67987,0.89417,building,,PA00082670,Q22919896,,3,1962-01-02 ,,0.893445,0.894895,44.6803,44.67944
44.836056,0.7365,city_gate,C12,PA00082600,Q22919780,Porte des fortifications dite Porte Romaine,3,1946-10-05 ,,0.7357750000000001,0.737225,44.836486,44.835626
44.933,1.0729,,,PA24000048,Q22996193,Grotte préhistorique de Nancy,3,2005-12-20 ,,1.0721749999999999,1.073625,44.93343,44.93257
44.769412,0.766755,building,,PA00082352,Q22986940,,3,1952-05-17 ,,0.76603,0.7674799999999999,44.769842000000004,44.768982
44.68032,0.89404,building,,PA00082678,Q22919990,,2,1904-12-21 ,,0.893315,0.8947649999999999,44.68075,44.67989
45.365556,0.650333,building,C17,PA00082411,Q22987569,Maison voisine du pont,3,1931-01-12 ,,0.6496080000000001,0.651058,45.365986,45.365126
45.182111,0.712111,,,PA00082727,Q18736687,Vestiges de la citadelle gallo-romaine de Vésone,,,fr:Citadelle gallo-romaine de Vésone,0.7113860000000001,0.712836,45.182541,45.181681
44.842583,0.648861,,C19,PA24000010,Q22674416,"Canal de Lalinde (bassin de stationnement, y compris sa cale pavée)",3,1996-09-11 ,fr:Canal de Lalinde,0.648136,0.649586,44.843013,44.842152999999996
45.184611,0.721833,building,C16,PA00082755,Q16508847,Maison Renaissance,2,1889 ,fr:Maison Estignard,0.721108,0.7225579999999999,45.185041,45.184180999999995
44.802972,1.2145278,building,C15,PA00082519,Q22919720,Hôtel du Gouverneur,3,1949-03-23 ,,1.2138027999999998,1.2152528,44.803402,44.802541999999995
45.371333,0.643444,yes,C12,PA00082409,Q22987555,Vestiges de l'ancienne église Saint-Pardoux-de-Faix ou du Petit-Saint-Pardoux,3,1949-08-22 ,,0.642719,0.644169,45.371763,45.370903
44.86572222,1.27525,,,PA00083088,Q22988309,Cabane en pierre sèche de Peyremole,3,1991-12-27 ,,1.274525,1.275975,44.866152220000004,44.86529222
44.68008,0.89408,building,,PA00082675,Q22919987,,2,1961-10-23 ,,0.893355,0.894805,44.68051,44.679649999999995
45.300278,0.538639,,,PA24000056,Q22996197,Gisement préhistorique du Pont d'Ambon,3,2007-02-27 ,,0.537914,0.539364,45.300708,45.299848
44.8904,1.2161,building,C17,PA00082971,Q22920034,,3,1962-06-06 ,,1.2153749999999999,1.216825,44.89083,44.88997
45.3523,0.6252,,C10,PA00082406,Q22987532,Cluzeau de Chambrebrune,3,1988-02-01 ,,0.624475,0.625925,45.35273,45.35187
45.22616,0.87786,,,PA24000011,Q22996165,Grotte préhistorique de Combe Saunière,3,1996-10-04 ,,0.877135,0.878585,45.22659,45.22573
44.691417,0.733583,building,C14,PA00083081,Q22988302,Maison à empilage de poutres de Saint-Germain,2,1997-10-21 ,fr:Maisons à empilage du Nord-Agenais,0.732858,0.734308,44.691847,44.690987
44.846806,0.631889,,C19,PA24000007,Q22674418,"Canal de Lalinde (groupe des écluses, y compris le bassin de croisement, ponts supérieur et inférieur, façades et toitures des maisons éclusières aval et amont, lieudit Tuilières)",3,1996-09-11 ,fr:Canal de Lalinde,0.6311640000000001,0.632614,44.847236,44.846376
44.72955,0.60671,building,C15,PA00082582,Q22919769,Maison gothique,3,1946-06-26 ,,0.605985,0.607435,44.729980000000005,44.72912
44.67983,0.89442,building,,PA00082669,Q22919894,,3,1962-01-02 ,,0.893695,0.895145,44.680260000000004,44.6794
44.67987,0.89428,building,,PA00082671,Q22919897,,3,1962-01-02 ,,0.893555,0.8950049999999999,44.6803,44.67944
44.77622222,1.008555556,,C16,PA00082366,Q22987309,Restes de l'hôtel Bontemps,3,1948-12-06 ,fr:Hôtel Bontemps,1.0078305559999998,1.009280556,44.77665222,44.77579222
44.889167,1.217667,building,C16,PA00082958,Q22988044,,3,1946-08-23 ,,1.216942,1.2183920000000001,44.889597,44.888737
44.84025,1.14388889,,C14,PA00082382,Q22987431,Restes de l'ancien couvent de Beynac,3,1933-04-11 ,,1.1431638899999998,1.14461389,44.84068,44.839819999999996
45.337083,1.049028,building,C18,PA00082528,Q22919733,Maison du 18e siècle,3,1948-09-27 ,,1.048303,1.0497530000000002,45.337513,45.336653
44.890167,1.216889,building,C16,PA00082974,Q22920041,,3,1963-09-11 ,,1.216164,1.2176140000000002,44.890597,44.889737
44.6799,0.8946,building,,PA00082667,Q22919891,,2,1904-12-21 ,,0.893875,0.8953249999999999,44.680330000000005,44.67947
44.93138889,1.069111111,,,PA24000049,Q22996194,Grotte préhistorique du Bison,3,2005-12-20 ,,1.068386111,1.069836111,44.93181889,44.93095889
45.465519,0.606043,,,PA00083075,Q22988298,Gisement en grotte de la Font-Bargeix,3,1989-11-28 ,,0.605318,0.606768,45.465949,45.465089
44.83561111,1.173,,,PA00083060,Q22988273,Grotte du Roc,2,1927-05-16 ,,1.172275,1.1737250000000001,44.836041110000004,44.83518111
45.06408333,1.162833333,building,C19,PA24000078,Q22996221,Maison Duchêne,3,2011-12-12 ,,1.162108333,1.1635583330000001,45.064513330000004,45.06365333
44.88869444,1.215694444,building,C15,PA00082959,Q22988045,,3,1944-02-26 ,,1.2149694439999998,1.216419444,44.88912444,44.88826444
44.808472,1.159861,,,PA24000014,Q22996169,Falaise du Conte,3,1997-01-30 ,,1.159136,1.1605860000000001,44.808902,44.808042
44.9436,1.0422,,,PA00082547,Q22919744,Grotte des Combarelles II,3,1943-09-24 ,fr:Grotte des Combarelles,1.041475,1.042925,44.944030000000005,44.94317
44.890194,1.218,building,C15,PA00082951,Q22988032,Immeuble ou Hôtel des Mirepoises,3,1962-02-05 ,,1.2172749999999999,1.218725,44.890624,44.889764
47.2336,6.0224,building,C18,PA00101562,Q22952917,,3,1937-10-22 ,,6.021675,6.023125,47.234030000000004,47.23317
47.2208,6.0049,,C17,PA00101459,Q17566267,Caborde,3,1980-11-13 ,fr:Caborde de Velotte,6.004175,6.005625,47.22123,47.220369999999996
47.511059,6.797691,building,C18,PA00101678,Q3145675,Maison Rossel,3,1932-04-25 ,fr:Hôtel Sponeck,6.796966,6.7984160000000005,47.511489000000005,47.510629
47.241041,6.018099,building,C16,PA00101558,Q22952913,,3,1937-10-18 ,,6.017374,6.018824,47.241471000000004,47.240611
47.2468,5.9898,,C19,PA25000047,Q844282,Observatoire,,,fr:Observatoire de Besançon,5.989075,5.990525,47.24723,47.24637
47.2393,6.0155,,,PA00101456,,Arènes romaines et chapelle Saint-Jacques dans la caserne Condé,,,,6.014775,6.016225,47.23973,47.23887
47.206892,5.985578,,,PA25000079,Q17566276,"Caborde sur la colline de Planoise, aux Equeugniers",3,2013-05-06 ,,5.984853,5.986303,47.207322000000005,47.206462
47.2395,6.0235,building,,PA00101504,Q3146276,Hôtel de Montureux,,,fr:Hôtel de Montureux,6.022775,6.024225,47.23993,47.23907
47.233037,6.027785,building,C18,PA00101604,Q22952962,,3,1941-12-04 ,,6.02706,6.02851,47.233467000000005,47.232607
47.239378,6.023338,building,,PA00101556,Q22952911,,,,,6.022613,6.024063,47.239808000000004,47.238948
47.2404,6.022,yes,C18,PA00101479,Q3116471,Grenier de la ville,,,fr:Grenier de la ville de Besançon,6.021275,6.022725,47.24083,47.23997
47.22677,6.01295,,C17,PA00101458,Q17566233,Caborde,3,1980-11-13 ,fr:Caborde de Chaudanne,6.012225,6.013675,47.2272,47.22634
47.2362,6.0288,building,C18,PA00101505,Q3145626,Hôtel Petit de Marivat,3,1942-07-08 ,fr:Hôtel Petit de Marivat,6.028075,6.0295250000000005,47.23663,47.235769999999995
47.2348,6.0248,building,C18,PA00101560,Q22952915,,3,1937-10-28 ,,6.024075,6.025525,47.23523,47.23437
47.2347,6.0297,city_gate,,PA00101607,Q99218,Porte Noire,2,1840 ,fr:Porte Noire (Besançon),6.028975,6.030425,47.23513,47.234269999999995
47.2353,6.0239,,C17,PA00101609,Q3114827,Séminaire (ancien),3,1926-03-17 ,fr:Grand séminaire de Besançon,6.023175,6.024625,47.235730000000004,47.23487
47.2231,6.0346,,,PA00135329,Q787790,Lunette de Trois-Châtels,3,1995-12-28 ,fr:Lunettes de Trois-Châtels et de Tousey,6.033875,6.035325,47.223530000000004,47.22267
47.2379,6.0243,building,C16,PA00101510,Q3146129,Hôtel de ville,2,1912-12-17 ,fr:Hôtel de ville de Besançon,6.023575,6.025025,47.238330000000005,47.23747
47.2375,6.0327,dovecote,yes,PA00101467,Q3533286,Colombier militaire ou Bastion Bregille,2,1942-10-26 ,fr:Tour de Bregille,6.031975,6.033425,47.23793,47.237069999999996
47.227,6.0234,fort,C18,PA25000001,Q3078157,Fort Chaudanne,3,1996-05-30 ,fr:Fort de Chaudanne,6.022675,6.024125,47.22743,47.226569999999995
47.2426,6.024,tower,yes,PA00101612,Q3533601,Tour de la Pelotte,2,1942-10-21 ,fr:Tour de la Pelote,6.023275,6.024725,47.243030000000005,47.24217
49.098705,1.491912,,C15,PA00099619,Q22950894,Ancienne église,3,1926-05-08 ,,1.4911869999999998,1.492637,49.099135000000004,49.098275
49.240758,1.199347,farm,C15,PA00099549,Q22950724,Ferme de la Haute-Crémonville,3,1978-09-06 ,,1.1986219999999999,1.200072,49.241188,49.240328
49.21267,1.16772,building,C15,PA00099472,Q22950471,Maison à pans de bois,3,1932-10-04 ,,1.166995,1.1684450000000002,49.213100000000004,49.21224
49.0633,0.8714,place_of_worship,christian,PA00099514,Q22950618,Église du Plessis,2,1921-04-23 ,,0.870675,0.8721249999999999,49.06373,49.06287
49.30647,0.40705,place_of_worship,christian,PA00099481,Q22950514,Église Saint-Pierre,3,2013-07-17 ,,0.40632500000000005,0.407775,49.3069,49.306039999999996
49.1683,0.8594,castle,,PA00099497,Q2242114,Château du Champ-de-Bataille,,,fr:Château du Champ de Bataille,0.8586750000000001,0.860125,49.168730000000004,49.16787
49.305696,1.153543,,C12,PA00099521,Q22950634,Anciens remparts,,,,1.152818,1.154268,49.306126,49.305265999999996
49.1517,1.6364,,C13,PA00099630,Q22950907,Ancienne abbaye du Trésor-Notre-Dame,,,fr:Abbaye Notre-Dame du Trésor,1.635675,1.6371250000000002,49.15213,49.15127
49.220787,1.133872,,C16,PA00099473,Q22950474,Ancien prieuré Saint-Lubin,3,1935-08-23 ,,1.133147,1.134597,49.221217,49.220357
49.207382,1.054692,wayside_cross,C16,PA00099579,Q22950826,Croix,3,1977-06-06 ,,1.0539669999999999,1.055417,49.207812000000004,49.206952
49.137631,0.457639,,C19,PA27000035,Q22976551,Demeure dite château Lécuyer,3,1999-04-27 ,,0.45691400000000004,0.458364,49.138061,49.137201
49.088907,1.606954,,C13,PA00099638,Q22950913,Ancien prieuré Saint-Nicaise,3,1991-10-24 ,,1.606229,1.607679,49.089337,49.088477
49.35692,0.53921,castle,C17,PA00099478,Q22950499,Château de Bonneboscq,,,,0.538485,0.5399349999999999,49.357350000000004,49.35649
48.9576,0.4705,castle,C17,PA00099491,Q22950548,Château de Lusigneul,3,1984-05-23 ,,0.469775,0.47122499999999995,48.95803,48.95717
49.40174,0.42149,place_of_worship,christian,PA00099421,Q22950363,,3,1927-12-26 ,,0.420765,0.42221499999999995,49.40217,49.401309999999995
49.2383,1.1908,archaeological_site,megalith,PA00099550,Q22950727,Menhir au bord du chemin n° 11,2,1927-06-27 ,fr:Menhir de la Basse Crémonville,1.190075,1.1915250000000002,49.238730000000004,49.23787
48.93709,0.481381,castle,C11,PA00099631,Q22950908,Château féodal,3,1989-09-18 ,,0.480656,0.482106,48.93752,48.936659999999996
49.0775,1.5236,place_of_worship,christian,PA00099434,Q3585258,Église Sainte-Radegonde,3,2009-04-16 ,fr:Église Sainte-Radegonde de Giverny,1.522875,1.5243250000000002,49.07793,49.07707
49.1683,0.8594,castle,C17,PA00099562,Q2242114,Château du Champ-de-Bataille (également sur commune de Le Neubourg),,,fr:Château du Champ de Bataille,0.8586750000000001,0.860125,49.168730000000004,49.16787
49.14548065,1.153498365,castle,C18,PA00099301,Q22950211,Château d'Amfreville (également sur commune d'Acquigny),,,,1.1527733649999998,1.154223365,49.145910650000005,49.14505065
49.02331,1.14749,,C14,PA00132692,Q22969351,Ancien couvent des Cordeliers,3,1994-06-06 ,,1.1467649999999998,1.148215,49.023740000000004,49.02288
49.1480838,1.357968,castle,C18,PA27000088,,Château de Couvicourt,3,2015-10-20 ,,1.357243,1.3586930000000002,49.1485138,49.1476538
48.84448,1.16411,place_of_worship,christian,PA27000014,Q22976508,Église Saint-Martin,3,1996-11-08 ,,1.163385,1.164835,48.84491,48.844049999999996
49.13002,0.71959,yes,C11,PA00099417,Q22950360,Chapelle Saint-Eloi,3,1936-10-26 ,,0.718865,0.7203149999999999,49.13045,49.12959
49.3046,1.1539,,C17,PA27000056,Q22976584,Ancien bailliage,3,2003-02-05 ,,1.1531749999999998,1.154625,49.30503,49.30417
48.885,1.457,castle,C10,PA00099460,Q2968287,,2,1990-02-08 ,fr:Château d'Ivry-la-Bataille,1.456275,1.4577250000000002,48.88543,48.88457
49.02457,1.151724,,,PA00099406,Q22950337,Ancien immeuble Gomel,2,1937-04-19 ,,1.1509989999999999,1.152449,49.025,49.024139999999996
49.09666,0.945243,,C15,PA00099643,Q22950919,Ancienne commanderie de templiers de Saint-Etienne-de-Renneville,3,1992-10-23 ,fr:Commanderie de Saint-Étienne-de-Renneville,0.9445180000000001,0.945968,49.09709,49.09623
49.356,0.8973,,C16,PA27000058,Q22976588,"Ancienne auberge du Grand Chouquet Royal, dite aussi auberge du Pérou",3,2004-05-11 ,fr:Auberge du Grand Chouquet Royal,0.896575,0.898025,49.35643,49.35557
49.1229,0.7084,archaeological_site,megalith,PA00099639,Q22950915,Menhir du Croc,3,1991-07-17 ,fr:Menhir du Croc,0.707675,0.709125,49.12333,49.12247
48.9501,1.1036,,,PA00099321,Q22950231,Alignement de trois menhirs,2,1975-07-23 ,fr:Alignement des Bruyères,1.1028749999999998,1.104325,48.95053,48.94967
49.093383,1.48593,building,C15,PA00099622,Q3280077,Maison à pans de bois dite Maison du Temps Jadis,2,1924-08-06 ,fr:Maison du Temps Jadis,1.4852049999999999,1.486655,49.093813000000004,49.092953
48.7382,0.9296,building,C15,PA00099610,Q22950884,Maison à pans de bois,3,1937-04-28 ,fr:Maison à pans de bois,0.928875,0.930325,48.73863,48.73777
48.97774,0.78596,building,C16,PA00099414,Q22950357,Maison du 16e siècle,3,1926-10-01 ,,0.785235,0.786685,48.97817,48.977309999999996
48.9437,1.4181,castle,C17,PA00099499,Q22950561,Château de la Folletière,3,1951-05-22 ,,1.4173749999999998,1.418825,48.94413,48.94327
48.938154,0.479686,building,C16,PA00099492,Q22950551,Maison du Bailliage,3,1949-11-22 ,,0.478961,0.480411,48.938584,48.937723999999996
49.2317,1.0882,wayside_cross,C15,PA00099489,Q22950547,Croix,3,1954-12-03 ,,1.087475,1.0889250000000001,49.23213,49.231269999999995
49.2749,0.8681,castle,C17,PA27000074,Q22976612,Château de la Mésangère (également sur commune de Saint-Pierre-du-Bosguérard),3,2008-11-21 ,,0.867375,0.868825,49.275330000000004,49.27447
49.023592,1.15034,citywalls,C 4,PA00099407,Q22950338,Rempart gallo-romain,,,fr:Rempart gallo-romain d'Évreux,1.1496149999999998,1.151065,49.024022,49.023162
49.23175,1.08706,,C17,PA00099633,Q2214680,"Château, actuellement Musée du Cidre",3,1990-12-14 ,fr:Château de Montaure,1.0863349999999998,1.087785,49.23218,49.23132
48.9908,0.6104,archaeological_site,megalith,PA00099465,Q22950461,Menhir de la Longue-Pierre,2,1911-06-22 ,fr:Menhir de la Longue Pierre,0.6096750000000001,0.611125,48.99123,48.99037
49.04565,0.80103,place_of_worship,christian,PA00099439,Q22950398,,3,1954-10-25 ,,0.800305,0.801755,49.04608,49.04522
49.2858,1.2093,wayside_cross,C16,PA00099467,Q22950464,Croix,3,1927-12-26 ,,1.208575,1.2100250000000001,49.28623,49.28537
49.0975,0.62488,place_of_worship,christian,PA00099483,Q22950524,,3,1927-12-26 ,,0.624155,0.625605,49.09793,49.097069999999995
49.1604,1.3306,building,C16,PA00099428,Q22950373,Maison à pans de bois,2,1943-05-04 ,fr:Maison à pans de bois,1.329875,1.331325,49.160830000000004,49.15997
49.39031,0.30995,place_of_worship,christian,PA00099641,Q1440468,Église paroissiale Saint-Georges-de-Fiquefleur,3,1992-08-04 ,,0.309225,0.310675,49.39074,49.38988
49.17698,1.11227,place_of_worship,christian,PA00099486,Q22950542,,2,1961-06-14 ,,1.111545,1.1129950000000002,49.17741,49.17655
48.9784,0.7866,marketplace,yes,PA00099413,Q22950356,Halle,3,1926-10-01 ,,0.785875,0.7873249999999999,48.97883,48.97797
48.7348,1.0062,,C18,PA00099379,Q22950309,Ancien château,3,1976-02-12 ,,1.005475,1.006925,48.73523,48.73437
49.202153,0.535997,wayside_cross,C16,PA00099397,Q22950328,Calvaire du 16e siècle,3,1930-03-22 ,,0.535272,0.5367219999999999,49.202583000000004,49.201723
49.1975,0.6014,wayside_cross,,PA00099504,Q22950580,Croix de cimetière,3,1961-11-24 ,,0.6006750000000001,0.602125,49.19793,49.19707
49.02646,1.15162,,C20,PA27000053,Q22976580,Théâtre municipal,3,2002-11-22 ,,1.150895,1.1523450000000002,49.02689,49.02603
49.35653,0.516164,building,C16,PA27000029,Q22976544,Immeuble à logements de la cour Canel,3,1998-01-08 ,,0.515439,0.5168889999999999,49.35696,49.3561
48.7357,0.9296,,C15,PA00099602,Q22950873,Ancienne église Saint-Laurent,3,1968-03-08 ,,0.928875,0.930325,48.73613,48.73527
49.024,1.1416,,C13,PA00099403,Q1383059,Ancienne abbaye Saint-Taurin,,,fr:Église Saint-Taurin,1.1408749999999999,1.142325,49.02443,49.02357
48.7375,0.93,building,C15,PA00099604,Q22950876,"Maison de la Renaissance, dite Maison à tourelle",2,1862 ,,0.9292750000000001,0.930725,48.73793,48.737069999999996
49.0584,0.8357,castle,C12,PA00099512,Q22950608,Château de Saint-Léger,3,1976-11-02 ,fr:Château de Saint-Léger (Le Plessis-Sainte-Opportune),0.834975,0.836425,49.05883,49.05797
48.81955,1.26329,yes,C15,PA00099457,Q22950434,Chapelle seigneuriale dite Notre-Dame-de-Pitié,2,1938-11-30 ,,1.262565,1.264015,48.81998,48.81912
49.2325,0.7217,,C12,PA00099327,Q32989,Ancienne abbaye Notre-Dame du Bec,2,2008-12-15 ,fr:Abbaye Notre-Dame du Bec,0.720975,0.722425,49.23293,49.23207
48.9419,1.0742,archaeological_site,megalith,PA00099599,Q3387398,Dolmen dit La Pierre Courcoulée,2,1889 ,fr:Pierre courcoulée (Les Ventes),1.073475,1.0749250000000001,48.94233,48.941469999999995
49.0518,1.4239,castle,C17,PA00099389,Q2968694,Château de Brécourt,3,1967-06-28 ,fr:Château de Brécourt,1.4231749999999999,1.424625,49.05223,49.05137
49.1657,1.3271,castle,,PA27000001,Q1989567,Château de Gaillon,,,fr:Château de Gaillon,1.3263749999999999,1.327825,49.16613,49.16527
48.85426,0.64018,,C15,PA27000028,Q22976543,Égliseparoissiale Saint-Pierre de la Selle,3,1998-01-08 ,,0.639455,0.640905,48.85469,48.853829999999995
48.8225,0.7089,place_of_worship,christian,PA00099539,Q3581662,Église Saint-Germain,,,fr:Église Saint-Germain de Rugles,0.708175,0.709625,48.82293,48.82207
49.3506,1.3094,,C13,PA00099532,Q2820301,Restes de l'abbaye de Fontaine-Guerard,2,1937-04-06 ,fr:Abbaye Notre-Dame de Fontaine-Guérard,1.3086749999999998,1.310125,49.35103,49.35017
49.17321,1.39685,archaeological_site,megalith,PA00099522,Q22950635,Menhir dit Gravier de Gargantua,2,1923-01-10 ,fr:Gravier de Gargantua (Port-Mort),1.3961249999999998,1.397575,49.17364,49.172779999999996
49.12761,0.76097,place_of_worship,christian,PA00099436,Q22950384,,3,1954-10-25 ,,0.7602450000000001,0.761695,49.12804,49.127179999999996
48.79824,1.31782,place_of_worship,christian,PA00099474,Q22950479,Église Saint-Nicolas,3,1961-12-16 ,,1.317095,1.318545,48.79867,48.79781
49.109048,0.712207,place_of_worship,christian,PA00099578,Q22950819,,,,,0.7114820000000001,0.712932,49.109478,49.108618
49.0829,0.7757,,,PA00099324,Q22950233,Ancienne abbaye,2,1916-05-02 ,fr:Prieuré de la Sainte-Trinité,0.774975,0.7764249999999999,49.083330000000004,49.08247
49.4223,0.6216,,C12,PA00125430,Q22968853,Maladrerie Saint-Thomas-Becket,3,1993-09-20 ,fr:Maladrerie Saint-Thomas-Becket,0.6208750000000001,0.622325,49.42273,49.42187
49.3002,0.8736,,C17,PA00099357,Q22950266,Ancienne ferme seigneuriale,3,1965-04-28 ,,0.8728750000000001,0.874325,49.30063,49.299769999999995
48.88282,1.45807,place_of_worship,christian,PA00099461,Q3582648,,3,1958-09-09 ,fr:Église Saint-Martin d'Ivry-la-Bataille,1.457345,1.458795,48.883250000000004,48.88239
49.14894,0.71993,castle,C18,PA00099418,Q22950361,,,,fr:Château de Fontaine-la-Soret,0.719205,0.7206549999999999,49.149370000000005,49.14851
48.8851,1.4627,,C12,PA00099459,Q22950446,Ancienne abbaye,2,1932-01-30 ,,1.4619749999999998,1.463425,48.88553,48.88467
49.240305,1.655872,place_of_worship,christian,PA27000071,Q22976608,Église Saint-Maurice,3,2007-10-30 ,,1.655147,1.656597,49.240735,49.239875
48.83386,1.20175,place_of_worship,christian,PA00099480,Q22950505,,2,1927-09-22 ,,1.201025,1.2024750000000002,48.83429,48.83343
49.41917,0.45427,place_of_worship,christian,PA00099479,Q22950501,,2,1932-05-20 ,,0.45354500000000003,0.454995,49.4196,49.41874
49.02862,1.15173,,C17,PA00099402,Q22950335,Ancien couvent des Ursulines,3,1975-06-10 ,,1.1510049999999998,1.152455,49.02905,49.028189999999995
48.8664,0.7293,archaeological_site,megalith,PA00099494,Q22950557,Menhir dit Pierre de Gargantua,2,1934-06-22 ,fr:Pierre de Gargantua (Neaufles-Auvergny),0.728575,0.7300249999999999,48.86683,48.86597
49.407,0.80341,castle,C18,PA27000044,Q22976572,Château du Landin,3,2002-04-29 ,,0.802685,0.8041349999999999,49.40743,49.406569999999995
49.2145,0.5087,place_of_worship,christian,PA00099500,Q22950565,,3,1954-06-17 ,,0.5079750000000001,0.509425,49.21493,49.21407
49.0966,1.1549,castle,C18,PA27000008,Q22976485,Château d'Emalleville,3,1996-02-20 ,,1.154175,1.1556250000000001,49.097030000000004,49.09617
49.265512,0.938466,wayside_cross,C15,PA00099583,Q22950838,Croix,3,1961-12-16 ,,0.937741,0.939191,49.265942,49.265082
49.02689,1.15026,tower,yes,PA00099408,Q22343315,Tour de l'Horloge,2,1862 ,fr:Tour de l’Horloge (Évreux),1.149535,1.1509850000000001,49.02732,49.02646
49.358335,0.884517,wayside_cross,C16,PA00099565,Q22950780,Croix de cimetière,3,1965-04-28 ,,0.883792,0.885242,49.358765,49.357904999999995
49.302027,0.506358,wayside_cross,C15,PA00099574,Q22950802,Croix de cimetière,3,1961-11-24 ,,0.505633,0.507083,49.302457000000004,49.301597
49.355908,0.513793,building,C16,PA00099517,Q22950624,,3,1933-05-01 ,,0.5130680000000001,0.514518,49.356338,49.355478
49.4714,0.5284,building,C16,PA00099530,Q22950656,Maison à pans de bois,3,1948-10-12 ,fr:Maison à pans de bois,0.527675,0.529125,49.471830000000004,49.47097
49.18248,1.19075,,,PA00099508,Q22950594,Allée sépulcrale,2,1947-10-06 ,,1.1900249999999999,1.191475,49.18291,49.18205
48.88324,1.45871,building,C16,PA00099462,Q22950449,Maison dite de Henri IV,3,1932-06-09 ,,1.4579849999999999,1.459435,48.88367,48.88281
49.2208,1.2891,place_of_worship,christian,PA27000076,Q22976617,Église paroissiale Saint-Hilaire,3,2009-02-02 ,,1.2883749999999998,1.289825,49.22123,49.220369999999996
48.7636,1.0984,archaeological_site,necropolis,PA27000024,Q22976535,Nécropole dolménique des Prés d'Acon,3,1998-02-24 ,fr:Nécropole dolménique des Prés d'Acon,1.097675,1.0991250000000001,48.76403,48.763169999999995
48.79244,1.34451,castle,C20,PA27000051,Q22976577,Château de la Héruppe,3,2002-10-23 ,,1.343785,1.3452350000000002,48.79287,48.79201
48.9505,1.4626,,C12,PA00099626,Q22950900,Ancienne commanderie de Chanu,,,,1.4618749999999998,1.463325,48.95093,48.95007
48.7742,1.3444,place_of_worship,christian,PA27000064,Q22976599,Église Saint-Jean-Baptiste,3,2005-12-15 ,,1.343675,1.3451250000000001,48.77463,48.77377
49.1999,1.1001,farm,C16,PA00099580,Q22950830,Ferme,3,1951-07-30 ,,1.099375,1.1008250000000002,49.20033,49.19947
49.3359,0.5954,,C17,PA00099642,Q22950918,Ancienne abbaye Notre-Dame,3,1992-11-26 ,,0.5946750000000001,0.596125,49.336330000000004,49.33547
49.02116,1.15099,monastery,convent,PA00099401,Q22950332,Couvent des Capucins,,,,1.1502649999999999,1.151715,49.02159,49.02073
49.1753,1.6504,,,PA00099385,Q1242587,Allée couverte,2,1907-01-28 ,fr:Allée couverte de Dampsmesnil,1.649675,1.6511250000000002,49.17573,49.17487
49.0952,0.9738,castle,C17,PA27000009,Q22976491,Château de Graveron,3,1996-01-22 ,,0.973075,0.974525,49.09563,49.09477
49.02143,0.60921,place_of_worship,christian,PA00099463,Q22950452,,3,1932-06-03 ,,0.608485,0.609935,49.021860000000004,49.021
48.80806,0.96445,archaeological_site,megalith,PA00099564,Q22950775,Menhir dit Pierre de la Joure,2,1934-12-06 ,fr:Pierre de la Joure,0.963725,0.965175,48.80849,48.807629999999996
49.1112,0.4575,,C17,PA00099391,Q22950322,Ancien château du Bosc-Henry,3,1954-09-15 ,,0.45677500000000004,0.458225,49.11163,49.110769999999995
49.18649,1.60182,place_of_worship,christian,PA00099424,Q22950366,,2,1971-10-29 ,,1.601095,1.602545,49.18692,49.18606
48.963063,1.42802,castle,C18,PA27000089,,château,3,2017-02-13,,1.427295,1.4287450000000002,48.963493,48.962633
49.0143,1.3793,place_of_worship,christian,PA00099505,Q3580987,Église Saint-Aubin,3,1927-12-26 ,fr:Église Saint-Aubin de Pacy-sur-Eure,1.3785749999999999,1.380025,49.01473,49.01387
49.1699,1.1939,,,PA00099292,Q3053749,Enceinte préhistorique du Château-Robert,2,1945-06-08 ,fr:Enceinte préhistorique du Château-Robert,1.1931749999999999,1.194625,49.17033,49.16947
48.84085,1.00607,castle,C16,PA00099437,Q22950387,Château de Chambray,3,1971-10-29 ,,1.005345,1.006795,48.841280000000005,48.84042
49.03979,1.1602,,C12,PA00135536,Q14627607,Léproserie dite maladrerie Saint-Nicolas,3,1995-02-15 ,fr:Maladrerie Saint-Nicolas,1.1594749999999998,1.160925,49.040220000000005,49.03936
49.1769,1.112,wayside_cross,C16,PA00099485,Q22950538,Croix de cimetière,2,1952-06-20 ,,1.111275,1.1127250000000002,49.177330000000005,49.17647
49.38119,0.57227,place_of_worship,christian,PA00099423,Q22950365,,3,1932-11-17 ,,0.571545,0.5729949999999999,49.38162,49.380759999999995
49.3433,0.5897,,C20,PA27000054,Q22976582,Auberge dite Les Cloches de Corneville,3,2003-04-11 ,,0.588975,0.590425,49.34373,49.34287
49.3173,0.8591,castle,C16,PA00099349,Q22950255,,2,1935-09-10 ,,0.858375,0.859825,49.317730000000005,49.31687
49.472269,0.527234,building,C16,PA00099529,Q22950650,Maison à pans de bois,3,1948-11-29 ,fr:Maison à pans de bois,0.526509,0.527959,49.472699,49.471838999999996
49.02378,1.15074,,C15,PA00099405,Q9047086,Evêché et ses dépendances,2,1907-10-23 ,fr:Musée d'Évreux,1.150015,1.1514650000000002,49.024210000000004,49.02335
49.35639,0.514019,building,C16,PA00099518,Q22950628,Maison à pans de bois,3,1933-05-01 ,fr:Maison à pans de bois,0.513294,0.514744,49.35682,49.355959999999996
48.9666,0.944,,C15,PA27000043,Q2820435,Ancienne abbaye,3,2002-07-24 ,fr:Abbaye Saint-Pierre-et-Saint-Paul de Châtillon-lès-Conches,0.943275,0.9447249999999999,48.96703,48.96617
49.378007,0.731878,,C16,PA00099537,Q22950673,Chaumière du 16e siècle,3,1928-02-03 ,,0.731153,0.732603,49.378437,49.377576999999995
48.9181,0.9151,yes,C16,PA27000025,Q22976538,Chapelle des Minières,3,1998-01-08 ,,0.914375,0.915825,48.918530000000004,48.91767
49.2306,1.2269,bridge,C20,PA00099572,Q3397124,Pont sur la Seine,3,1975-01-15 ,fr:Pont de Saint-Pierre-du-Vauvray,1.226175,1.2276250000000002,49.231030000000004,49.23017
49.0878,0.5932,,C18,PA00099333,Q22950238,Ancien hôtel de la Gabelle,,,,0.592475,0.5939249999999999,49.08823,49.08737
49.1876829,1.1757145,,C17,PA27000087,Q17354301,Domaine du château de Pinterville,3,2015-07-24 ,fr:Château de Pinterville,1.1749895,1.1764395,49.1881129,49.1872529
49.355866,0.513901,building,C16,PA00099516,Q22950622,,3,1933-05-01 ,,0.5131760000000001,0.514626,49.356296,49.355436
49.131696,1.520019,,C14,PA27000037,Q3403055,Ancien prieuré de Saulseuse,3,2000-07-13 ,fr:Prieuré de Saulseuse,1.519294,1.520744,49.132126,49.131266
49.38776,0.6925,place_of_worship,christian,PA00099447,Q22950416,,3,1962-01-30 ,,0.691775,0.693225,49.38819,49.38733
48.9026,0.4531,archaeological_site,megalith,PA00099614,Q22950890,Dolmen dit la Grosse Pierre,2,1911-04-04 ,,0.452375,0.453825,48.90303,48.90217
48.7582,1.0536,,C16,PA27000085,,Ancien château,3,2014-03-18 ,fr:Château de Tillières-sur-Avre,1.052875,1.0543250000000002,48.758630000000004,48.75777
49.15707,1.66065,bridge,,PA00135709,Q22995411,Pont d'Aveny sur l'Epte,,,,1.6599249999999999,1.661375,49.1575,49.156639999999996
49.0879,0.8591,place_of_worship,christian,PA00099513,Q22950614,Église de Sainte-Opportune,3,1961-12-16 ,,0.858375,0.859825,49.08833,49.087469999999996
49.0754,1.5338,,C19,PA00099435,Q1473446,Ancienne propriété de Claude Monet,3,1976-04-26 ,fr:Fondation Claude Monet,1.533075,1.5345250000000001,49.07583,49.07497
49.42618,0.33196,,C11,PA00099409,Q2820598,Ancienne abbaye de Grestain,3,1975-11-07 ,fr:Abbaye de Grestain,0.331235,0.33268499999999995,49.426610000000004,49.42575
48.756401,1.054073,,C11,PA00099588,Q22950846,Ancienne porte fortifiée,3,1972-04-19 ,,1.053348,1.0547980000000001,48.756831,48.755970999999995
48.7715,1.198,building,C15,PA00099503,Q22950575,,3,1975-03-13 ,,1.1972749999999999,1.198725,48.771930000000005,48.77107
48.809,1.35548,monastery,abbey,PA00099640,Q1775496,Abbaye du Breuil-Benoît,2,1993-12-17 ,fr:Abbaye du Breuil-Benoît,1.354755,1.356205,48.80943,48.808569999999996
48.738266,0.930761,building,C16,PA00099611,Q22950886,,3,1962-04-03 ,,0.930036,0.9314859999999999,48.738696000000004,48.737836
48.93549,0.98986,,,PA00099484,Q22950530,Ancienne église,3,1953-09-16 ,,0.989135,0.9905849999999999,48.93592,48.93506
49.472769,0.526689,building,C16,PA00099528,Q22950647,Maison à pans de bois,3,1948-10-12 ,fr:Maison à pans de bois,0.525964,0.5274139999999999,49.473199,49.472339
48.81474,1.06108,place_of_worship,christian,PA00099438,Q22950394,,3,1954-12-07 ,,1.060355,1.061805,48.81517,48.81431
49.19283,1.03007,farm,C13,PA00099388,Q22950319,Grange dîmière,3,1948-10-12 ,fr:Grange dîmière de Daubeuf-la-Campagne,1.029345,1.0307950000000001,49.19326,49.1924
49.4309,0.6267,tomb,,PA27000031,Q22976546,Sépulture mégalithique,3,1999-04-23 ,fr:Allée couverte d'Aizier,0.6259750000000001,0.627425,49.43133,49.43047
48.9771,1.4021,wayside_cross,C15,PA00099426,Q22950371,Calvaire,3,1926-03-26 ,,1.4013749999999998,1.402825,48.97753,48.97667
49.0897,0.5981,,C11,PA00099330,Q1394288,Ancienne abbaye Notre-Dame,,,fr:Abbaye Notre-Dame de Bernay,0.597375,0.5988249999999999,49.09013,49.08927
48.80522,1.10602,castle,C15,PA00099449,Q22950420,,3,1952-12-22 ,,1.105295,1.106745,48.80565,48.80479
49.294975,0.666664,yes,C11,PA00099490,Q2969998,Ruines du château fort,3,1937-09-13 ,fr:Château de Montfort-sur-Risle,0.6659390000000001,0.667389,49.295405,49.294545
49.365479,0.87554,wayside_cross,C15,PA00099592,Q22950864,Croix,3,1961-11-24 ,,0.874815,0.876265,49.365909,49.365049
48.9627,1.0664,archaeological_site,megalith,PA00099598,Q22950872,Dolmen de l'Hôtel-Dieu,2,1910-01-02 ,fr:Dolmen de l'Hôtel-Dieu,1.065675,1.067125,48.96313,48.96227
48.99129,0.92316,place_of_worship,christian,PA00099470,Q22950469,,2,1921-05-02 ,,0.922435,0.923885,48.99172,48.99086
48.9224,1.3987,,C19,PA00099396,Q3411259,Pyramide commémorative de la Bataille d'Ivry,2,1862 ,fr:Pyramide commémorative de la bataille d'Ivry,1.397975,1.3994250000000001,48.922830000000005,48.92197
49.174,0.7864,castle,C12,PA00099443,Q2968250,Château d'Harcourt,2,1862 ,fr:Château d'Harcourt (Eure),0.785675,0.787125,49.17443,49.17357
49.24726,1.69518,,C19,PA27000061,Q22976597,Ancien château de Montretout ou nouveau château de Dangu,3,2005-02-22 ,,1.6944549999999998,1.695905,49.24769,49.246829999999996
48.93741,0.59768,place_of_worship,christian,PA00099429,Q22950376,Église de Saint-Ouen-de-Mancelles,3,1962-01-05 ,,0.596955,0.598405,48.93784,48.93698
49.1484,0.8996,,C13,PA27000045,Q2971753,Le Vieux Château,3,2002-07-29 ,fr:Le Vieux Château,0.898875,0.9003249999999999,49.148830000000004,49.14797
49.1496,0.7151,place_of_worship,christian,PA00099419,Q3582773,Église Saint-Martin,2,1846 ,fr:Église Saint-Martin de Fontaine-la-Soret,0.714375,0.7158249999999999,49.15003,49.14917
49.12843,1.10963,place_of_worship,christian,PA00099455,Q22950428,,3,1954-06-17 ,,1.1089049999999998,1.110355,49.12886,49.128
49.2317,1.0888,,C11,PA27000021,Q22976526,Ancien prieuré,3,1997-09-30 ,,1.088075,1.089525,49.23213,49.231269999999995
48.77038,1.29267,place_of_worship,christian,PA27000082,Q22996268,Église Sainte-Marie-Madeleine,3,2010-09-22 ,,1.291945,1.293395,48.770810000000004,48.76995
49.3135,1.2437,castle,C17,PA27000017,Q22343076,Château de Canteloup (également sur commune de Romilly-sur-Andelle),3,1997-12-02 ,fr:Château de Canteloup,1.242975,1.2444250000000001,49.31393,49.313069999999996
49.22946,0.72057,,,PA00099328,Q22950236,Ancien logis abbatial,,,,0.7198450000000001,0.721295,49.229890000000005,49.22903
49.3055,1.0889,building,C16,PA00099380,Q22950310,Maison Riquier,3,1932-10-04 ,,1.088175,1.089625,49.305930000000004,49.30507
49.260889,0.893532,wayside_cross,C16,PA00099569,Q22950794,Croix en pierre du 16e siècle,2,1906-02-23 ,,0.892807,0.894257,49.261319,49.260459
49.1771,0.9277,place_of_worship,christian,PA00099458,Q22950440,,3,1954-10-25 ,,0.926975,0.928425,49.177530000000004,49.17667
49.18984,1.2415,castle,C18,PA00099451,Q22950426,Château du Colombier,,,,1.240775,1.2422250000000001,49.19027,49.189409999999995
49.21518,0.54647,farm,C16,PA27000068,Q22976605,Grange de la Fortière,3,2006-11-21 ,,0.545745,0.547195,49.21561,49.214749999999995
49.1952,0.723,,,PA00099362,Q22343075,Ruines du château,3,1925-02-12 ,fr:Château de Brionne,0.722275,0.723725,49.19563,49.19477
49.4713,0.5285,building,C16,PA00099531,Q22950663,Maison à pans de bois dite de Henri IV,3,1933-05-01 ,,0.527775,0.529225,49.47173,49.47087
49.094528,1.484031,castle,,PA00099616,Q22950892,,3,1926-03-31 ,,1.483306,1.4847560000000002,49.094958,49.094097999999995
49.365083,0.40743,wayside_cross,C12,PA00099556,Q22950739,Croix près de l'église,3,1953-09-16 ,,0.40670500000000004,0.408155,49.365513,49.364653
49.1612,1.3299,castle,C16,PA00099427,Q1989567,Château de Gaillon (également sur commune de Aubevoye),,,fr:Château de Gaillon,1.329175,1.3306250000000002,49.16163,49.16077
49.20268,1.17091,castle,C19,PA27000050,Q16008657,Château Saint-Hilaire,3,2002-09-13 ,fr:Château Saint-Hilaire (Louviers),1.1701849999999998,1.171635,49.20311,49.20225
49.0960064,0.77753919999998,farm,C19,PA27000086,,Ferme neuve ou ferme Hervieu,3,2015-07-08 ,,0.77681419999998,0.77826419999998,49.0964364,49.0955764
49.296067,0.649453,,C11,PA00099566,Q22950785,Ancien prieuré,,,,0.648728,0.6501779999999999,49.296497,49.295637
49.1491,0.9031,place_of_worship,christian,PA00099498,Q3583654,Église Saint-Pierre-et-Saint-Paul,2,1938-08-06 ,fr:Église Saint-Pierre-et-Saint-Paul du Neubourg,0.902375,0.903825,49.14953,49.148669999999996
49.4297,0.6235,,,PA00125429,Q22968852,Quai antique,3,1993-09-20 ,,0.6227750000000001,0.624225,49.43013,49.429269999999995
49.396,0.877,,,PA27000052,Q2090800,Domaine d'Yville,,,fr:Château d'Yville,0.876275,0.877725,49.39643,49.39557
49.32661,0.72606,place_of_worship,christian,PA00099456,Q22950432,,3,1926-04-17 ,,0.7253350000000001,0.726785,49.327040000000004,49.32618
49.2008,1.2963,,,PA00099597,Q22950871,Motte féodale,3,1983-10-03 ,fr:Motte castrale de Venables,1.295575,1.297025,49.20123,49.20037
49.276676,0.96907,wayside_cross,C15,PA00099582,Q22950837,Croix de cimetière,3,1961-11-24 ,,0.968345,0.969795,49.277106,49.276246
49.16702,0.78521,place_of_worship,christian,PA00099444,Q22950409,Église paroissiale Saint-Ouen,,,,0.784485,0.7859349999999999,49.16745,49.16659
48.771,1.1984,place_of_worship,christian,PA00099502,Q3582914,Église Saint-Martin,2,1975-04-07 ,fr:Église Saint-Martin de Nonancourt,1.1976749999999998,1.199125,48.77143,48.77057
49.2127,1.17185,,C17,PA00132693,Q22969353,"Ancien couvent des Pénitents, puis prison, puis école de musique",3,1994-06-03 ,,1.171125,1.1725750000000001,49.21313,49.21227
49.16695,0.78584,,,PA27000040,Q22976562,Mairie,3,2001-05-29 ,,0.785115,0.786565,49.16738,49.16652
47.994045,-4.102586,building,C17,PA00090360,Q22926368,,3,1953-03-13 ,,-4.103311,-4.1018609999999995,47.994475,47.993615
48.577038,-3.827108,building,C15,PA00090133,Q22926043,Maison dite à lanterne,2,1987-03-13 ,,-3.827833,-3.826383,48.577468,48.576608
48.576522,-3.827963,citywalls,C15,PA29000006,Q22962463,,3,1996-05-21 ,,-3.828688,-3.827238,48.576952,48.576091999999996
48.2943,-4.1799,building,,PA00089933,Q22925802,,3,1934-05-08 ,,-4.180625,-4.179175,48.29473,48.29387
47.994077,-4.102487,building,C17,PA00090358,Q22926360,,3,1953-03-13 ,,-4.103212,-4.101762,47.994507,47.993646999999996
47.996007,-4.104129,building,C17,PA00090366,Q22926375,,3,1956-05-22 ,,-4.1048540000000004,-4.103404,47.996437,47.995577
48.682546,-3.986546,,,PA00090433,Q22926527,"Vasque de Keilinsky, ou de Kerliviry",2,1913-12-27 ,,-3.9872710000000002,-3.985821,48.682976000000004,48.682116
48.579206,-3.825749,,C19,PA00090137,Q3556594,Viaduc,3,1975-10-29 ,fr:Viaduc de Morlaix,-3.826474,-3.825024,48.579636,48.578776
47.995669,-4.1062,building,C17,PA00090375,Q22926420,,3,1956-05-22 ,,-4.106925,-4.105475,47.996099,47.995239
48.098388,-4.208566,building,C16,PA00090089,Q20640656,,2,1927-03-11 ,,-4.209291,-4.207841,48.098818,48.097958
48.4528,-4.2537,,C17,PA00090026,Q22925915,Ancien couvent des Capucins,,,,-4.254425,-4.252975,48.453230000000005,48.45237
47.997744,-4.103062,,C17,PA00090332,Q22926283,Lycée La Tour d'Auvergne,3,1932-05-11 ,,-4.1037870000000005,-4.102337,47.998174,47.997313999999996
47.996262,-4.109114,,C18,PA00090329,Q22926267,Ancien couvent des Ursulines,3,1987-03-12 ,,-4.109839,-4.108389,47.996692,47.995832
48.4408,-4.2503,castle,C17,PA00090492,Q22926587,Château de Chef-du-Bois,3,1992-12-23 ,,-4.251025,-4.249575,48.441230000000004,48.44037
48.098469,-4.208584,,C16,PA00090090,Q22925990,Vieille maison,2,1925-03-06 ,,-4.209309,-4.207859,48.098899,48.098039
47.996868,-4.103234,building,C17,PA00090343,Q22926312,,3,1956-05-22 ,,-4.103959,-4.1025089999999995,47.997298,47.996438
48.098743,-4.208354,,C16,PA00090096,Q22926003,Vieille maison,2,1925-03-06 ,,-4.209079,-4.207629,48.099173,48.098313
48.449022,-4.249644,building,C16,PA00090036,Q22925927,"Maison du 16e siècle, dite des Treize Lunes",2,2005-07-15 ,,-4.250369,-4.248919,48.449452,48.448592
48.677789,-3.974728,,C19,PA29000031,Q2969480,Domaine de Kernévez,3,1997-11-06 ,fr:Château de Kernévez,-3.975453,-3.9740029999999997,48.678219,48.677358999999996
48.4493,-4.248914,building,C17,PA00090037,Q22925929,Maison dite de Notre-Dame-de-Rumengol,3,1928-03-23 ,,-4.249639,-4.248189,48.44973,48.44887
48.57792,-3.827351,building,C17,PA00090131,Q22926040,,3,1971-10-18 ,,-3.8280760000000003,-3.826626,48.57835,48.57749
48.096861,-4.208333,building,C16,PA00090081,Q22925982,,2,1927-03-11 ,,-4.209058,-4.207608,48.097291,48.096430999999995
48.577033,-3.826965,building,C16,PA29000035,Q22996336,,3,1998-02-04 ,,-3.82769,-3.82624,48.577463,48.576603
47.997417,-4.102656,,C16,PA00090345,Q22926314,Deux maisons formant un ensemble,3,1932-06-03 ,,-4.103381,-4.1019309999999995,47.997847,47.996987
47.820188,-4.321607,,,PA00090155,Q22926064,Deuxième menhir de Kerscaven,2,1921-06-30 ,,-4.322332,-4.320882,47.820618,47.819758
48.575929,-3.829224,,C19,PA29000007,Q22996312,Théâtre municipal,,,,-3.829949,-3.828499,48.576359000000004,48.575499
