latitude,longitude,historic,start_date,ref:mhs,wikidata,name,heritage,mhs:inscription_date,wikipedia,left,right,top,bottom
45.90337039,5.18051167,building,C15,PA00116514,,Maisons et remparts qui en dépendent,2,1921-11-24 ,fr:Grenier à sel (Pérouges),5.1797866699999995,5.18123667,45.90380039,45.90294039
45.948573,5.376508,,,PA01000045,,castrum de Saint-Germain,3,2017-05-04,fr:Château de Saint-Germain (Ain),5.375783,5.377233,45.949003000000005,45.948143
45.90345231,5.18044023,building,C15,PA00116515,,Maisons et remparts qui en dépendent,2,1921-11-24 ,,5.17971523,5.18116523,45.90388231,45.90302231
45.90345231,5.18044023,building,C15,PA00116516,,Maison et remparts,3,1929-10-11 ,,5.17971523,5.18116523,45.90388231,45.90302231
46.195909,4.994783,,C18,PA01000044,,Domaine de Béost,3,2016-10-31 ,fr:Château de Béost (Vonnas),4.994058,4.995508,46.196339,46.195479
49.585379,3.734233,wayside_cross,C13,PA00115919,,Croix,3,1932-06-03 ,fr:Croix monumentale de Samoussy,3.733508,3.7349580000000002,49.585809000000005,49.584949
49.6958908,3.6239682,building,C17,PA00115637,,Maison du 17e siècle,,,,3.6232432,3.6246932000000003,49.6963208,49.6954608
49.578919,3.603957,,C20,PA02000088,,Rotonde et halle-atelier ferroviaires,3,2015-06-30 ,fr:Gare de Laon,3.6032319999999998,3.604682,49.579349,49.578489
49.5042,3.8241,archaeological_site,fortification,PA02000081,,Oppidum,3,2013-05-27 ,,3.823375,3.824825,49.50463,49.503769999999996
49.045017,3.402843,tower,yes,PA00115592,,Tour Balhan,3,1926-12-02 ,fr:Tour Balhan,3.4021179999999998,3.403568,49.045447,49.044587
49.0353,3.5305,wayside_cross,C13,PA00115613,,Croix de cimetière,2,1922-02-07 ,fr:Croix de cimetière de Connigis,3.529775,3.531225,49.03573,49.03487
49.5151255,3.1521467,,,PA00115537,,Ancien couvent des Feuillants,3,1928-02-08 ,fr:Couvent des Feuillants de Blérancourt,3.1514216999999998,3.1528717,49.515555500000005,49.5146955
49.16561,3.265242,stone,grooves,PA00115842,,Polissoir,2,1970-02-10 ,fr:Polissoir de Neuilly-Saint-Front,3.264517,3.2659670000000003,49.16604,49.16518
49.5287053,3.5405795,,C17,PA02000001,,Vendangeoirs Hédouville et Cuzey,,,fr:Vendangeoirs Hédouville et Cuzey,3.5398545,3.5413045000000003,49.5291353,49.5282753
49.528673,3.541152,,,PA02000046,,Vendangeoir des Frères Le Nain,3,2003-09-23 ,fr:Vendangeoir des Frères Le Nain,3.5404269999999998,3.541877,49.529103,49.528242999999996
48.873314,3.495275,building,C16,PA02000069,,Maison forte dite Ferme de Villefontaine,3,2007-09-14 ,fr:Ferme de Villefontaine,3.49455,3.496,48.873744,48.872884
49.161772,3.422086,,C11,PA00115605,,Ancienne abbaye,3,1928-06-05 ,fr:Abbaye de Coincy,3.421361,3.4228110000000003,49.162202,49.161342
49.48215,3.635609,,C20,PA02000021,,Carrière de Colligis,3,2000-01-26 ,fr:Carrière de Colligis,3.634884,3.636334,49.48258,49.481719999999996
49.952579,4.059191,archaeological_site,fortification,PA02000084,,Oppidum,3,2014-05-23 ,,4.058466,4.059916,49.953009,49.952149
49.25237712,3.08868233,fountain,yes,PA00115986,,Fontaine,3,1932-05-11 ,fr:Fontaine de Villers-Cotterêts,3.08795733,3.0894073300000002,49.25280712,49.25194712
49.214032,3.479614,,C13,PA00115920,,Restes du château,3,1928-06-05 ,fr:Château de Saponay,3.478889,3.4803390000000003,49.214462000000005,49.213602
49.074,3.5426,place_of_worship,christian,PA00115629,,,2,1941-04-25 ,fr:Église Saint-Denis de Courtemont-Varennes,3.541875,3.5433250000000003,49.07443,49.07357
49.425658,3.967631,archaeological_site,fortification,PA00116012,,Oppidum de Variscourt,,,,3.966906,3.968356,49.426088,49.425228
49.35356,3.696607,yes,C12,PA00115701,,Ruines de l'église,2,1921-11-08 ,fr:Église Saint-Rémi d'Hautevesnes,3.695882,3.6973320000000003,49.35399,49.35313
49.44808,3.409581,,C20,PA02000083,,Camp fortifié dit  Wolfschlucht 2  ou  W 2 ,3,2014-02-05 ,,3.408856,3.4103060000000003,49.44851,49.447649999999996
49.397211,3.468719,,C12,PA00115612,,Ancien Prieuré de Saint-Ouen,2,1921-10-24 ,fr:Prieuré de Saint-Ouen,3.467994,3.469444,49.397641,49.396781
49.371701,3.814605,,C13,PA00115890,,Ancien prieuré,3,1932-06-03 ,fr:Prieuré de Roucy,3.8138799999999997,3.81533,49.372131,49.371271
49.07945,3.291433,,C20,PA02000091,,Mémorial Américain du Bois Belleau,3,2017-03-28 ,fr:Cimetière américain du Bois Belleau,3.290708,3.292158,49.07988,49.07902
49.215442,3.21356,wayside_cross,C16,PA00115501,,Croix,3,1927-06-15 ,fr:Croix monumentale d'Ancienville,3.212835,3.2142850000000003,49.215872000000005,49.215012
49.85637,3.95299,archaeological_site,megalith,PA00115549,,Menhir dit La Haute-Ronde,2,1889 ,fr:Menhir de la Haute-Ronde,3.9522649999999997,3.953715,49.8568,49.85594
49.18376201,3.37166038,,,PA02000028,,Ponts Bernard (également sur commune de Breny),3,2001-06-11 ,fr:Ponts Bernard,3.3709353799999997,3.37238538,49.184192010000004,49.18333201
49.4297601,3.1751637,tomb,C20,PA02000017,,Tombe Amory ou Amaury,3,1998-01-30 ,fr:Tombe Amory,3.1744387,3.1758887000000002,49.430190100000004,49.4293301
49.1617,3.4225,,C18,PA02000052,,Bornes de délimitation,3,2004-10-18 ,fr:Bornes de délimitation de Coincy,3.421775,3.423225,49.162130000000005,49.16127
49.662322,3.36931,,C18,PA00132908,,Quartier Drouot,3,1994-01-19 ,fr:Quartier Drouot,3.368585,3.370035,49.662752000000005,49.661892
49.443037,3.667113,yes,,PA02000092,,chapelle du Souvenir et lanterne des morts,3,2017-03-28,fr:Chapelle du Souvenir et lanterne des morts de Cerny-en-Laonnois,3.666388,3.667838,49.443467,49.442606999999995
49.497012,3.820592,,C13,PA00115918,,Ancien prieuré de Saint-Thomas,,,fr:Prieuré de Saint-Thomas,3.819867,3.821317,49.497442,49.496582
49.18561159,3.37136802,,,PA02000029,,Ponts Bernard,,,fr:Ponts Bernard,3.3706430199999997,3.37209302,49.18604159,49.18518159
49.423638,3.958967,archaeological_site,fortification,PA00116011,,Oppidum de Variscourt (également sur commune de Variscourt),3,1992-07-27 ,,3.958242,3.959692,49.424068,49.423207999999995
49.057373,3.530021,stone,grooves,PA00115814,,Polissoir,2,1969-02-20 ,fr:Polissoir de Mézy-Moulins,3.529296,3.530746,49.057803,49.056943
49.440422,3.522921,,C20,PA02000019,,La Creute du Caïd,,,fr:Creute du Caïd,3.522196,3.5236460000000003,49.440852,49.439992
49.178664,3.473731,building,C18,PA00115982,,Maison natale de Paul Claudel,3,1964-07-07 ,fr:Maison natale de Paul Claudel,3.473006,3.474456,49.179094,49.178233999999996
49.167388,3.583474,archaeological_site,megalith,PA00115600,,Dolmen de Carauda,2,1889 ,fr:Dolmen de Caranda,3.5827489999999997,3.584199,49.167818000000004,49.166958
49.844881,3.285658,city_gate,C17,PA00115914,,Porte dite des Canonniers,3,1930-10-11 ,fr:Porte des Canonniers,3.284933,3.2863830000000003,49.845311,49.844451
49.876717,3.145904,,,PA00115969,,Camp Romain,2,1840 ,fr:Camp Romain,3.1451789999999997,3.146629,49.877147,49.876287
49.398662,3.909647,,C20,PA00115527,,Cote 108,2,1937-01-11 ,fr:Côte 108,3.908922,3.910372,49.399092,49.398232
49.565084,3.61646,building,C17,PA00115733,,,3,1927-06-24 ,,3.615735,3.617185,49.565514,49.564654
49.0689,3.5057,wayside_cross,C13,PA00115812,,Croix de cimetière,2,1906-02-10 ,fr:Croix de cimetière de Mézy-Moulins,3.504975,3.506425,49.06933,49.06847
49.264948,3.598645,,C12,PA00115594,,Ancienne chapelle de la Ferme des Dames,3,1927-06-28 ,fr:Chapelle de la Ferme des Dames,3.59792,3.59937,49.265378,49.264517999999995
49.807314,4.0201029,marketplace,yes,PA02000013,,Halle,3,1998-02-13 ,fr:Halle de Plomion,4.0193779,4.0208279000000005,49.807744,49.806884
49.25627244,3.08766162,,C16,PA02000074,,Glacière,3,2008-05-09 ,fr:Glacière de Villers-Cotterêts,3.08693662,3.08838662,49.25670244,49.255842439999995
49.741576,3.773375,,,PA00115808,,Relais de poste,3,1933-05-29 ,fr:Relais de poste de Marle,3.77265,3.7741000000000002,49.742006,49.741146
49.692455,4.018657,,C17,PA00115823,,Ermitage,3,1928-02-08 ,fr:Ermitage de Montcornet,4.017932,4.019382,49.692885000000004,49.692025
49.3638,3.34734,building,C13,PA02000071,,Maisons de source et aqueduc (également sur commune de Belleu),3,2007-05-07 ,fr:Belleu,3.346615,3.348065,49.36423,49.363369999999996
49.151612,3.398622,,C12,PA00115555,,Rocher gravé,2,1975-06-13 ,fr:Rocher gravé de Brécy,3.397897,3.399347,49.152042,49.151182
49.240819,3.311074,,,PA00115917,,Ancienne prévôté de Blanzy,3,1928-02-08 ,fr:Prévôté de Blanzy,3.310349,3.311799,49.241249,49.240389
49.4189972,3.529417,yes,C19,PA02000012,,Chapelle de la carrière de Rouge-Maison,2,1998-12-23 ,fr:Chapelle de la carrière de Rouge-Maison,3.528692,3.530142,49.4194272,49.4185672
49.5645,3.616507,yes,,PA00115711,,Chapelle Saint-Genebaud,3,1927-07-22 ,,3.615782,3.617232,49.564930000000004,49.56407
46.12846,3.16655,,C19,PA00093153,,Viaduc de Neuvial (également sur commune de Bègues),3,1965-12-08 ,fr:Viaduc de Neuvial,3.165825,3.167275,46.12889,46.128029999999995
46.224056,2.9468611,,,PA03000041,,Viaduc de La Bouble,,,fr:Viaduc de la Bouble,2.9461361,2.9475861,46.224486,46.223625999999996
46.137832,3.148416,,C19,PA00093264,,Viaduc de Rouzat (également sur commune de Bègues),3,1965-12-08 ,fr:Viaduc de Rouzat,3.147691,3.149141,46.138262000000005,46.137402
46.221694,3.00075,,C19,PA03000040,,Viaduc du Bellon (également sur commune de Coutansouze),3,2009-12-23 ,fr:Viaduc du Bellon,3.000025,3.001475,46.222124,46.221264
43.9811,5.5628,building,C17,PA00080489,,,3,1932-06-03 ,,5.562075,5.563525,43.98153,43.980669999999996
44.4697,6.7528,fort,C19,PA04000034,,Fort de Tournoux,3,2016-06-28 ,fr:Fort de Tournoux,6.752075,6.753525,44.470130000000005,44.46927
44.115086,6.23149,,C19,PA04000003,,Usine à plâtre de Champourcin,3,1996-06-17 ,fr:Usine à plâtre de Champourcin,6.230765,6.232215,44.115516,44.114656
43.95071,6.82298,,C12,PA04000005,,"Ancienne cathédrale de Glandèves, Notre-Dame de la Sed, dite aussi chapelle de l'Hôpital",3,1996-06-27 ,fr:Cathédrale Notre-Dame-de-la-Sed d'Entrevaux,6.822255,6.823705,43.95114,43.95028
44.166035,6.603585,building,C17,PA00080506,,Maison communale,3,1948-11-29 ,,6.60286,6.60431,44.166465,44.165605
44.195333,5.9431111,,,PA00080496,,Enceinte (restes de l'ancienne),2,1875 ,fr:Enceinte de Sisteron,5.9423861,5.9438361,44.195763,44.194903
43.97119922,6.76019844,bridge,,PA00080460,,Pont de Gueydan sur le Colomp,2,1944-02-28 ,fr:Pont de Gueydan,6.75947344,6.76092344,43.971629220000004,43.97076922
43.952444,6.8135278,citywalls,C14,PA00080387,,Fortifications et citadelle,,,fr:Citadelle d'Entrevaux,6.8128028,6.8142528,43.952874,43.952014
43.8866,5.6969,,C19,PA04000015,,Moulin Delestic dit aussi moulin Agnelier ou de l'Agnelet,3,1993-05-28 ,fr:Moulin Delestic,5.696175,5.697625,43.88703,43.88617
43.87776919883,5.6613492965698,city_gate,C13,PA00080449,,Porte Saint-Pierre,3,1984-12-28 ,fr:Porte Saint-Pierre de Reillanne,5.6606242965698,5.6620742965698,43.87819919883,43.87733919883
43.959933,5.780712,building,C15,PA04000018,,,3,1999-01-19 ,,5.779987,5.781437,43.960363,43.959503
44.028332642842,5.9767234325409,building,C17,PA00080432,,Hôtel de Crose et portail Saint-Félix,3,1989-02-21 ,fr:Hôtel de Crose,5.9759984325409,5.9774484325409,44.028762642842004,44.027902642842
43.956944,5.8336,yes,C12,PA00080444,,Chapelle Saint-Pierre (ruines),3,1984-07-11 ,fr:Chapelle Saint-Pierre de Pierrerue,5.832875,5.834325,43.957374,43.956514
43.959111,5.78325,monastery,convent,PA00080395,,Couvent des Cordeliers (restes de l'ancien),3,1968-09-12 ,fr:Couvent des Cordeliers de Forcalquier,5.782525,5.783975,43.959541,43.958681
43.825455784665,6.1297166347504,,,PA00080458,,Vestiges antiques correspondant à trois états d'occupation,2,1983-05-06 ,fr:Vestiges antiques de Riez,6.1289916347504,6.1304416347504,43.825885784665005,43.825025784665
43.812258,5.7496,city_gate,,PA00080446,,Porte de l'enceinte (ancienne),3,1937-10-27 ,fr:Porte Saint-Joseph de Pierrevert,5.748875,5.750325,43.812688,43.811828
44.0932873983,5.6128978729248,,C20,PA04000008,,"Ferme, dite Les Graves, située au Contadour",3,1996-06-17 ,fr:Ferme des Graves,5.6121728729248,5.6136228729248,44.0937173983,44.0928573983
44.2389,6.0169,,C 5,PA00080464,,Roche ornée avec inscription gallo-romaine dite la Pierre Ecrite,2,1909-03-10 ,fr:Inscription de la Pierre Écrite,6.016175,6.017625,44.23933,44.23847
43.930833,5.713333,,C20,PA04000036,,observatoire de Haute-Provence,3,2017-02-08,fr:Observatoire de Haute-Provence,5.712608,5.7140580000000005,43.931263,43.930403
43.9375,5.7676,building,C17,PA00080415,,Hôtel de Miravail (ancien),,,fr:Hôtel de Miravail,5.766875,5.768325,43.93793,43.93707
43.958683,5.781608,building,C16,PA00080400,,Maison Jean Rey,3,1943-09-17 ,fr:Maison Jean Rey,5.780883,5.782333,43.959113,43.958253
43.837336,5.983177,place_of_worship,christian,PA00135600,,Église paroissiale Saint-Blaise et vestiges de l'ancien prieuré Saint-Mayeul,,,fr:Église Saint-Denis de Valensole,5.982452,5.9839020000000005,43.837766,43.836906
43.9585478,5.7805737,building,C17,PA00080398,,Hôtel Arnaud (ancien),3,1980-12-24 ,fr:Hôtel Arnaud,5.7798487,5.7812987,43.9589778,43.9581178
43.833728,5.783069,wayside_cross,C16,PA00080421,,Croix en pierre située autrefois dans le cimetière Notre-Dame,3,1927-03-19 ,fr:Croix de Manosque,5.782344,5.783794,43.834158,43.833298
43.959994,5.780836,,C17,PA00080394,,Collège (ancien),3,1927-03-09 ,fr:Collège de Forcalquier,5.780111,5.781561,43.960424,43.959564
43.832079,5.7837208,building,C17,PA00080426,,,3,1987-03-10 ,,5.7829958,5.7844458,43.832509,43.831649
43.817687,6.0929493,building,C17,PA04000020,,,3,1999-01-19 ,,6.0922243,6.0936743,43.818117,43.817257
43.9542,5.7847,monastery,C16,PA04000010,,Prieuré et chapelle Saint-Pancrace,3,1997-10-14 ,fr:Prieuré Saint-Pancrace,5.783975,5.785425,43.95463,43.95377
44.023850643807,6.3850522041321,tower,yes,PA00080371,,"Tour de l'Annonciade, dite aussi Tour de Poriane",3,1989-02-21 ,fr:Tour de l'Annonciade,6.3843272041320995,6.3857772041321,44.024280643807,44.023420643807
43.972086,5.672126,citywalls,C15,PA00080450,,Rempart,3,1943-07-09 ,fr:Remparts de Revest-des-Brousses,5.6714009999999995,5.672851,43.972516,43.971655999999996
43.694,6.033,,,PA00080514,,Abri Donner,3,1992-04-07 ,fr:Abri Donner,6.032275,6.0337250000000004,43.694430000000004,43.69357
44.100098698062,5.6158590316772,,C19,PA04000007,,"Ferme, dite Le Moulin de Giono, située au Contadour",3,1996-06-17 ,fr:Moulin de Giono,5.6151340316772,5.6165840316772,44.100528698062,44.099668698062
44.0041,6.6401,,C18,PA00080401,,Oratoire Saint-Joseph,3,1966-02-03 ,fr:Oratoire Saint-Joseph du Fugeret,6.639375,6.640825,44.00453,44.00367
43.955861719545,6.1736726760864,place_of_worship,christian,PA00080390,,Église (ancienne),3,1926-12-02 ,fr:Église Notre-Dame d'Estoublon,6.1729476760864,6.1743976760864,43.956291719545,43.955431719545
44.124917,6.00425,,,PA00080513,,Ancien prieuré Saint-Jean-de-Taravon,3,1992-01-30 ,fr:Prieuré Saint-Jean-de-Taravon,6.003525,6.004975,44.125347000000005,44.124487
44.6697,6.6243,,,PA00080588,,Mesure banale de grains en pierre,3,1944-02-09 ,,6.623575,6.625025,44.67013,44.66927
44.786,6.534,,,PA00132926,,Village minier du Fournel,3,1994-10-01 ,,6.533275,6.534725,44.78643,44.78557
44.6697,6.6241,,C17,PA00080589,,Place-forte,2,1966-10-18 ,,6.623375,6.624825,44.67013,44.66927
44.7854,6.5537,,C17,PA00080646,,Ensemble domanial dit Château Saint-Jean,3,1992-05-13 ,,6.552975,6.554425,44.785830000000004,44.78497
44.3914,5.4711,tower,defensive,PA00080603,,Donjon,3,1932-06-03 ,,5.470375,5.471825,44.39183,44.390969999999996
44.9439,6.5531,,C17,PA00080624,,Maison-Ferme,3,1987-06-29 ,,6.552375,6.553825,44.94433,44.94347
44.7305,6.843,building,C16,PA00080580,,,3,1930-10-11 ,,6.842275,6.843725,44.73093,44.73007
44.4284,5.7146,building,,PA00080626,,"Maison dite hôtel de Perrinet, actuellement mairie, ancien hôtel de Lesdiguières",2,1927-05-16 ,,5.713875,5.715325,44.428830000000005,44.42797
44.3147,5.8227,,C17,PA05000003,,Ancien château de Laragne,3,1996-08-02 ,,5.821975,5.823425,44.31513,44.31427
44.3322,6.0437,,C18,PA00080568,,Domaine de Charance,3,1987-09-08 ,fr:Domaine de Charance,6.042975,6.044425,44.33263,44.33177
44.6576,6.6527,yes,C18,PA00080575,,Chapelle Notre-Dame-des-Neiges et Saint-Ours,3,1986-10-21 ,,6.651975,6.653425,44.658030000000004,44.65717
44.944181,6.573832,yes,C18,PA05000022,,Chapelle de pénitents Notre-Dame d'Espérance,3,2015-03-24 ,,6.573107,6.574557,44.944611,44.943751
44.7987,6.5646,,,PA05000012,,Ancien cellier dit de la maison Planche,3,1993-02-04 ,fr:Cellier de la maison Planche,6.563875,6.5653250000000005,44.79913,44.798269999999995
44.8774,6.6855,,,PA05000011,,Téléphérique militaire de Terre Rouge ou des Gondrans,,,,6.684775,6.686225,44.87783,44.87697
44.7339,6.8352,,C15,PA00135710,,"Maison, au hameau de la Rua",2,1995-10-12 ,,6.834475,6.8359250000000005,44.73433,44.73347
44.7868,6.5541,building,C17,PA00132713,,maison Giraud,3,1994-03-25 ,,6.553375,6.554825,44.78723,44.78637
44.5526,6.0803,castle,manor,PA00080570,,Manoir de Kapados,,,,6.079575,6.081025,44.55303,44.55217
44.5643,6.496,fountain,yes,PA00080558,,Fontaine,3,1948-11-29 ,,6.495275,6.4967250000000005,44.564730000000004,44.56387
44.794,6.9276,,C17,PA00080516,,Vieille Halle,,,,6.926875,6.928325,44.79443,44.793569999999995
44.794666,6.928049,,C17,PA05000019,,Ensemble paroissial d'Abriès,3,2014-02-07 ,,6.927324,6.928774,44.795096,44.794236
43.87747737,7.44651936,,C16,PA00080869,,Hospice (ancien),3,1931-02-02 ,,7.44579436,7.44724436,43.87790737,43.87704737
43.65786,6.92472,place_of_worship,christian,PA00080727,,Cathédrale (ancienne),2,1920-06-30 ,fr:Cathédrale Notre-Dame-du-Puy de Grasse,6.923995,6.925445,43.65829,43.65743
43.937056,7.517347,city_gate,,PA00080677,,Porte d'Italie,3,1986-10-21 ,fr:Porte de Gênes (Breil-sur-Roya),7.516622,7.518072,43.937486,43.936626
43.88697,7.45421,,C20,PA06000047,,Ouvrage de lAgaisen EO III,3,2016-08-25 ,fr:Ouvrage de l'Agaisen,7.453485,7.454935,43.8874,43.88654
43.8104,7.2207,,C19,PA06000021,,"Section des vallons de la Garde et de Costa Rasta, section représentative du canal de la Vésubie",3,2001-11-28 ,fr:Canal de la Vésubie,7.219975,7.221425,43.81083,43.80997
43.8519444,7.23802778,,C11,PA00080749,,Ancienne abbaye de la Madone-des-Prés,2,1965-10-05 ,fr:Abbaye de la Madone-des-Prés,7.23730278,7.23875278,43.8523744,43.8515144
43.696832,7.273641,,C18,PA00080778,,Caserne Rusca (ancienne),3,1976-04-27 ,fr:Caserne Rusca (Nice),7.2729159999999995,7.274366,43.697262,43.696402
43.656889,6.8315556,archaeological_site,megalith,PA00080946,,Dolmen de Colbas I,3,1989-04-26 ,fr:Dolmen de Colbas 1,6.8308306,6.8322806,43.657319,43.656459
43.699519,7.278405,,C15,PA00125704,,Ancien couvent Saint-François,3,1993-06-23 ,fr:Couvent Saint-François de Nice,7.27768,7.27913,43.699949000000004,43.699089
43.700485,7.278842,citywalls,,PA06000038,,Fortifications de la porte Pairolière,2,2012-03-13 ,fr:Fortifications de la porte Pairolière,7.278117,7.279567,43.700915,43.700055
43.60567384,7.06765783,,C1,PA00080649,,Aqueduc de Clausonnes (restes) (également sur commune de Valbonne),3,1936-07-25 ,fr:Aqueduc de Clausonnes,7.06693283,7.06838283,43.60610384,43.60524384
43.70383003,7.32792833,archaeological_site,roman_villa,PA00080663,,"Villa de May, actuellement musée d'Histoire et d'Archéologie",3,1980-01-25 ,fr:Villa de May (Beaulieu-sur-Mer),7.32720333,7.32865333,43.70426003,43.70340003
43.577541,7.1261,,,PA00080658,,Monument romain provenant de Biot,2,1945-04-19 ,fr:Monument romain provenant de Biot,7.125375,7.126825,43.577971,43.577110999999995
43.658827,6.925891,city_gate,,PA00080741,,Porte Neuve,3,1925-10-21 ,,6.925166,6.926616,43.659257000000004,43.658397
43.6596689,6.9257655,building,C14,PA00080739,,Maison Tournaire,3,1932-10-21 ,,6.9250405,6.9264905,43.6600989,43.6592389
43.69582182,7.12251082,,C15,PA00080843,,Arceau avec fenêtre du 15s dit Le Pontail,3,1932-10-21 ,,7.1217858199999995,7.12323582,43.69625182,43.69539182
43.8503056,7.16119444,castle,C13,PA00080724,,Château (ruines),3,1933-06-28 ,fr:Château de Gilette,7.16046944,7.16191944,43.8507356,43.8498756
43.6574625,6.9233405,,C20,PA06000032,,Monument à Léon Chiris,3,2009-07-23 ,,6.9226155,6.9240655,43.6578925,43.6570325
43.704138,7.312234,building,C13,PA00080922,,,3,1932-10-04 ,fr:Rue Obscure de Villefranche-sur-Mer,7.311509,7.312959,43.704568,43.703708
43.657913,6.923616,yes,C17,PA00080728,,Chapelle Saint-Thomas,3,1931-04-17 ,,6.922891,6.924341,43.658343,43.657483
44.1880468,7.05585679,building,,PA00080748,,Maison Gibert,3,1942-11-19 ,,7.05513179,7.05658179,44.188476800000004,44.1876168
43.87706953,7.44728356,,C13,PA00080870,,Immeubles et place Saint-Michel,3,1947-03-18 ,fr:Place Saint-Michel (Sospel),7.44655856,7.44800856,43.87749953,43.87663953
43.746344,7.422445,,,PA00080665,,Camp ligure sis au Mont des Mules,2,1939-01-28 ,fr:Camp ligure du Mont des Mules,7.42172,7.42317,43.746774,43.745914
43.5805036,7.121678,building,C17,PA00080657,,Immeuble dit Porte de France,3,1928-03-31 ,,7.120953,7.122403,43.5809336,43.5800736
43.6996977695,7.3094701766968,,C17,PA00080960,,Port de la Darse (bâtiments et éléments d'infrastructure),3,1991-02-11 ,fr:Darse de Villefranche-sur-Mer,7.3087451766968,7.3101951766968005,43.7001277695,43.6992677695
43.689794,7.229538,,C20,PA00132715,,"Demeure dite abbaye de Roseland, quartier de Fabron",2,1996-09-03 ,fr:Abbaye de Roseland,7.228813,7.230263,43.690224,43.689364
43.94604889,7.18423342,building,,PA00080885,,,3,1927-05-02 ,,7.18350842,7.18495842,43.94647889,43.94561889
43.7643,7.4698,,,PA00080821,,Grotte du Vallonet,2,2004-04-28 ,fr:Grotte du Vallonnet,7.469075,7.470525,43.76473,43.76387
43.69510438,7.12334685,citywalls,C13,PA00080847,,Remparts et cimetière avoisinant,2,1945-02-20 ,fr:Remparts de Saint-Paul-de-Vence,7.12262185,7.12407185,43.69553438,43.694674379999995
43.658028,6.924639,castle,palace,PA00080740,,Palais épiscopal (ancien),2,1937-12-23 ,,6.923914,6.925364,43.658458,43.657598
43.745433,7.4007340000001,building,C16,PA00080895,,,3,1953-03-05 ,,7.4000090000001,7.4014590000001,43.745863,43.745003
43.8844167,7.36188889,,C12,PA00080756,,Chateau (restes),3,1927-02-28 ,fr:Rempart de Lucéram,7.36116389,7.36261389,43.884846700000004,43.8839867
43.630282,6.953489,,C18,PA00080933,,Domaine de Saint-Donat,3,1990-04-03 ,fr:Château de Saint-Donat,6.952764,6.954214,43.630712,43.629852
43.744421,7.422912,,C19,PA00080928,,Riviera Palace,3,1989-12-14 ,fr:Riviera Palace (Beausoleil),7.422187,7.423637,43.744851000000004,43.743991
43.7454,7.4007,building,C13,PA00080896,,,3,1928-02-03 ,,7.3999749999999995,7.401425,43.74583,43.744969999999995
43.72274887,7.11254665,citywalls,,PA00080918,,Remparts (vestiges des anciens),,,fr:Remparts de Vence,7.1118216499999996,7.11327165,43.72317887,43.722318869999995
43.696383,7.275092,castle,palace,PA00132718,,"Palais de la Préfecture, ancien palais des rois de Sardaigne",,,fr:Palais des ducs de Savoie,7.274367,7.275817,43.696813,43.695952999999996
43.674493,6.945725,archaeological_site,roman_villa,PA00125703,,"Villa d'Andon, située quartier Magagnosc",2,1995-10-12 ,,6.945,6.9464500000000005,43.674923,43.674063
43.8600278,7.22569444,,,PA00080751,,Passage voûté,3,1942-07-04 ,,7.22496944,7.22641944,43.8604578,43.859597799999996
43.687703,7.234733,,,PA00125705,,"Ancienne villa les Palmiers, actuellement Archives municipales, et son parc, actuellement parc des Grands Cèdres",3,1993-06-23 ,fr:Palais de Marbre (Nice),7.234008,7.235458,43.688133,43.687273
43.70598624,7.31123093,citywalls,C13,PA00080923,,Remparts (vestige dit Le Bastionnet),3,1959-10-07 ,,7.31050593,7.31195593,43.70641624,43.70555624
43.7309818,7.1061774,,,PA00080915,,Commanderie de Saint-Martin (restes de l'ancienne),3,1927-08-14 ,,7.1054524,7.1069024,43.731411800000004,43.7305518
43.7536,7.381764,,C16,PA00080888,,Sanctuaire de Laghet,3,1931-01-12 ,fr:Laghet,7.381039,7.3824890000000005,43.75403,43.75317
44.06807806,7.25559635,castle,C17,PA00080842,,Château Gubernatis ou palais Gubernatis,3,1933-06-06 ,fr:Maison Gubernatis (Saint-Martin-Vésubie),7.25487135,7.25632135,44.06850806,44.067648059999996
43.877075,7.448884,castle,palace,PA00080875,,Palais de la Gabelle (ancien),3,1949-12-10 ,,7.4481589999999995,7.449609,43.877505,43.876644999999996
43.6935002,7.3288951,building,C20,PA06000016,,maison dite Villa La Ligne Droite,2,2001-12-10 ,fr:Villa La Ligne Droite,7.3281701,7.3296201000000005,43.693930200000004,43.6930702
43.718823,7.278099,,,PA00080803,,Mur présumé ligure (vieux),3,1929-03-28 ,fr:Vieux mur ligure,7.277374,7.278824,43.719253,43.718393
43.5801091,7.1274152,,,PA00080654,,Enceinte gréco-romaine (restes),3,1939-02-16 ,fr:Enceinte gréco-romaine d'Antibes,7.1266902,7.1281402,43.5805391,43.5796791
43.698395,7.285116,,C19,PA00080957,,Ensemble concerté constitué au fond du port Lympia,3,1991-02-11 ,fr:Port Lympia,7.284391,7.2858410000000005,43.698825,43.697964999999996
43.559799,7.041158,archaeological_site,roman_villa,PA00080954,,Villa Domergue,3,1990-09-19 ,fr:Villa Domergue,7.040433,7.041883,43.560229,43.559369
43.696853,7.273499,,,PA00080777,,Caserne Lympia (ancienne),3,1943-09-16 ,fr:Bagne de Nice,7.272774,7.274224,43.697283,43.696422999999996
43.8164444,7.21755556,,C19,PA06000019,,"Siphon de Saint-Blaise, ouvrage technique remarquable du canal de la Vésubie (également sur commune de Saint-Blaise)",3,2001-11-28 ,fr:Canal de la Vésubie,7.21683056,7.21828056,43.8168744,43.8160144
43.745007,7.400885,building,C12,PA00080894,,,3,1953-03-05 ,,7.40016,7.40161,43.745437,43.744577
43.632194,6.8033611,archaeological_site,megalith,PA00080833,,Dolmen de Lou Serre Dinguille,2,1889 ,fr:Dolmen de Lou Serre Dinguille,6.8026361,6.8040861,43.632624,43.631764
43.72269794,7.1142162,,,PA00080914,,Colonnes romaines,2,1886-07-12 ,,7.1134912,7.1149412000000005,43.723127940000005,43.72226794
43.7303151,7.3500359,archaeological_site,fortification,PA06000002,,Oppidum du Castellar,3,1996-09-05 ,fr:Oppidum du Castellar,7.3493109,7.3507609,43.7307451,43.7298851
43.678083,6.8025556,archaeological_site,megalith,PA00080945,,Dolmen des Puades,3,1989-04-26 ,fr:Dolmen des Puades,6.8018306,6.8032806,43.678513,43.677653
43.699478,7.275392,,C19,PA06000048,,Lycée Masséna,2,2017-03-22,fr:Lycée Masséna,7.274667,7.276117,43.699908,43.699048
43.699008,7.278419,,C17,PA00080776,,Bourse du Travail,3,1949-12-10 ,fr:Palais communal de Nice,7.277694,7.2791440000000005,43.699438,43.698578
43.8594444,7.22566667,citywalls,,PA00080752,,Rempart,3,1942-07-04 ,fr:Rempart de Levens,7.22494167,7.22639167,43.8598744,43.8590144
43.87819786,7.45007111,building,C18,PA00080872,,Maison Gallis,3,1949-12-10 ,,7.44934611,7.45079611,43.87862786,43.87776786
43.8835,7.3613,building,C13,PA00080758,,,3,1932-10-21 ,,7.360575,7.362025,43.88393,43.88307
43.81311787,7.50624308,,,PA06000028,,"Abri Pendimoun, gisement préhistorique",3,2007-05-21 ,fr:Abri Pendimoun,7.50551808,7.50696808,43.81354787,43.81268787
43.5511797,7.0458551,,C20,PA00080931,,Parc et jardins de Champfleuri,3,1990-04-03 ,fr:Villa Champfleuri,7.0451301,7.0465801,43.5516097,43.5507497
43.8781,7.4507,building,C15,PA00080871,,,3,1931-01-12 ,,7.449975,7.451425,43.878530000000005,43.87767
43.760323972541,7.4579787254333,,C20,PA00132719,,Site corbuséen du Cap Martin,,,fr:Site corbuséen du Cap Martin,7.4572537254333,7.4587037254333,43.760753972541,43.759893972541
43.786344,7.522899,,,PA06000049,,jardin du Clos du Peyronnet,3,2017-03-14,,7.522174,7.523624,43.786774,43.785914
43.75229638,7.480652,monastery,monastery,PA00080822,,Monastère Saint-Martin (ruines de l'ancien),3,1970-08-04 ,fr:Monastère Saint-Martin,7.479927,7.481377,43.75272638,43.751866379999996
44.0937448,7.0517124,castle,C12,PA00080827,,Château (restes),3,1941-12-22 ,fr:Château de Roubion,7.0509874,7.0524374000000005,44.094174800000005,44.0933148
43.80281368,7.40279354,,C12,PA00080813,,Place Lascaris,3,1942-09-30 ,fr:Place Lascaris,7.40206854,7.40351854,43.80324368,43.80238368
43.5773286,7.1260875,citywalls,,PA00080660,,Remparts et demi-bastion 17 dit Fort Saint-André,3,1930-01-23 ,fr:Bastion Saint-André (Antibes),7.1253625,7.1268125,43.5777586,43.5768986
43.759875,7.463186,archaeological_site,roman_villa,PA00080824,,Villa E 1027 d'Eileen Gray,2,2000-03-27 ,fr:Villa E-1027,7.462461,7.463911,43.760305,43.759445
43.8773,7.4475,building,C12,PA00080873,,Maison Romane,3,1939-05-19 ,,7.446775,7.448225,43.87773,43.87687
43.69770373,7.12149898,city_gate,,PA00080846,,Porte de la ville,3,1926-05-15 ,,7.12077398,7.12222398,43.69813373,43.69727373
43.758278,7.473493,tomb,C1,PA00080823,,Tombeau romain,2,1951-06-12 ,fr:Mausolée de Lumone,7.472768,7.4742180000000005,43.758708,43.757847999999996
43.70016024,7.11910334,yes,C17,PA00125707,,Chapelle Notre-Dame de la Gardette ou Saint-Georges,3,1993-06-10 ,fr:Chapelle Notre-Dame de la Gardette,7.11837834,7.11982834,43.700590240000004,43.69973024
43.87834067,7.44936532,building,C16,PA00080874,,Maisons à arcades,3,1949-12-10 ,,7.44864032,7.45009032,43.87877067,43.87791067
43.721846626727,7.1038815379143,wayside_cross,C17,PA00080951,,Calvaire,3,1989-12-14 ,,7.1031565379143,7.1046065379143,43.722276626727,43.721416626727
44.3712,4.6458,building,C16,PA00116675,,,3,1927-04-12 ,,4.645075,4.6465250000000005,44.37163,44.37077
44.3713,4.6468,catholic,C12,PA00116677,,,,,,4.646075,4.647525,44.37173,44.37087
44.918213752632,4.8302882909775,,,PA00116827,,Murailles romaines (ruines),3,1933-06-06 ,,4.8295632909775,4.8310132909775,44.918643752632,44.917783752632
45.0675963,4.8336325,building,,PA00116833,,Maison Louis XV,3,1927-05-31 ,,4.8329075,4.8343575,45.0680263,45.0671663
44.4806962,4.69084208,building,C18,PA00116862,,Hôtel de Roqueplane,2,1947-04-14 ,fr:Hôtel de Roqueplane,4.69011708,4.6915670800000004,44.4811262,44.480266199999996
44.3651,4.4389,,,PA07000029,,grotte de la Cabre,3,2017-05-15,,4.438175,4.439625,44.36553,44.36467
44.4797,4.2397,,C17,PA00116714,,Collège des Oratoriens (ancien),3,1988-04-19 ,fr:Collège des Oratoriens de Joyeuse,4.238975,4.240425,44.48013,44.47927
44.37230556,4.646666667,building,C18,PA00116669,,Hôtel Doyse,,,,4.645941667,4.647391667,44.37273556,44.37187556
45.2711,4.6676,building,C16,PA00116652,,Maison du 16e siècle,3,1978-09-07 ,,4.666875,4.668325,45.27153,45.270669999999996
44.372371,4.647018,,C16,PA00116676,,Ancien Palais des Evêques,2,1946-09-16 ,fr:Palais des évêques de Bourg-Saint-Andéol,4.646293,4.647743,44.372801,44.371941
44.5572,4.5007,city_gate,,PA00116853,,Porte dite de l'Hôpital,3,1941-07-05 ,fr:Porte de l'Hôpital,4.499975,4.501425,44.55763,44.55677
45.2108,4.7033,bridge,C19,PA00116844,,Pont suspendu sur la Cance dit Pont du Moulin (ancien) (également sur commune de Quintenas),2,1981-04-06 ,fr:Pont de Moulin sur Cance,4.7025749999999995,4.704025,45.21123,45.21037
44.6569,4.7627,,,PA00116702,,Terrain dit dégagement de l'église,2,1954-01-26 ,,4.761975,4.763425,44.65733,44.65647
44.3485,4.4816,,,PA00116803,,Groupe de dolmens de la forêt de Malbosc,2,1889-12-27 ,fr:Dolmens de la forêt de Malbosc,4.480875,4.482325,44.34893,44.34807
44.313953608354,4.2158854007721,wayside_cross,C16,PA00116774,,Croix de cimetière,2,1910-11-19 ,,4.2151604007721,4.2166104007721,44.314383608354,44.313523608354
44.395953,4.416036,,,PA07000031,,grotte du Dérocs,3,2017-05-15,,4.415311,4.416761,44.396383,44.395523
44.5675,4.6872,,C16,PA00116758,,Domaine de Joviac (également sur commune de Le Teil),,,fr:Château de Joviac,4.686475,4.687925,44.567930000000004,44.56707
44.3752,4.2001,,C12,PA00116646,,Commanderie de Jalès (ancienne),3,1981-12-23 ,fr:Commanderie de Jalès,4.199375,4.200825,44.37563,44.37477
44.5565,4.5027,,C18,PA00116848,,Gendarmerie,,,fr:Gendarmerie de Villeneuve-de-Berg,4.501975,4.503425,44.55693,44.55607
44.5571,4.5018,building,,PA00116852,,Maison ancienne,3,1941-12-08 ,,4.501075,4.502525,44.55753,44.55667
44.5556,4.598,milestone,C,PA00116823,,Borne milliaire de Mélas,2,1932-08-10 ,fr:Borne milliaire de Mélas,4.597275,4.598725,44.55603,44.55517
44.620581904687,4.3903255462646,building,C16,PA00116635,,,3,1927-04-12 ,fr:Maison Delichères,4.3896005462645995,4.3910505462646,44.621011904687,44.620151904687
44.4793,4.239,building,C18,PA00116716,,Hôtel de Montrevel,3,1988-04-19 ,fr:Hôtel de Montravel,4.238275,4.239725,44.47973,44.47887
44.6023,4.4273,archaeological_site,fortification,PA00116723,,Oppidum de Jastres-Sud,3,1986-07-31 ,fr:Oppidum de Jastres-Sud,4.426575,4.428025,44.60273,44.60187
44.37166667,4.646805556,building,C15,PA00116671,,Hôtel Nicolai,3,1926-07-09 ,,4.646080556,4.647530556,44.372096670000005,44.37123667
45.0688,4.8353,,C19,PA00116837,,"Passerelle Seguin sur le Rhône (également sur commune de Tain-l'Hermitage, dans la Drôme)",3,1985-12-30 ,fr:Passerelle Marc Seguin,4.834575,4.836025,45.069230000000005,45.06837
44.557408,4.5020559,building,C18,PA00116850,,Hôtel du Sénéchal,,,fr:Hôtel du Sénéchal,4.5013309,4.5027809,44.557838000000004,44.556978
44.3216,4.5468,,,PA07000025,,grotte Huchard ; grotte n°1 du Ranc-Pointu,3,2017-03-17,,4.546075,4.547525,44.32203,44.321169999999995
44.6654,4.289,milestone,,PA00116742,,Borne milliaire,2,1932-07-11 ,fr:Borne milliaire de Pont-de-Labeaume,4.288275,4.289725,44.66583,44.66497
44.556884904214,4.5010323822498,building,C16,PA00116851,,Maison d'Olivier de Serres,2,1927-10-10 ,fr:Maison d'Olivier de Serres,4.5003073822498,4.5017573822498,44.557314904214,44.556454904214
44.3732,4.646,building,C17,PA00116666,,Hôtel Balzagette du Charneve,3,1946-06-13 ,,4.645275,4.646725,44.37363,44.372769999999996
44.3658,4.4536,,,PA07000027,,grotte des Potiers de Gaud,3,2017-05-15,,4.452875,4.454325,44.36623,44.36537
44.5424,4.1906,bridge,,PA00116814,,Pont du Gua sur la Baume (également sur commune de Beaumont),2,1984-12-05 ,fr:Pont du Gua,4.189875,4.191325,44.54283,44.54197
44.657,4.7627,,,PA00116699,,Deux bornes milliaires gallo-romaines,2,1903-09-26 ,fr:Bornes milliaires de Cruas,4.761975,4.763425,44.65743,44.656569999999995
45.2411111,4.6688888888889,monastery,convent,PA00116626,,Couvent Sainte-Marie (ancien),3,1981-03-02 ,fr:Couvent Sainte-Marie d'Annonay,4.6681638888889,4.6696138888889,45.2415411,45.240681099999996
44.48210851,4.69010716,building,,PA00116864,,"Immeuble dit Lacombe, à la base du clocher de la cathédrale",2,1920-12-20 ,fr:Maison de Sampzon,4.68938216,4.69083216,44.482538510000005,44.48167851
44.3705,4.645611111,building,C18,PA00116667,,Hôtel Bonnot de Villeurain,3,1961-10-10 ,,4.644886111,4.646336111,44.37093,44.37007
44.319685,4.54704,,,PA07000026,,grotte du Figuier,3,2017-03-17,fr:Grotte du Figuier (Saint-Martin-d'Ardèche),4.546315,4.547765,44.320115,44.319255
44.480263815973,4.6643829345703,yes,C12,PA00116858,,Chapelle Saint-Ostian,2,1983-03-21 ,fr:Chapelle Saint-Ostian de Viviers,4.6636579345703,4.6651079345703,44.480693815973,44.479833815972995
44.4821,4.6893,building,C18,PA00116863,,Hôtel de Tourville,3,1953-04-24 ,fr:Hôtel de Tourville,4.688575,4.690025,44.482530000000004,44.48167
44.482540732564,4.6893315017223,building,C18,PA00116861,,Hôtel de Fontanes dit de Beaulieu,3,1986-08-01 ,fr:Hôtel de Fontanès,4.6886065017223,4.6900565017223,44.482970732564,44.482110732563996
44.3804,4.4297,,,PA07000030,,grotte du Bouchon,3,2017-05-15,,4.428975,4.4304250000000005,44.38083,44.37997
44.8778,4.5742,city_gate,,PA00116680,,Porte de ville (ancienne),3,1927-05-31 ,fr:Porte de ville de Chalencon,4.573475,4.574925,44.87823,44.87737
44.454,4.3401,building,C16,PA00116763,,,3,1927-04-12 ,,4.3393749999999995,4.340825,44.45443,44.45357
44.318365,4.548017,,,PA07000024,,grotte Sombre ; grotte Castanié ; grotte de l'Olivier,3,2017-03-17,,4.547292,4.548742,44.318795,44.317935
44.3939288,4.4116115,,,PA00135636,,Grotte du Déroc,,,fr:Grotte du Déroc,4.4108865,4.4123365,44.3943588,44.393498799999996
44.5416,4.2921,building,C16,PA00116721,,Maison Bastide (annexe de la mairie),2,1928-06-08 ,fr:Maison Bastide,4.2913749999999995,4.292825,44.542030000000004,44.54117
44.7903,4.2256,farm,C15,PA00116766,,Ferme dite Ferme-Auberge,2,1986-02-18 ,fr:Ferme-auberge de Sagnes-et-Goudoulet,4.224875,4.226325,44.79073,44.78987
44.8276,4.677,bridge,C19,PA00116785,,Pont suspendu sur l'Eyrieux (ancien),2,1982-05-07 ,fr:Pont sur l'Eyrieux,4.6762749999999995,4.677725,44.82803,44.827169999999995
44.4795,4.24,castle,C16,PA00116713,,,3,1988-04-19 ,fr:Château de Joyeuse,4.239275,4.240725,44.47993,44.47907
44.481381426073,4.6978139877319,bridge,,PA00116866,,Pont romain franchissant l'Escoutay,2,1986-08-13 ,fr:Pont romain de Viviers,4.6970889877319,4.6985389877319,44.481811426073,44.480951426073
45.0683,4.832,milestone,,PA00116628,,Borne milliaire,3,1926-11-15 ,fr:Borne milliaire d'Arras-sur-Rhône,4.831275,4.832725,45.06873,45.06787
44.3884,4.4154,,,PA07000028,,grotte du Planchard,3,2017-05-15,,4.414675,4.416125,44.38883,44.387969999999996
44.371278,4.645537,building,C18,PA00116673,,,3,1946-02-19 ,,4.644812,4.646262,44.371708,44.370847999999995
44.7439,4.243,monastery,C13,PA00116679,,Prieuré de Belvezet (ancien),3,1981-02-23 ,fr:Prieuré de Belvezet,4.242275,4.243725,44.74433,44.743469999999995
44.7123,4.2079,,,PA00116734,,Commanderie de l'Hôpital (ancienne),3,1963-07-19 ,fr:Commanderie de l'Hôpital,4.207175,4.2086250000000005,44.71273,44.71187
44.3879,4.4153,,,PA07000032,,grotte dite de la Bergerie de Charmasson,3,2017-05-15,,4.414575,4.416025,44.38833,44.38747
44.372,4.646694444,building,C18,PA00116670,,Hôtel de Gabriac,3,1947-09-15 ,fr:Hôtel de Gabriac,4.645969444,4.6474194440000005,44.37243,44.37157
44.36402778,4.58375,archaeological_site,megalith,PA00116663,,Dolmen,2,1900 ,,4.583025,4.584475,44.36445778,44.36359778
44.71,3.8724,,,PA00116725,,Village de Concoules (ancien),3,1982-11-04 ,fr:Concoules (Lespéron),3.8716749999999998,3.873125,44.71043,44.70957
44.37230556,4.646666667,building,,PA00116668,,Hôtel de Digoine,3,1946-11-23 ,,4.645941667,4.647391667,44.37273556,44.37187556
44.3404,4.447,,,PA00135633,,Grotte dite de la Combe d'Oulen,3,1995-08-25 ,fr:Grotte de la Combe d'Oulen,4.446275,4.447725,44.340830000000004,44.33997
49.701621,4.843146,,,PA08000018,,Carré militaire et le monument aux morts du cimetière,3,2017-12-28,,4.842421,4.843871,49.702051000000004,49.701191
49.5808,5.1055,,,PA00078476,,Temple antique du type «fanum»,2,1980-08-07 ,fr:Fanum de Mouzon,5.104775,5.106225,49.581230000000005,49.58037
49.634,5.1714,,C16,PA00078357,,Anciennes fortifications,,,fr:Fortifications de Carignan,5.170675,5.172125,49.63443,49.63357
49.5386,5.0576,building,C15,PA00078343,,Maison à arcades,3,1927-02-28 ,,5.056875,5.058325,49.539030000000004,49.53817
49.7051,4.9446,monastery,convent,PA00078519,,"Couvent des Capucins Irlandais (ancien), puis hôpital militaire",2,1962-06-25 ,fr:Couvent des Capucins irlandais,4.943875,4.945325,49.70553,49.70467
49.5506,4.926207,place_of_worship,christian,PA08000017,,,3,2015-03-31 ,fr:Église Notre-Dame de Stonne,4.925482,4.926932,49.551030000000004,49.55017
49.4764,4.5334,,,PA00078352,,Château-ferme,3,1945-07-11 ,fr:Château-ferme de Brieulles-sur-Bar,4.532675,4.534125,49.47683,49.47597
49.6539,4.5388,,C18,PA00132580,,Ancien relais de poste,3,1994-05-03 ,fr:Relais de poste à chevaux de Launois-sur-Vence,4.538075,4.539525,49.65433,49.65347
49.6036,4.7878,,C19,PA00078538,,Ancien haut-fourneau,3,1972-03-23 ,fr:Haut-fourneau de Vendresse,4.787075,4.788525,49.60403,49.60317
49.8527,4.464,,,PA00078427,,Bornes de Saint-Rémi (également sur commune de Tremblois-les-Rocroi),2,1931-03-17 ,fr:Bornes de Saint-Rémi,4.463275,4.4647250000000005,49.85313,49.85227
49.759782,4.720092,citywalls,C18,PA00078418,,Remparts (anciens),3,1948-09-27 ,,4.719367,4.720817,49.760212,49.759352
49.7023,4.9475,,C16,PA00078517,,"Château-Bas, à l'entrée de la citadelle",,,fr:Château-bas de Sedan,4.946775,4.948225,49.70273,49.70187
49.9387,4.6306,,C20,PA08000015,,"Cité ouvrière Biard, dite cité Paris-Campagne",3,2012-12-31 ,fr:Cité Paris-Campagne,4.629875,4.631325,49.93913,49.938269999999996
49.711707,4.942106,,,PA08000019,,Monument allemand du cimetière Saint-Charles,3,2017-12-28,,4.941381,4.942831,49.712137,49.711276999999995
50.01,4.7268,,C17,PA00078555,,Haut-fourneau,2,1991-03-14 ,fr:Haut-fourneau d'Haybes,4.726075,4.727525,50.01043,50.00957
49.5387,5.0575,building,C15,PA00078344,,Maison à arcades,3,1927-02-28 ,,5.056775,5.058225,49.53913,49.53827
49.7417,4.859,,C19,PA00078562,,Ancienne usine,3,1991-10-18 ,fr:Forge de Vrigne-aux-Bois,4.858275,4.859725,49.74213,49.74127
49.8483,4.4916,,,PA00078536,,Bornes de Saint-Rémi (également sur commune de Chilly),2,1931-03-17 ,fr:Bornes de Saint-Rémi,4.490875,4.492325,49.84873,49.84787
49.3343,4.5951,,C20,PA00078525,,Plate-forme d'artillerie,2,1922-09-12 ,fr:Plate-forme d'artillerie de Semide,4.594375,4.5958250000000005,49.33473,49.33387
49.9252,4.5205,citywalls,C16,PA00078491,,Fortifications (anciennes),,,fr:Fortifications de Rocroi,4.519775,4.521225,49.92563,49.924769999999995
49.5387,5.0575,building,C15,PA00078342,,Maison à arcades,3,1927-02-28 ,,5.056775,5.058225,49.53913,49.53827
49.50895,4.365405,building,C20,PA08000016,,Hôtel de Ville,3,2015-09-25 ,,4.36468,4.36613,49.50938,49.50852
49.7626,4.713,,C19,PA08000014,,Ancienne usine métallurgique  La Macérienne ,,,fr:Usine La Macérienne,4.712275,4.713725,49.76303,49.76217
49.5387,5.0575,building,C15,PA00078345,,Maison à arcades,3,1927-02-28 ,,5.056775,5.058225,49.53913,49.53827
49.4864,4.9369,building,C17,PA00078508,,Maison natale de Dom Mabillon,3,1927-02-28 ,fr:Maison natale de Dom Mabillon,4.9361749999999995,4.937625,49.486830000000005,49.48597
49.761997,4.714175,,C15,PA00078363,,Enceinte (ancienne),3,1926-07-19 ,,4.71345,4.7149,49.762427,49.761567
49.605,5.0767,building,C15,PA00078473,,Maisons dites Maisons Espagnoles (quatre),3,1942-07-04 ,fr:Maisons espagnoles de Mouzon,5.075975,5.077425,49.60543,49.604569999999995
43.088152,1.874593,building,,PA00093867,,Maison Nayrac,3,1929-06-25 ,,1.8738679999999999,1.875318,43.088582,43.087722
43.088477,1.873398,building,,PA00093877,,Maison Salettes,3,1929-06-25 ,,1.8726729999999998,1.874123,43.088907,43.088046999999996
43.169632,1.496506,place_of_worship,christian,PA09000031,,Église Saint-Anastase,3,2015-10-14 ,,1.4957809999999998,1.497231,43.170062,43.169202
42.966809,1.605987,building,C19,PA09000028,,Immeuble dit maison des Cariatides,3,2015-09-17 ,,1.605262,1.6067120000000001,42.967239,42.966378999999996
43.088144,1.874518,building,,PA00093866,,Maison Murat,3,1929-06-25 ,,1.8737929999999998,1.875243,43.088574,43.087714
42.8357,1.2029,castle,,PA09000003,,Château de la Garde,,,,1.202175,1.2036250000000002,42.836130000000004,42.83527
43.087677,1.875039,building,,PA00093846,,Maison Dantoine,3,1929-06-25 ,,1.8743139999999998,1.875764,43.088107,43.087247
43.088663,1.873931,building,,PA00093839,,Maison Bonnafous,3,1929-06-25 ,,1.873206,1.874656,43.089093,43.088232999999995
43.088673,1.874736,building,,PA00093857,,Maison Jammes,3,1929-06-25 ,,1.8740109999999999,1.875461,43.089103,43.088243
43.087736,1.875031,building,,PA00093850,,Maison Dedieu,3,1929-06-25 ,,1.8743059999999998,1.875756,43.088166,43.087306
43.088622,1.873572,building,,PA00093843,,Maison Clerc,3,1929-06-25 ,,1.872847,1.874297,43.089052,43.088192
43.0603,1.3373,archaeological_site,megalith,PA00093814,,Dolmen de Bidot,2,1889 ,,1.3365749999999998,1.338025,43.06073,43.05987
43.088156,1.874829,building,,PA00093873,,Maison Ribes,3,1929-06-25 ,,1.874104,1.8755540000000002,43.088586,43.087725999999996
43.088587,1.87489,building,,PA00093859,,Maison Laborde,3,1929-06-25 ,,1.8741649999999999,1.875615,43.089017,43.088156999999995
43.087519,1.874996,building,,PA00093853,,Maison Deumie,3,1929-06-25 ,,1.874271,1.8757210000000002,43.087949,43.087089
43.088187,1.87512,building,,PA00093871,,Maison Pons (deux maisons),3,1929-06-25 ,,1.8743949999999998,1.875845,43.088617,43.087756999999996
43.088158,1.873952,building,,PA00093874,,Maison Rigaud,3,1929-06-25 ,,1.873227,1.8746770000000001,43.088588,43.087728
43.088657,1.874202,building,,PA00093856,,Maison Génis,3,1929-06-25 ,,1.8734769999999998,1.874927,43.089087,43.088226999999996
43.088154,1.874655,building,,PA00093868,,Maison Pauton,3,1929-06-25 ,,1.8739299999999999,1.87538,43.088584000000004,43.087724
43.088657,1.873859,building,,PA00093833,,Maison Ancely,3,1929-06-25 ,,1.8731339999999999,1.874584,43.089087,43.088226999999996
43.088681,1.874449,building,,PA00093863,,Maison Mario,3,1929-06-25 ,,1.873724,1.8751740000000001,43.089111,43.088251
43.088366,1.873377,building,,PA00093880,,Maison Sugur,3,1929-06-25 ,,1.872652,1.8741020000000002,43.088796,43.087936
43.0264,1.6955,,,PA00093811,,Grotte ornée du Portel,2,1969-02-24 ,fr:Grotte du Portel,1.694775,1.696225,43.026830000000004,43.02597
43.088079,1.874029,building,,PA00093875,,Maison Ripoll,3,1929-06-25 ,,1.8733039999999999,1.874754,43.088509,43.087649
43.088325,1.873309,building,,PA00093849,,Maison Dauriac,3,1929-06-25 ,,1.8725839999999998,1.874034,43.088755,43.087894999999996
43.088669,1.874009,building,,PA00093840,,Maison Brustier,3,1929-06-25 ,,1.873284,1.8747340000000001,43.089099000000004,43.088239
43.087505,1.875071,building,,PA00093842,,Maison Castignolles,3,1929-06-25 ,,1.8743459999999998,1.875796,43.087935,43.087075
43.0222,1.9677,,C14,PA00093781,,Ancien prieuré et remparts,,,,1.966975,1.968425,43.02263,43.02177
43.088617,1.874806,building,,PA00093860,,Maison Labatut,3,1929-06-25 ,,1.8740809999999999,1.875531,43.089047,43.088187
43.0459,1.6278,building,C16,PA00093935,,Maison en pans de bois,3,1944-10-18 ,,1.6270749999999998,1.628525,43.046330000000005,43.04547
43.087613,1.875042,building,,PA00093855,,Maison d'Espéronnat,3,1929-06-25 ,,1.874317,1.8757670000000002,43.088043,43.087182999999996
42.8888,1.7928,wayside_cross,C17,PA00093887,,Croix de carrefour en fer forgé,2,1979-06-08 ,,1.7920749999999999,1.793525,42.889230000000005,42.88837
43.087552,1.875047,building,,PA00093845,,Maison Cot,3,1929-06-25 ,,1.8743219999999998,1.875772,43.087982000000004,43.087122
43.087944,1.875044,building,,PA00093851,,Maison Degeilh,3,1929-06-25 ,,1.8743189999999998,1.875769,43.088374,43.087514
43.088646,1.874395,building,,PA00093864,,Maison Meric,3,1929-06-25 ,,1.87367,1.8751200000000001,43.089076,43.088215999999996
43.088667,1.874111,building,,PA00093854,,Maison Dubié,3,1929-06-25 ,,1.873386,1.8748360000000002,43.089097,43.088237
43.088603,1.874296,building,,PA00093847,,Maison Darail,3,1929-06-25 ,,1.8735709999999999,1.875021,43.089033,43.088173
42.8653,1.2014,castle,,PA00135439,,Château de Mirabat (également sur communes d'Oust et d'Ustou),3,1995-12-11 ,fr:Château de Mirabat,1.200675,1.202125,42.86573,42.864869999999996
43.088665,1.874653,building,,PA00093858,,Maison Labadie,3,1929-06-25 ,,1.8739279999999998,1.875378,43.089095,43.088235
43.088154,1.874732,building,,PA00093869,,Maison Pelin,3,1929-06-25 ,,1.874007,1.8754570000000002,43.088584000000004,43.087724
43.088432,1.873444,building,,PA00093878,,Maison Senié,3,1929-06-25 ,,1.872719,1.8741690000000002,43.088862,43.088001999999996
43.088706,1.87365,building,,PA00093834,,Maison Andrieu,3,1929-06-25 ,,1.872925,1.8743750000000001,43.089136,43.088276
43.088667,1.873778,building,,PA00093832,,Maison Amouroux,3,1929-06-25 ,,1.8730529999999999,1.874503,43.089097,43.088237
43.088152,1.875069,building,,PA00093872,,Maison Porcher,3,1929-06-25 ,,1.874344,1.8757940000000002,43.088582,43.087722
43.088673,1.874503,building,,PA00093862,,Maison Madron,3,1929-06-25 ,,1.873778,1.8752280000000001,43.089103,43.088243
43.087705,1.875039,building,,PA00093848,,Maison Daraux,3,1929-06-25 ,,1.8743139999999998,1.875764,43.088135,43.087275
42.8637,1.2006,,C16,PA00132657,,Maison-forte,3,1994-03-16 ,,1.1998749999999998,1.201325,42.86413,42.86327
43.1258,1.1744,marketplace,yes,PA00093904,,Halle,3,1973-09-17 ,,1.173675,1.1751250000000002,43.12623,43.12537
43.088066,1.874518,building,,PA00093835,,Maison Baillus,3,1929-06-25 ,,1.8737929999999998,1.875243,43.088496,43.087635999999996
43.0264,1.6955,building,C16,PA00093934,,Maison en pans de bois,3,1944-10-18 ,,1.694775,1.696225,43.026830000000004,43.02597
43.087828,1.875047,building,,PA00093841,,Maison Carretier,3,1929-06-25 ,,1.8743219999999998,1.875772,43.088258,43.087398
43.088665,1.873728,building,,PA00093838,,Maison Berteil,3,1929-06-25 ,,1.873003,1.8744530000000001,43.089095,43.088235
43.087901,1.87505,building,,PA00093852,,Maison Delcurron,3,1929-06-25 ,,1.874325,1.8757750000000002,43.088331000000004,43.087471
48.555,3.598,,,PA00078311,,Station de potiers gallo-romains,2,1937-09-23 ,fr:Station de potiers gallo-romains de La Villeneuve-au-Châtelot,3.597275,3.598725,48.55543,48.55457
48.309028,4.586306,,,PA00078244,,Tronçons de voies romaines de Langres à Remps et de Troyes à Naix,3,1982-08-05 ,fr:Tronçons de voies romaines de Langres à Remps et de Troyes à Naix,4.585581,4.5870310000000005,48.309458,48.308597999999996
48.153302,4.271536,wayside_cross,C17,PA00078115,,Croix en fer,3,1926-05-29 ,fr:Croix de cimetière de Fouchères,4.270811,4.272261,48.153732,48.152871999999995
48.387095,3.525673,archaeological_site,megalith,PA00078237,,Menhir dit la Pierre au Coq,2,1959-04-03 ,fr:Pierre-au-Coq (Soligny-les-Étangs),3.5249479999999997,3.526398,48.387525000000004,48.386665
48.1448354,4.798177,,C17,PA10000010,,Ancienne grange d'Outre-Aube,3,1998-04-08 ,fr:Grange d'Outre-Aube,4.797452,4.798902,48.1452654,48.1444054
48.335944,4.567694,,,PA00078284,,Tronçons de voies romaines de Langres à Remps et de Troyes à Naix,3,1982-08-05 ,fr:Tronçons de voies romaines de Langres à Remps et de Troyes à Naix,4.566969,4.5684190000000005,48.336374,48.335513999999996
48.375548,4.734061,building,,PA00078240,,,3,1970-01-21 ,,4.7333359999999995,4.734786,48.375978,48.375118
48.434778,4.455333,,,PA00078136,,Tronçons de voies romaines de Langres à Remps et de Troyes à Naix,3,1982-08-05 ,fr:Tronçons de voies romaines de Langres à Remps et de Troyes à Naix,4.454608,4.4560580000000005,48.435208,48.434348
48.494156,3.500739,building,C18,PA00078172,,,3,1929-06-25 ,,3.5000139999999997,3.501464,48.494586,48.493725999999995
48.532024,3.687887,monastery,abbey,PA00078206,,Abbaye de Sellières (ancienne),3,1988-08-26 ,fr:Abbaye de Sellières,3.687162,3.688612,48.532454,48.531594
48.555325,3.503129,archaeological_site,megalith,PA00125378,,Menhir dit de la Pierre Aiguë,3,1993-05-14 ,fr:Pierre Aiguë,3.502404,3.503854,48.555755000000005,48.554895
48.4267,4.4141,building,C16,PA00078135,,Maison à pans de bois,3,1982-12-29 ,,4.413375,4.414825,48.42713,48.426269999999995
48.1706,4.6707,,,PA00078285,,Etablissement gallo-romain (vestiges),3,1988-11-03 ,fr:Établissement gallo-romain du Val de Millières,4.669975,4.671425,48.17103,48.17017
48.304607,4.554729,farm,C16,PA00125379,,Ferme du Breuil (ancienne grange de l'abbaye de Clairvaux),3,1993-02-25 ,fr:Ferme du Breuil,4.554004,4.555454,48.305037,48.304176999999996
48.140223,4.675549,,C13,PA10000026,,Ancienne maison seigneuriale,3,2010-04-26 ,fr:Maison seigneuriale de Champignol-lez-Mondeville,4.674824,4.676274,48.140653,48.139793
48.434778,4.455333,,,PA00078052,,"Tronçons de voies romaines de Langres à Remps, et de Troyes à Naix",3,1982-08-05 ,fr:Tronçons de voies romaines de Langres à Remps et de Troyes à Naix,4.454608,4.4560580000000005,48.435208,48.434348
48.031056,4.197651,,C20,PA10000031,,Eolienne de Pargues,3,2011-11-28 ,fr:Éolienne de Pargues,4.1969259999999995,4.198376,48.031486,48.030626
48.339139,4.564667,,,PA00078061,,Tronçons de voies romaines de Langres à Remps et de Troyes à Naix,3,1982-08-05 ,fr:Tronçons de voies romaines de Langres à Remps et de Troyes à Naix,4.563942,4.565392,48.339569000000004,48.338709
48.628643,4.239537,wayside_cross,C14,PA00078246,,Croix de cimetière,2,1909-04-14 ,fr:Croix de cimetière de Trouans,4.238812,4.240262,48.629073,48.628212999999995
47.988615,4.362023,marketplace,yes,PA00078202,,Halle de Ricey-Haut,3,1980-05-14 ,fr:Halle de Ricey-Haut,4.361298,4.362748,47.989045000000004,47.988185
47.959832,4.020964,,,PA00078093,,Autel et croix,3,1925-05-15 ,fr:Chapelle Saint-Jacques de Coussegrey,4.020239,4.021689,47.960262,47.959402
48.591536,3.555257,building,C17,PA10000009,,,3,1996-12-23 ,,3.554532,3.555982,48.591966,48.591105999999996
48.146271,4.218471,castle,manor,PA00078213,,Manoir des Tourelles,2,1903-05-22 ,fr:Manoir des Tourelles,4.217746,4.219196,48.146701,48.145841
48.307632,4.322173,place_of_worship,christian,PA10000033,,,3,2015-09-25 ,fr:Église de Géraudot,4.321448,4.322898,48.308062,48.307202
48.4971,3.4978,,C19,PA10000034,,Ancien tribunal et prison,3,2015-09-25 ,,3.4970749999999997,3.498525,48.497530000000005,48.49667
48.114566,4.646788,,C13,PA10000015,,Ancienne grange de Sermoise,3,2001-11-12 ,fr:Grange de Sermoise,4.646063,4.647513,48.114996000000005,48.114136
47.9767,4.5005,tower,yes,PA00078168,,Tour du Boulevard,3,1984-11-09 ,fr:Tour du Boulevard,4.499775,4.501225,47.97713,47.97627
48.4591,3.941,,,PA00135307,,Site archéologique des Hardillères,3,1995-10-10 ,fr:Site archéologique des Hardillères,3.9402749999999997,3.941725,48.45953,48.45867
48.2991,4.0802,building,C16,PA00078269,,Hôtel du Petit Louvre,3,1986-09-10 ,fr:Hôtel du Petit Louvre,4.0794749999999995,4.080925,48.299530000000004,48.29867
48.585877,3.490557,,C12,PA00078160,,Ancienne commanderie de templiers de Fresnoy,2,1994-01-04 ,fr:Commanderie de Fresnoy,3.489832,3.491282,48.586307000000005,48.585447
48.027634,4.016608,wayside_cross,C16,PA00078292,,Croix de cimetière,2,1912-11-30 ,fr:Croix de cimetière de Vanlay,4.015883,4.017333,48.028064,48.027204
48.447842,4.579719,wayside_cross,C18,PA00078288,,Croix,3,1972-03-29 ,fr:Croix de Vallentigny,4.578994,4.580444,48.448272,48.447412
48.298124,4.071652,building,C16,PA00078263,,Hôtel d'Autruy,3,1925-12-21 ,fr:Hôtel d'Autruy,4.070927,4.072377,48.298554,48.297694
48.2248,4.2948,building,C16,PA10000004,,Maison du 16e siècle,2,1997-03-24 ,,4.294075,4.2955250000000005,48.22523,48.22437
48.5503,3.5988,,,PA00078310,,Site archéologique,3,1982-04-06 ,fr:Site archéologique des Grèves,3.598075,3.5995250000000003,48.55073,48.54987
48.2912,4.0159,archaeological_site,tumulus,PA00078233,,Tumulus,2,1965-10-29 ,fr:Croix La Beigne,4.015175,4.016625,48.291630000000005,48.29077
48.4948,3.5015,,C16,PA00078170,,Auditoire (ancien),3,1928-09-19 ,fr:Auditoire de Nogent-sur-Seine,3.500775,3.502225,48.49523,48.494369999999996
48.29562,4.07042,building,C16,PA00078281,,,3,1926-06-16 ,fr:Hôtel Deheurles,4.069695,4.0711450000000005,48.29605,48.29519
47.951225,3.966864,place_of_worship,christian,PA00078138,,Église (ancienne),,,fr:Église Saint-Martin de Lignières,3.966139,3.9675890000000003,47.951655,47.950795
48.00428,4.36809,building,C17,PA00078203,,Maison du 17s,3,1943-09-16 ,,4.3673649999999995,4.368815,48.00471,48.00385
48.032853,4.198017,,C16,PA00078175,,Autel et croix,3,1925-05-15 ,fr:Autel de Pargues,4.197292,4.198742,48.033283000000004,48.032423
48.321528,4.579833,,,PA00078127,,Tronçons de voies romaines de Langres à Remps et de Troyes à Naix,3,1982-08-05 ,fr:Tronçons de voies romaines de Langres à Remps et de Troyes à Naix,4.579108,4.580558,48.321958,48.321098
48.434778,4.45533333,,,PA00078217,,Tronçons de voies romaines de Langres à Remps et de Troyes à Naix,3,1982-08-05 ,fr:Tronçons de voies romaines de Langres à Remps et de Troyes à Naix,4.45460833,4.45605833,48.435208,48.434348
48.434778,4.455333,,,PA00078193,,Tronçons de voies romaines de Langres à Remps et de Troyes à Naix,3,1982-08-05 ,fr:Tronçons de voies romaines de Langres à Remps et de Troyes à Naix,4.454608,4.4560580000000005,48.435208,48.434348
48.350203,4.536227,,C18,PA00078098,,,2,1980-12-15 ,fr:Cimetière de Dienville,4.535502,4.536952,48.350633,48.349773
48.4085,4.515222,,,PA00078068,,Tronçons de voies romaines de Langres à Remps et de Troyes à Naix,3,1982-08-05 ,fr:Tronçons de voies romaines de Langres à Remps et de Troyes à Naix,4.5144969999999995,4.515947,48.40893,48.408069999999995
48.508431,4.573022,building,C16,PA00078082,,Maison à pans de bois,3,1928-10-29 ,,4.572297,4.573747,48.508861,48.508001
48.375291,4.735703,building,C17,PA00078241,,Maison communale,3,1926-06-19 ,fr:Maison communale de Soulaines-Dhuys,4.734978,4.736428,48.375721,48.374860999999996
47.977839,4.496423,yes,C15,PA00078167,,Grenier à sel (ancien),3,1984-10-11 ,fr:Grenier à sel de Mussy-sur-Seine,4.495698,4.497148,47.978269000000004,47.977409
48.483838,3.54663,archaeological_site,megalith,PA00125374,,Menhir dit de la Grande-Pierre,3,1993-05-14 ,fr:Menhir de la Grande-Pierre,3.545905,3.547355,48.484268,48.483408
48.292256,4.078607,building,C18,PA10000028,,Maison de la congrégation des Soeurs de la Providence,3,2010-09-06 ,,4.077882,4.079332,48.292686,48.291826
48.375532,4.733917,bridge,C17,PA10000007,,Pont d'une arche dit Henri IV,3,1996-12-03 ,fr:Pont de Henri IV (Soulaines-Dhuys),4.733192,4.734642,48.375962,48.375102
48.4336,3.6248,archaeological_site,megalith,PA00125375,,Menhir dit de la Pierre à l'Abbé,3,1993-05-14 ,fr:Pierre à l'Abbé,3.624075,3.625525,48.43403,48.43317
48.4274,4.4134,building,C18,PA00078134,,Maison du 18s,3,1954-01-26 ,,4.412675,4.414125,48.42783,48.42697
48.146933,4.785978,,C12,PA00078313,,Ancienne abbaye de Clairvaux,,,fr:Abbaye de Clairvaux,4.785253,4.786703,48.147363,48.146502999999996
48.467007,3.56972,,,PA00135308,,Ancienne abbaye du Paraclet,,,fr:Abbaye du Paraclet,3.5689949999999997,3.570445,48.467437000000004,48.466577
48.195931,4.076094,wayside_cross,,PA00078304,,Calvaire dit La Croix Blanche,2,1977-03-28 ,fr:Calvaire de la Croix Blanche,4.075369,4.076819,48.196361,48.195501
48.228096,4.30597,,C17,PA10000016,,Ancienne abbaye,3,2001-11-12 ,fr:Abbaye Saint-Pierre de Montiéramey,4.305245,4.306695,48.228526,48.227666
47.955929,4.1326,wayside_cross,C16,PA00078110,,Croix de la fontaine Saint-Georges,2,1942-04-14 ,fr:Croix de la fontaine Saint-Georges,4.131875,4.133325,47.956359,47.955498999999996
48.341278,4.562167,,,PA00078209,,Tronçons de voies romaines de Langres à Remps et de Troyes à Naix,3,1982-08-05 ,fr:Tronçons de voies romaines de Langres à Remps et de Troyes à Naix,4.5614419999999996,4.562892,48.341708000000004,48.340848
48.427259,4.413948,marketplace,yes,PA00078133,,Halle,3,1982-12-29 ,fr:Halle de Lesmont,4.413223,4.4146730000000005,48.427689,48.426829
48.467007,3.56972,,C17,PA00078111,,Ancienne abbaye du Paraclet (également sur commune de Saint-Aubin),,,fr:Abbaye du Paraclet,3.5689949999999997,3.570445,48.467437000000004,48.466577
43.269,2.4004,building,C16,PA00102658,,Maison Fraisse,3,1948-04-13 ,fr:Maison Fraisse,2.399675,2.401125,43.26943,43.26857
43.0397,2.7298,wayside_cross,C16,PA00102704,,Croix de cimetière et autel,3,1962-10-08 ,fr:Croix de cimetière de Jonquières,2.729075,2.730525,43.040130000000005,43.03927
43.3605556,2.14402778,place_of_worship,christian,PA00102784,,Église Saint-Vincent,2,1862 ,fr:Collégiale Saint-Vincent de Montréal,2.14330278,2.14475278,43.3609856,43.360125599999996
42.9964,2.2567,building,C12,PA00102524,,Maison Fradin,3,1948-04-05 ,,2.255975,2.257425,42.99683,42.99597
42.9968,2.2556,building,,PA00102528,,,3,1951-02-07 ,,2.2548749999999997,2.256325,42.99723,42.99637
43.276983,2.659008,,C15,PA00102546,,Ancienne chapelle des Clarisses,3,1948-04-13 ,fr:Chapelle des Clarisses d'Azille,2.658283,2.659733,43.277413,43.276553
43.1817,3.0023,building,C12,PA00102827,,,3,1934-09-21 ,,3.001575,3.003025,43.18213,43.18127
42.9527,2.3742,wayside_cross,C14,PA00102540,,Croix en fer forgé,3,1948-04-27 ,fr:Croix d'Arques,2.373475,2.374925,42.95313,42.95227
43.212585,2.352158,building,C17,PA00102608,,Maison Cotte,3,1948-04-13 ,,2.351433,2.3528830000000003,43.213015,43.212154999999996
43.19841,1.7525,yes,,PA00102561,,Chapelle du Saint-Sépulcre,,,fr:Chapelle du Saint-Sépulcre de Belpech,1.7517749999999999,1.753225,43.198840000000004,43.19798
42.997,2.2558,building,C16,PA00102527,,,3,1948-04-05 ,,2.2550749999999997,2.256525,42.99743,42.99657
43.3176,1.9567,building,C18,PA00102630,,Hôtel de Gauzy,3,1948-04-10 ,fr:Hôtel de Gauzy,1.955975,1.9574250000000002,43.31803,43.31717
43.32,1.9543,,C14,PA00102626,,Ancien couvent des Carmes,3,1948-04-14 ,fr:Couvent des Carmes de Castelnaudary,1.9535749999999998,1.955025,43.32043,43.31957
43.3253,1.8848,,C17,PA11000003,,Canal du Midi,3,1996-09-19 ,fr:Canal du Midi,1.884075,1.8855250000000001,43.32573,43.32487
43.1439,2.9987,,,PA11000043,,Vivier antique du lac des Capelles,2,2013-08-02 ,,2.997975,2.999425,43.144330000000004,43.14347
43.2662,2.904,,,PA11000016,,Canal du Midi : hameau du Somail,,,fr:Canal du Midi,2.903275,2.904725,43.26663,43.265769999999996
43.3156,1.9589,,C18,PA00102631,,Ancien hôtel de ville,3,1948-04-10 ,fr:Hôtel de ville de Castelnaudary,1.958175,1.9596250000000002,43.316030000000005,43.31517
43.326,2.527,,,PA00102640,,Ancienne église abbatiale,,,fr:Abbatiale Saint-Pierre-et-Saint-Paul de Caunes-Minervois,2.526275,2.527725,43.32643,43.32557
43.1829,3.0026,building,C13,PA00102832,,,3,1946-12-19 ,,3.001875,3.0033250000000002,43.18333,43.182469999999995
43.3156,1.9589,,C18,PA00102937,,Hôpital,,,fr:Hôpital de Castelnaudary,1.958175,1.9596250000000002,43.316030000000005,43.31517
43.0917,2.6186,building,C14,PA00102717,,Maison Maynard,3,1931-08-27 ,fr:Maison Maynard,2.6178749999999997,2.619325,43.092130000000004,43.09127
43.1829,3.0064,building,C17,PA00102817,,,3,1946-12-27 ,,3.005675,3.0071250000000003,43.18333,43.182469999999995
43.0069,2.6274,building,C18,PA00102926,,Maison dite Azalbert,3,1952-04-07 ,,2.626675,2.6281250000000003,43.00733,43.00647
43.2287,2.3973,,C12,PA00102591,,Ancienne église Saint-Martin-de-Poursan,3,1948-04-13 ,,2.396575,2.398025,43.229130000000005,43.22827
43.1441,3.0036,,,PA00102807,,Site archéologique de Port La Nautique,,,,3.002875,3.004325,43.14453,43.14367
43.2043,2.3917,wayside_cross,C18,PA00102589,,Croix,3,1946-12-12 ,,2.390975,2.3924250000000002,43.204730000000005,43.20387
43.2239,2.2562,wayside_cross,C13,PA00102646,,Croix,3,1948-04-27 ,fr:Croix de Caux-et-Sauzens,2.255475,2.2569250000000003,43.22433,43.22347
43.0063,2.6274,,C14,PA00102923,,Socle de croix,3,1926-02-17 ,fr:Socle de croix de Villerouge-Termenès,2.626675,2.6281250000000003,43.006730000000005,43.00587
43.212034,2.349567,building,C16,PA00102611,,Maison Gally,3,1947-05-30 ,,2.348842,2.350292,43.212464000000004,43.211604
43.149071,3.145219,,,PA00102788,,Vestiges de l'amphithéatre gallo-romain,,,,3.144494,3.145944,43.149501,43.148641
43.2502,2.6678,,C17,PA11000006,,Canal du Midi,3,1996-09-19 ,fr:Canal du Midi,2.667075,2.6685250000000003,43.25063,43.24977
43.408,1.8752,wayside_cross,,PA00102893,,Croix discoïdale,3,1952-04-07 ,fr:Croix discoïdale de Saint-Paulet,1.874475,1.875925,43.40843,43.40757
42.9967,2.2561,building,C17,PA00102526,,Maison Maury-Rigaud,3,1948-04-05 ,,2.255375,2.256825,42.99713,42.996269999999996
43.211455,2.35477,,C18,PA00102599,,Ancien hôtel de Murat,3,1939-05-13 ,,2.3540449999999997,2.355495,43.211885,43.211025
42.9964,2.2563,building,C17,PA00102523,,Maison Digeon,3,1948-04-05 ,,2.255575,2.257025,42.99683,42.99597
43.3176,1.956,,C14,PA00102625,,Restes du cloître des Cordeliers,3,1929-03-20 ,fr:Cloître des Cordeliers de Castelnaudary,1.9552749999999999,1.956725,43.31803,43.31717
43.327,2.5278,,C16,PA00102643,,Ancien hôtel de Sicard,3,1948-04-10 ,fr:Hôtel de Sicard,2.527075,2.528525,43.32743,43.32657
43.23911,2.37357,wayside_cross,C16,PA00102590,,Croix du Pont-Rouge,3,1948-04-10 ,,2.372845,2.374295,43.23954,43.238679999999995
43.3146,1.804,wayside_cross,C17,PA00102557,,Croix de chemin,2,1941-10-01 ,fr:Croix de chemin de Belflou,1.803275,1.8047250000000001,43.31503,43.31417
43.3258,2.4213,,,PA00102898,,Grotte dite du Gazel ou des Marronniers,2,1948-04-29 ,fr:Grotte du Gazel,2.420575,2.422025,43.32623,43.32537
43.2116,2.3502,,C16,PA00102595,,Evêché,3,1948-04-10 ,,2.349475,2.350925,43.21203,43.211169999999996
42.8646,3.0448,,C20,PA11000048,,"Village de vacances  Les Carrats , ensemble situé à Port-Leucate",3,2014-07-23 ,,3.044075,3.045525,42.865030000000004,42.86417
43.1868,3.0077,,C14,PA00102799,,Restes de l'église et du couvent des Cordeliers,3,1947-03-06 ,,3.0069749999999997,3.008425,43.18723,43.18637
43.1994,3.1873,archaeological_site,roman_villa,PA00102691,,"Villa gallo-romaine, dite Fount de Rome",2,1970-06-30 ,fr:Fount de Rome,3.186575,3.188025,43.19983,43.198969999999996
43.205031,2.362608,place_of_worship,christian,PA00102593,,Église Saint-Saturnin,3,1946-12-11 ,,2.3618829999999997,2.363333,43.205461,43.204601
43.298424,2.679943,,,PA00102853,,Ancienne chapelle seigneuriale sur le Plô,3,1942-11-19 ,fr:Chapelle de Pépieux,2.679218,2.6806680000000003,43.298854,43.297993999999996
43.3117,1.9633,,C18,PA00102632,,Jardin Bauzé,3,1948-04-10 ,fr:Jardin Bauzé,1.962575,1.9640250000000001,43.31213,43.31127
42.97576,2.92344,,,PA00102879,,Bornes milliaires et vestiges d'habitat,2,1974-02-26 ,fr:Bornes milliaires de Roquefort-des-Corbières,2.9227149999999997,2.924165,42.97619,42.97533
43.317,1.9575,building,C16,PA00102633,,Maison Rigaud,3,1948-04-10 ,fr:Maison Rigaud,1.956775,1.958225,43.31743,43.31657
43.1814,3.001,building,C16,PA00135719,,Maison dite des Trois Nourrices,2,1913-02-10 ,fr:Maison des Trois Nourrices,3.000275,3.001725,43.18183,43.180969999999995
43.4064,2.485,wayside_cross,C17,PA00102622,,Croix du lavoir,3,1948-04-13 ,fr:Croix du lavoir de Castans,2.484275,2.485725,43.40683,43.405969999999996
43.3119,1.9609,,C17,PA11000004,,Canal du Midi,3,1996-09-19 ,fr:Canal du Midi,1.960175,1.9616250000000002,43.31233,43.31147
43.0918,2.6193,building,C14,PA00102714,,,2,1930-10-01 ,,2.618575,2.620025,43.09223,43.09137
43.3148,1.9611,wayside_cross,C16,PA00102627,,Croix de pierre,2,1913-12-27 ,fr:Croix de Castelnaudary,1.960375,1.9618250000000002,43.31523,43.31437
43.309457,2.2151,wayside_cross,C16,PA00102782,,Croix en fer forgé,3,1948-09-27 ,fr:Croix de Montolieu,2.214375,2.215825,43.309887,43.309027
43.267,2.7053,,C17,PA11000008,,Canal du Midi,3,1997-12-11 ,fr:Canal du Midi,2.7045749999999997,2.706025,43.267430000000004,43.26657
43.2155,2.3518,building,C18,PA00102603,,,3,1948-04-10 ,,2.351075,2.352525,43.21593,43.21507
43.1842,3.004,,C12,PA00102789,,Ancien archevêché et ses abords,,,fr:Chapelle de la Madeleine (Narbonne),3.003275,3.004725,43.18463,43.183769999999996
43.1795,3.0159,,,PA00102793,,Cimetière païen et paléochrétien de Saint-Loup,,,,3.0151749999999997,3.016625,43.17993,43.179069999999996
43.211107,2.35145,fountain,yes,PA00102597,,Fontaine Saint-Michel,3,1948-04-10 ,,2.3507249999999997,2.352175,43.211537,43.210677
43.2966,2.3141,castle,C16,PA00102536,,,3,1948-04-10 ,fr:Château d'Aragon,2.3133749999999997,2.314825,43.29703,43.29617
43.3809,2.3346,wayside_cross,C16,PA00102909,,Croix en fer forgé sur la place,3,1951-06-25 ,fr:Croix de La Tourette-Cabardès,2.333875,2.335325,43.38133,43.380469999999995
43.278,2.6619,building,C14,PA00102549,,Maison Cros,3,1948-04-14 ,fr:Maison Cros,2.661175,2.6626250000000002,43.27843,43.27757
43.1853,3.0029,yes,C13,PA00102792,,Chapelle des Pénitents-Bleus,3,1956-06-18 ,,3.002175,3.003625,43.18573,43.18487
43.2958,2.3152,wayside_cross,C16,PA00102535,,Croix de chemin,2,1932-09-24 ,fr:Croix de chemin d'Aragon,2.314475,2.315925,43.29623,43.29537
43.212714,2.348338,,C18,PA00102582,,Ancien bassin de distribution des eaux,3,1947-05-29 ,,2.347613,2.349063,43.213144,43.212284
43.28791,2.97096,yes,C13,PA00102845,,Ruines de l'ancienne grange cistercienne de Fontcalvy,2,1983-12-09 ,fr:Fontcalvy,2.9702349999999997,2.971685,43.28834,43.287479999999995
43.3179,1.9558,building,C18,PA00102629,,Hôtel de Bataille,3,1948-04-10 ,fr:Hôtel de Bataille,1.955075,1.956525,43.31833,43.31747
43.3121,2.9107,,C17,PA00102537,,Ancien château d'Argeliers,3,1951-02-07 ,fr:Château d'Argeliers,2.9099749999999998,2.911425,43.31253,43.31167
43.3188,1.9542,building,C17,PA00102634,,Maison Sibra et Dunyach,3,1948-04-10 ,fr:Maison Sibra et Dunyach,1.9534749999999999,1.954925,43.319230000000005,43.31837
43.1853,2.2677,wayside_cross,C16,PA00102737,,Croix de cimetière,3,1949-11-22 ,fr:Croix de cimetière de Lavalette,2.266975,2.268425,43.18573,43.18487
43.096743,2.520273,wayside_cross,C16,PA00102904,,Croix de chemin en pierre,2,1911-07-02 ,fr:Croix de chemin de Serviès-en-Val,2.519548,2.520998,43.097173,43.096312999999995
43.1857,2.2661,,C16,PA00102738,,Deux croix discoïdales encastrées dans un cimetière,3,1948-09-27 ,fr:Croix discoïdales de Lavalette,2.2653749999999997,2.266825,43.18613,43.185269999999996
43.2832,2.5842,,,PA00102875,,Ancien silo,3,1963-04-24 ,fr:Silo de Rieux-Minervois,2.583475,2.584925,43.28363,43.28277
42.8574,2.7234,,C20,PA11000045,,Ancienne cave coopérative,3,2013-11-19 ,,2.7226749999999997,2.724125,42.85783,42.85697
43.237762,2.373261,,C17,PA11000001,,Canal du Midi,3,1996-09-19 ,,2.3725359999999998,2.373986,43.238192,43.237331999999995
43.1822,2.3242,,,PA00102935,,Gisement néolithique de La Farguette,3,1990-08-22 ,fr:Gisement néolithique de La Farguette,2.3234749999999997,2.324925,43.18263,43.18177
43.1905,2.334,,,PA00102934,,Habitat néolithique d'Auriac,3,1990-08-22 ,,2.333275,2.334725,43.19093,43.19007
43.189911,3.010315,,,PA00102842,,Vestiges archéologiques d'époque gallo-romaine,,,,3.0095899999999998,3.01104,43.190341000000004,43.189481
43.1803,3.0021,yes,C16,PA00102841,,Vestiges des anciens remparts,3,1946-12-19 ,,3.001375,3.002825,43.180730000000004,43.17987
43.3496,1.9843,,C16,PA00102624,,Ancien château,3,1948-04-27 ,fr:Château de Castelnaudary,1.9835749999999999,1.985025,43.350030000000004,43.34917
43.184121,3.000185,,C14,PA11000046,,Ancienne église des Carmes,3,2014-11-28 ,,2.99946,3.00091,43.184551,43.183690999999996
42.9971,2.2559,building,C16,PA00102522,,Maison Calmet,3,1948-04-14 ,,2.255175,2.256625,42.997530000000005,42.99667
43.3261,2.5292,,C17,PA00102644,,Ancien hôtel de Tapié,3,1948-04-10 ,fr:Hôtel de Tapié,2.528475,2.529925,43.32653,43.325669999999995
43.1843,3.0007,,C17,PA00102839,,Puits,3,1946-12-19 ,,2.999975,3.0014250000000002,43.18473,43.18387
44.4024,2.6624,archaeological_site,megalith,PA00094050,,Dolmen de Cayssac 1,2,1989-07-20 ,fr:Dolmen de Cayssac 1,2.661675,2.663125,44.40283,44.40197
43.9129,3.3166,,C12,PA00094009,,Anciens remparts,2,1895-04-06 ,fr:Remparts de La Couvertoirade,3.315875,3.3173250000000003,43.91333,43.91247
43.9139,3.3172,catholic,C12,PA00094008,,,2,1945-05-26 ,fr:Presbytère de La Couvertoirade,3.316475,3.3179250000000002,43.91433,43.91347
44.18267739,2.78673605,building,C15,PA00094172,,Maison du 15s,3,1928-02-13 ,fr:Grenier-des-Évêques,2.78601105,2.78746105,44.18310739,44.18224739
43.8837,2.6029,building,C16,PA12000026,,Maison Malaval,3,2003-02-24 ,fr:Maison Malaval,2.602175,2.603625,43.88413,43.883269999999996
44.36826421,2.93945519,archaeological_site,megalith,PA00094034,,Dolmen de la Vernhiette,2,1989-07-12 ,fr:Dolmen de la Vernhiette,2.93873019,2.94018019,44.36869421,44.36783421
44.352,2.0375,building,C16,PA00094208,,Maison Armand,,,,2.036775,2.038225,44.35243,44.351569999999995
44.49771624,2.13795588,,,PA00094253,,Marché couvert médiéval,3,1992-09-03 ,fr:Halle (construction),2.1372308799999997,2.13868088,44.498146240000004,44.49728624
44.41,1.8775,archaeological_site,megalith,PA00094057,,Dolmen dit de Maire-Gaillard,2,1978-03-20 ,fr:Dolmen de Marie-Gaillard,1.8767749999999999,1.878225,44.41043,44.409569999999995
43.9688,2.8269,,,PA00094138,,Pressoir en pierre de Savignac de type en écusson,3,1980-08-07 ,fr:Pressoir de Savignac,2.826175,2.8276250000000003,43.96923,43.96837
43.912722,3.317056,building,C16,PA00094007,,Maison adossée au front Nord des remparts,3,1934-03-26 ,,3.316331,3.317781,43.913152000000004,43.912292
44.5226,2.3808,wayside_cross,C15,PA00094145,,"Croix de cimetière à double face, de la fin du 15e siècle",2,1958-10-11 ,fr:Croix de cimetière de Saint-Cyprien-sur-Dourdou,2.3800749999999997,2.381525,44.52303,44.522169999999996
44.3503,2.9316,archaeological_site,megalith,PA00094033,,Dolmen de Lespinasse,2,1989-07-12 ,fr:Dolmen de Lespinasse,2.930875,2.932325,44.35073,44.349869999999996
43.9262,2.5469,wayside_cross,,PA00094100,,Croix de pierre,2,1929-03-08 ,fr:Croix de Plaisance,2.546175,2.547625,43.92663,43.92577
44.2726,2.5235,marketplace,yes,PA00093983,,Halle,2,1937-12-02 ,fr:Halle de Calmont,2.5227749999999998,2.524225,44.27303,44.272169999999996
43.94527625,2.8358883,,C18,PA00094193,,Ancien évêché,3,1983-12-29 ,fr:Palais épiscopal de Vabres-l'Abbaye,2.8351633,2.8366133000000002,43.94570625,43.94484625
44.5028,2.0066,,,PA00094028,,Galerie de la rivière souterraine de la Jonquière : partie dite Grotte de Foissac,2,1978-03-06 ,fr:Grotte de Foissac,2.005875,2.0073250000000002,44.50323,44.50237
44.5531382,2.6719188,bridge,,PA12000038,,Pont dit d'Estaing,,,fr:Pont d'Estaing,2.6711937999999997,2.6726438,44.5535682,44.5527082
43.8979687,2.576576,building,C17,PA12000056,,Maison forte dite le château de Balaguier,3,2015-11-19 ,,2.575851,2.5773010000000003,43.8983987,43.8975387
43.913889,3.317222,tower,defensive,PA00094005,,Donjon et les restes du château,2,1945-05-26 ,fr:Commanderie de La Couvertoirade,3.316497,3.317947,43.914319,43.913458999999996
44.2167,2.97266,,,PA00132664,,Site archéologique du dolmen de la Baldare,3,1994-03-16 ,fr:Dolmen de la Baldare,2.9719349999999998,2.973385,44.217130000000004,44.21627
44.353583,2.0373333,,C15,PA12000029,,Ancienne église Saint-Jacques,3,2003-09-18 ,,2.0366082999999997,2.0380583,44.354013,44.353153
44.4965,2.1398,,C15,PA00094254,,"Ancienne porte de Ville, dite Porte de la Barbacane",3,1993-11-25 ,,2.139075,2.1405250000000002,44.49693,44.496069999999996
44.43679225,2.03170352,,,PA12000003,,Ancien prieuré,3,1996-10-22 ,fr:Prieuré de Villeneuve,2.03097852,2.0324285200000003,44.437222250000005,44.43636225
44.4635,2.6319,,,PA00132663,,Site archéologique du dolmen du Roc de la Françoune,,,fr:Dolmen du Roc de la Françoune,2.631175,2.632625,44.463930000000005,44.46307
44.348139,2.038361,building,C16,PA00094225,,,3,1935-11-18 ,,2.037636,2.039086,44.348569000000005,44.347709
44.3503,2.5743,building,C17,PA00094120,,,3,1947-06-23 ,,2.573575,2.575025,44.35073,44.349869999999996
44.287762,2.872863,,C15,PA00094182,,Deux croix de pierre,2,1979-07-11 ,fr:Croix de Ségur,2.872138,2.8735880000000003,44.288192,44.287332
44.00890695,3.15771622,citywalls,C15,PA12000014,,Fortifications,3,1998-09-28 ,fr:Fortifications de La Cavalerie,3.15699122,3.1584412200000003,44.00933695,44.008476949999995
44.43766,2.033163,building,C15,PA00094229,,Maison voisine de la porte de ville carrée,3,1928-02-17 ,,2.032438,2.033888,44.43809,44.43723
43.8417,2.673,marketplace,yes,PA12000033,,Halle,2,2004-10-11 ,fr:Halle de Combret,2.672275,2.673725,43.842130000000004,43.84127
44.344139,2.032917,,C15,PA00094202,,Ancienne chartreuse Saint-Sauveur,2,1840 ,fr:Chartreuse Saint-Sauveur,2.0321919999999998,2.033642,44.344569,44.343709
44.4086,1.905,archaeological_site,megalith,PA00094056,,Dolmen du Bois de Galtier,2,1889 ,fr:Dolmen du Bois de Galtier,1.904275,1.9057250000000001,44.40903,44.40817
44.4172,1.9121,archaeological_site,megalith,PA00094055,,Dolmen,2,1978-03-20 ,fr:Dolmens du Devès,1.9113749999999998,1.912825,44.41763,44.41677
44.2592,2.4868,,C16,PA12000034,,Halle-oratoire du hameau de Naves,3,2004-10-11 ,fr:Halle-oratoire de Naves,2.486075,2.487525,44.25963,44.25877
44.10245363,2.90562512,building,C13,PA00094070,,Maison Bermont,3,1930-03-18 ,fr:Maison Bermont,2.9049001199999998,2.90635012,44.10288363,44.10202363
43.9989,2.621,,,PA00093978,,Oratoire,3,1937-05-13 ,fr:Oratoire de Brousse-le-Château,2.620275,2.621725,43.99933,43.99847
44.5575,2.256,,C20,PA12000050,,"Société de secours minière de Decazeville, actuellement centre de santé FILIERIS",3,2013-11-08 ,,2.2552749999999997,2.256725,44.55793,44.557069999999996
44.12965756,2.93149976,,C15,PA12000005,,Réseau hydraulique médiéval,3,1997-02-28 ,fr:Réseau hydraulique médiéval de Castelnau-Pégayrols,2.93077476,2.93222476,44.13008756,44.12922756
44.352083,2.036972,building,C16,PA00094222,,,2,1928-08-21 ,,2.036247,2.037697,44.352513,44.351653
44.449044,2.488162,building,C18,PA00094180,,Maison de la fin du 18e siècle,3,1947-07-28 ,,2.487437,2.488887,44.449474,44.448614
44.073197,2.88374,building,C13,PA00094199,,"Maison du 13e siècle, à l'entrée du village du Minier",3,1932-10-04 ,,2.883015,2.884465,44.073627,44.072767
44.352167,2.037139,building,C15,PA00094223,,Maison du 15e siècle,,,,2.0364139999999997,2.037864,44.352597,44.351737
44.4156,2.828,,,PA00132662,,Site archéologique du dolmen de Luc I,3,1994-04-27 ,fr:Dolmen de Luc 1,2.8272749999999998,2.828725,44.41603,44.415169999999996
43.88238446,2.6022433,,,PA00094166,,Ancien hôtel de ville,2,1897-03-06 ,fr:Hôtel de ville de Saint-Sernin-sur-Rance,2.6015183,2.6029683,43.88281446,43.881954459999996
44.33705066,2.6273758,building,C16,PA00094163,,Maison Renaissance,3,1978-07-17 ,,2.6266507999999997,2.6281008,44.337480660000004,44.33662066
43.485872741394,5.2227652072906,yes,C17,PA00081226,,Chapelle Notre-Dame de Caderot,3,1974-12-16 ,,5.2220402072906,5.2234902072906,43.486302741394,43.485442741393996
43.700052,4.674697,,,PA00081266,,Grotte-Dolmen des Fées de Cordes,2,1894-11-20 ,fr:Hypogées de Fontvieille,4.673972,4.675422,43.700482,43.699622
43.5921631,5.1260719,,,PA00081315,,"Portail en pierre, sculpté",3,1933-05-01 ,,5.1253469,5.1267969,43.5925931,43.5917331
43.744188821757,4.7949796915054,citywalls,,PA00081225,,,2,1904-06-09 ,,4.7942546915054,4.7957046915054,43.744618821757,43.743758821757
43.67666,4.62806,,,PA00081130,,Construction romaine située entre l'Hôtel des Postes et l'ancien Archevêché,2,1922-11-07 ,,4.6273349999999995,4.628785,43.67709,43.67623
43.678656,4.631408,building,,PA00081169,,,3,1927-09-03 ,,4.630683,4.6321330000000005,43.679086,43.678225999999995
43.4469,5.6848,building,C12,PA00081488,,Maison du 12s (ancienne synagogue),3,1926-12-28 ,fr:Trets,5.684075,5.685525,43.44733,43.44647
43.4168392,5.2161681,,C17,PA00081322,,"Ancien château des Covet de Marignane, actuel hôtel de ville",2,1996-07-05 ,fr:Château de Marignane,5.2154431,5.2168931,43.4172692,43.4164092
43.6197,5.6779,,,PA00081292,,Oratoire Saint-Bacque,3,1935-10-07 ,,5.677175,5.678625,43.62013,43.61927
43.790993557606,5.0366306304932,city_gate,,PA00081395,,Porte de ville Sainte-Anne,3,1926-12-28 ,,5.0359056304931995,5.0373556304932,43.791423557606,43.790563557606
43.4072949,5.0467851,,C20,PA13000035,,Ecole maternelle de Ferrières,3,2001-03-19 ,,5.0460601,5.0475101,43.4077249,43.406864899999995
43.534397,5.455657,,C1,PA00080972,,Aqueduc gallo-romain,,,,5.454932,5.4563820000000005,43.534827,43.533967
43.5315,5.4479,,C18,PA00080973,,"Ancien archevêché, puis Musée des tapisseries et théâtre",,,fr:Palais archiépiscopal d'Aix-en-Provence,5.447175,5.448625,43.53193,43.53107
43.6944,5.0297,fountain,yes,PA00081253,,Fontaine publique,2,1923-06-16 ,,5.028975,5.030425,43.69483,43.69397
43.676986,4.62919,building,C18,PA00081144,,Hôtel de Courtois,3,1932-10-04 ,fr:Hôtel Courtois de Langlade,4.628465,4.6299150000000004,43.677416,43.676556
43.516667,5.312778,,C19,PA13000037,,Aqueduc de Roquefavour (également sur commune d'Aix-en-Provence),2,2005-05-02 ,fr:Aqueduc de Roquefavour,5.312053,5.313503,43.517097,43.516237
43.6768,4.62758,building,C17,PA00081155,,Hôtel de ville,,,fr:Hôtel de ville d'Arles,4.626855,4.628305,43.67723,43.67637
43.67893,4.62777,,C12,PA00081129,,Commanderie de Sainte-Luce de l'Ordre de Malte (ancienne),2,1977-10-17 ,,4.627045,4.628495,43.67936,43.6785
43.7909,5.0405,building,C16,PA00081392,,Maison du 16s,3,1926-12-28 ,,5.039775,5.041225,43.79133,43.79047
43.5268873,5.4440959,,C20,PA00135616,,Casino municipal,,,,5.4433709,5.4448209,43.5273173,43.5264573
43.671738,4.641206,,C16,PA13000049,,Léproserie Saint-Lazare,3,2005-09-20 ,,4.640481,4.6419310000000005,43.672168,43.671307999999996
43.5124,5.4725,,C18,PA00081097,,Oratoire Notre-Dame,3,1935-07-22 ,,5.471775,5.473225,43.51283,43.51197
43.6768,4.62758,,C 4,PA00081140,,Forum,,,fr:Forum d'Arles,4.626855,4.628305,43.67723,43.67637
43.80529,4.65666,building,C17,PA00081479,,Maison du 17s,3,1942-11-06 ,,4.6559349999999995,4.657385,43.80572,43.80486
43.5980565,4.9112361,tower,yes,PA13000020,,Tour et chapelle d'Entressen,3,1998-03-04 ,,4.9105111,4.9119611,43.5984865,43.5976265
43.7228,4.8107,,,PA00081382,,Oratoire Saint-Marc,3,1938-10-12 ,,4.809975,4.811425,43.72323,43.72237
43.67909,4.62944,building,C16,PA00081177,,Maison du 16s.,3,1927-07-05 ,,4.628715,4.630165,43.679520000000004,43.67866
43.74385940858,4.7952412068844,building,,PA00081214,,Hôtel de ville,2,1914-04-18 ,,4.7945162068844,4.7959662068844,43.74428940858,43.74342940858
43.742754892346,4.7948509454727,building,,PA00081223,,"Maison de la Tour de Braü, dite aussi Le Trencat",2,1904-06-09 ,fr:Maison de la Tour de Braü,4.7941259454727,4.7955759454727005,43.743184892346,43.742324892346
43.6503,4.5955,building,C16,PA00081164,,Maison dite La Rougnoux,3,1932-10-04 ,,4.594775,4.5962250000000004,43.65073,43.64987
43.67842,4.62757,building,C16,PA00081178,,Hôtel Laugier de Montblanc ou maison Genin,3,1927-07-06 ,,4.626845,4.6282950000000005,43.678850000000004,43.67799
43.569633373501,4.5043194293976,wayside_cross,,PA00081455,,Croix de Méjanes,2,1941-05-26 ,fr:Croix de Méjanes,4.5035944293976,4.5050444293976,43.570063373501,43.569203373501
43.6186,5.1236,,,PA00081460,,Edifice romain appelé Les Antiquités (ruines),3,1938-08-26 ,,5.122875,5.124325,43.61903,43.61817
43.526582,5.447008,monastery,convent,PA00080993,,Couvent des Augustins (ancien),,,,5.446283,5.447733,43.527012,43.526151999999996
43.6339,5.6877,,,PA00135621,,Dolmens des Cudières,3,1996-03-25 ,fr:Dolmens des Cudières,5.686975,5.6884250000000005,43.63433,43.633469999999996
43.6793,4.62899,building,,PA00081146,,Hôtel de Grille,3,1946-05-31 ,,4.628265,4.629715,43.67973,43.678869999999996
43.8063,4.6557,monastery,abbey,PA00081467,,Abbaye Saint-Honorat (vestiges de l'ancienne),3,1961-04-19 ,,4.654975,4.6564250000000005,43.80673,43.80587
43.709287,4.67619,,,PA00081265,,Grotte-Dolmen du Castelet ou du Forgerin,2,1900 ,fr:Hypogées de Fontvieille,4.675465,4.676915,43.709717000000005,43.708857
43.677416,4.627093,,C,PA00081127,,Colonnes dites de Saint-Lucien,2,1840 ,,4.626368,4.627818,43.677846,43.676986
43.569342,4.678891,,C17,PA00081131,,Domaine de l'Armeillère ou l'Armeillière,,,,4.678166,4.679616,43.569772,43.568912
43.68897,4.6135,bridge,C19,PA00081183,,"Pont suspendu dit ancien pont de Fourques (également sur commune de Fourques, dans le Gard)",3,1988-07-06 ,fr:Pont de Fourques,4.612775,4.614225,43.6894,43.688539999999996
43.529693,5.450373,building,C18,PA00081089,,,3,1929-03-25 ,,5.449648,5.451098,43.530123,43.529263
43.743681137163,4.7944338619709,building,,PA00081213,,Hôtel des Porcelets,2,1904-06-09 ,fr:Hôtel des Porcelets,4.7937088619709,4.7951588619709,43.744111137163,43.743251137163
43.6725,4.61639,milestone,,PA00081205,,Borne milliaire,2,1927-04-20 ,fr:Borne milliaire du château d'Estoublon,4.615665,4.617115,43.67293,43.67207
43.737368,5.174389,,C19,PA00081320,,"Ancien pont suspendu franchissant la Durance et maison de gardien (également sur commune de Mérindol, dans le Vaucluse)",,,fr:Pont suspendu sur la Durance,5.173664,5.175114,43.737798,43.736937999999995
43.74297967274,4.7955697774887,,,PA00081211,,Hôpital (restes de l'ancien),2,1904-06-09 ,fr:Hôpital des Baux-de-Provence,4.7948447774886995,4.7962947774887,43.74340967274,43.74254967274
43.6639,5.3452,,,PA00081412,,Autel mérovingien,3,1937-02-05 ,,5.344475,5.345925,43.66433,43.66347
43.5604,5.0726,tomb,,PA00081240,,Tombeau romain,3,1926-11-02 ,,5.071875,5.0733250000000005,43.56083,43.55997
43.7093,4.6844,,,PA00081264,,Grotte-Dolmen de Bonnias,2,1889 ,fr:Hypogées de Fontvieille,4.683675,4.685125,43.70973,43.70887
43.7053,5.172,,C1,PA00081116,,Fragments antiques de la porte de la ville et de la chapelle du cimetière,2,1915-10-07 ,,5.171275,5.172725,43.70573,43.70487
43.6937,5.2725,,,PA00081301,,Grottes de Sainte-Anne-de-Goiron (également sur commune de La-Roque-d'Anthéron),3,1937-05-14 ,,5.271775,5.273225,43.69413,43.69327
43.591447,5.1267859,building,C16,PA00081312,,Maison des Templiers (ou Hôtel de Foresta),2,1962-02-09 ,,5.1260609,5.1275109,43.591877000000004,43.591017
43.763363,4.947976,,C17,PA00081248,,Moulin à huile,3,1942-07-04 ,,4.947251,4.948701,43.763793,43.762933
43.5923,5.1278,,,PA00081314,,Le portail dit de Bouissière,3,1933-06-06 ,,5.127075,5.128525,43.59273,43.59187
43.837,4.9445,place_of_worship,christian,PA00081423,,,2,1908-05-18 ,,4.943775,4.945225,43.837430000000005,43.83657
43.65689,4.62092,bridge,C19,PA00081184,,Pont Van-Gogh et maison pontière,,,fr:Pont Van-Gogh (Arles),4.620195,4.621645,43.65732,43.656459999999996
43.552222,5.439167,,,PA00081095,,Vestiges de l'oppidum celto-ligure d'Entremont,,,fr:Oppidum d'Entremont,5.438442,5.439892,43.552652,43.551792
43.7066,4.6777,archaeological_site,megalith,PA00081263,,Dolmen de Saint-Contignarde (restes),2,1894-11-20 ,fr:Dolmen de Coutignargues,4.676975,4.678425,43.70703,43.70617
43.67717,4.62983,,C15,PA00135618,,Ecole Saint-Charles,,,,4.629105,4.630555,43.6776,43.676739999999995
43.6608216,4.9614299,milestone,,PA00081433,,Borne milliaire,,,fr:Borne milliaire de la Calanque,4.9607049,4.9621549,43.6612516,43.6603916
43.526956,5.444336,building,C17,PA00081020,,Hôtel de Boades,3,1947-04-23 ,fr:Hôtel de Boadès,5.443611,5.445061,43.527386,43.526526
43.681888,4.620833,,C18,PA00081194,,Verrerie de Trinquetaille (ancienne),,,fr:Verrerie de Trinquetaille,4.620108,4.621558,43.682318,43.681458
43.4203859,4.6938122,,C17,PA00081193,,La Tourvieille (ou château de la Tourvieille ou Tour du Tanpan),3,1933-06-23 ,,4.6930872,4.6945372,43.4208159,43.4199559
43.8619,4.6941,building,C13,PA00081234,,,3,1937-09-17 ,,4.693375,4.694825,43.86233,43.86147
43.689435,5.668151,,C19,PA00081293,,Ancien pont suspendu de Mirabeau (également sur commune de Mirabeau (Vaucluse) ),3,1988-07-06 ,fr:Pont de Mirabeau,5.667426,5.668876,43.689865000000005,43.689005
43.61085,4.631424,tower,yes,PA00081191,,Tour d'Amphoux,3,1932-11-14 ,fr:Tour d'Amphoux,4.630699,4.632149,43.61128,43.61042
43.67816,4.62644,building,C17,PA00081172,,Maison du 17s.,3,1927-07-05 ,,4.625715,4.627165,43.67859,43.67773
43.67992,4.63121,building,C16,PA00081163,,,3,1987-03-10 ,,4.630485,4.631935,43.680350000000004,43.67949
43.5316,5.4471,,,PA00081093,,Mur romain,3,1932-10-21 ,,5.446375,5.447825,43.53203,43.531169999999996
43.39,5.2774,archaeological_site,fortification,PA13000034,,Oppidum de la Cloche,2,2004-04-28 ,fr:Oppidum de la Cloche,5.276675,5.278125,43.39043,43.38957
43.70278,4.72139,,,PA00081120,,Aqueduc de Barbegal (restes),2,1886-07-12 ,fr:Aqueduc et moulins de Barbegal,4.720665,4.7221150000000005,43.70321,43.702349999999996
43.679263,4.614887,place_of_worship,christian,PA00081137,,Église Saint-Genest (ancienne),3,1934-06-14 ,,4.614162,4.6156120000000005,43.679693,43.678833
43.5491,5.1979,,,PA00081515,,Pavillon,3,1992-05-21 ,,5.197175,5.198625,43.549530000000004,43.54867
43.67749,4.628538,building,,PA00081152,,Hôtel de Nicolay (ancien),3,1928-06-20 ,,4.627813,4.629263,43.67792,43.67706
43.575062716667,5.4220354333333,,C18,PA00081098,,Oratoire Notre-Dame,3,1935-07-22 ,,5.4213104333333,5.4227604333333,43.575492716667,43.574632716667
43.6765,4.62191,building,,PA00081173,,,3,1927-07-05 ,fr:Martin de Tours,4.621185,4.622635,43.67693,43.676069999999996
43.6937,5.2725,,,PA00081418,,Grottes de Sainte-Anne-de-Goiron (également sur commune de Lambesc),3,1937-05-14 ,,5.271775,5.273225,43.69413,43.69327
43.67614,4.63161,,C11,PA00081118,,Ancienne abbaye Saint-Césaire,,,fr:Abbaye Saint-Césaire (Arles),4.630885,4.632335,43.67657,43.675709999999995
43.293809,5.567574,,C20,PA13000059,,"Monument aux morts de la guerre de 1914-1918, dit aussi Monument de la Victoire",3,2010-02-22 ,,5.5668489999999995,5.568299,43.294239000000005,43.293379
43.7437361,4.7953194,building,C16,PA00081212,,Hôtel de Manville,,,fr:Fenêtre Post Tenebras Lux,4.7945944,4.7960444,43.7441661,43.7433061
43.6778,4.62771,building,,PA00081159,,,3,1926-10-28 ,,4.626985,4.6284350000000005,43.67823,43.677369999999996
43.67836,4.63002,building,,PA00081165,,,3,1927-07-05 ,,4.629295,4.630745,43.67879,43.677929999999996
43.677607,4.629387,building,C16,PA13000080,,Hôtel de Donine,3,2016-01-29 ,,4.628662,4.6301120000000004,43.678037,43.677177
43.72672,4.743714,,,PA00081257,,Autel gallo-romain de la Coquille,2,1948-01-13 ,,4.742989,4.744439,43.72715,43.72629
43.70403,4.72133,,C,PA00081256,,Aqueduc de Barbegal,3,1937-02-05 ,fr:Aqueduc et moulins de Barbegal,4.720605,4.722055,43.704460000000005,43.7036
43.513212,5.444803,building,,PA00081067,,Immeuble dit Enclos des Décormis,3,1942-07-11 ,,5.444078,5.445528,43.513642000000004,43.512782
43.55763,5.359501,archaeological_site,fortification,PA00081242,,Oppidum celto-ligure,3,1970-08-27 ,fr:Oppidum de Pierredon à Éguilles,5.358776,5.360226,43.558060000000005,43.5572
43.67644,4.62786,,,PA00081122,,Archevêché (ancien),,,,4.627135,4.628585,43.67687,43.67601
43.679523,4.630364,building,C16,PA00081176,,Maison du 16s.,3,1927-07-05 ,,4.629639,4.631089,43.679953000000005,43.679093
43.723358941523,4.7122229219531,,,PA00081258,,Autel de la Patrie,3,1937-02-05 ,fr:Autel de la patrie de Fontvieille,4.7114979219531,4.7129479219531,43.723788941523004,43.722928941523
43.67606,4.62309,building,,PA00081156,,Hôtel de Vinsargues,3,1932-10-04 ,fr:Hôtel Damian de Vinsargues,4.622365,4.6238150000000005,43.67649,43.67563
43.4968499,4.9984872,,C18,PA13000055,,Monument au bailli de Suffren dit aussi le bateau de Suffren,3,2009-07-23 ,,4.9977621999999995,4.9992122,43.4972799,43.4964199
43.723281,4.712274,,C19,PA00081268,,Moulins dits moulins de Rome et d'Alphonse Daudet,2,1931-03-06 ,,4.711549,4.712999,43.723711,43.722851
43.7450743529,4.7954799234867,building,,PA00081219,,Immeuble dit Restes de la Maison du Roi,2,1905-11-25 ,,4.7947549234867,4.7962049234867,43.7455043529,43.744644352899996
43.744188821757,4.7949796915054,building,C12,PA00081222,,Maison dite Les Remparts,3,1976-10-12 ,,4.7942546915054,4.7957046915054,43.744618821757,43.743758821757
43.68116,4.62367,,,PA00081188,,"Terrain de 362, 40 m2 contenant des vestiges archéologiques",3,1953-10-21 ,,4.622945,4.624395,43.68159,43.68073
43.6081,5.1743,milestone,,PA00081399,,Borne milliaire,3,1941-10-14 ,fr:Borne milliaire de Bidoussanne,5.173575,5.175025,43.60853,43.60767
43.5686,5.3538,castle,C17,PA00081241,,,3,1984-08-29 ,,5.353075,5.354525,43.569030000000005,43.56817
43.6766,4.62698,building,,PA00081174,,,3,1927-07-05 ,,4.626255,4.627705,43.67703,43.67617
43.676168,4.625194,,,PA00081142,,Hospices,3,1927-07-05 ,,4.6244689999999995,4.625919,43.676598,43.675737999999996
43.6374,5.0939,,C20,PA13000062,,"Monument aux morts de la guerre de 1914-1918, dit aussi Monument du Sublime Réveil ou monument d'Eugène Piron",2,2011-09-13 ,,5.093175,5.094625,43.63783,43.63697
43.6378,5.6382,,,PA00081294,,"Porte, attenant à la Tour de l'Horloge",3,1928-02-17 ,,5.637475,5.638925,43.63823,43.63737
43.7155,4.8501,,C20,PA13000072,,"Les Eyrascles, maison de l'architecte André Bruyère, située quartier les Chanousses",3,2014-10-29 ,,4.849375,4.850825,43.71593,43.71507
43.67984,4.63021,building,,PA00081171,,,3,1927-07-05 ,,4.629485,4.630935,43.68027,43.67941
43.675887,4.632347,,,PA13000047,,Groupe cathédral paléochrétien et couvent Saint-Césaire,2,2004-11-29 ,,4.631622,4.633072,43.676317000000004,43.675457
43.74421594982,4.7953028976917,building,C15,PA00081216,,Immeuble dit Maison Jean de Brion,2,1908-06-20 ,fr:Maison Jean de Brion,4.7945778976917,4.7960278976917,43.744645949820004,43.74378594982
43.677741,4.628364,building,C16,PA00081166,,Maison du 16s,3,1927-07-05 ,,4.627639,4.6290890000000005,43.678171,43.677310999999996
43.597628,5.209083,milestone,,PA00081309,,Borne milliaire romaine,2,1942-04-02 ,fr:Borne milliaire de Caseneuve,5.208358,5.209808,43.598058,43.597198
43.5427,4.9971,,,PA00081286,,abri préhistorique Cornille,2,1949-06-11 ,,4.996375,4.997825,43.543130000000005,43.54227
43.3962,5.2925,archaeological_site,fortification,PA00081404,,Oppidum de Teste-Nègre,2,1951-06-29 ,fr:Oppidum de Teste-Nègre,5.291775,5.2932250000000005,43.39663,43.39577
43.658383,4.633892,,C20,PA13000003,,"Hôpital Joseph Imbert, quartier de Fourchon",3,1996-10-03 ,,4.633167,4.634617,43.658813,43.657953
43.744188821757,4.794809371233,building,C16,PA00081221,,Maison dite Porte d'Eyguières,3,1979-04-23 ,fr:Porte d'Eyguières,4.794084371233,4.795534371233,43.744618821757,43.743758821757
43.6947859,5.0305211,building,C18,PA00081254,,Maison du 18s,3,1930-03-18 ,,5.0297960999999995,5.0312461,43.6952159,43.6943559
43.762261138071,4.9442982673645,wayside_cross,C15,PA00081244,,Croix de cimetière,2,1942-03-26 ,,4.9435732673645,4.9450232673645,43.762691138071,43.761831138070995
43.72416961,4.736706018,,,PA00081259,,"Bas-relief, dans la propriété de M. Degioanni",2,1931-06-08 ,,4.7359810179999995,4.737431018,43.72459961,43.723739609999996
43.677726,4.628159,building,C16,PA00081167,,Maison du 16s,3,1927-07-05 ,,4.627434,4.628884,43.678156,43.677296
43.6737,5.2725,,C18,PA00081304,,Oratoire Sainte-Anne,3,1935-07-22 ,,5.271775,5.273225,43.67413,43.673269999999995
43.6482,5.5837,castle,C15,PA00081409,,Château (ancien),,,,5.582975,5.584425,43.648630000000004,43.64777
43.3723,5.0269,castle,,PA00081377,,Château de Ponteau,3,1937-02-05 ,fr:Château de Ponteau,5.026175,5.0276250000000005,43.372730000000004,43.37187
43.6587,5.3903,archaeological_site,roman_villa,PA00081415,,Villa gallo-romaine,3,1937-02-05 ,,5.389575,5.391025,43.659130000000005,43.65827
43.7042,4.9486,,,PA00081198,,Oratoire Saint-Véran,3,1935-07-22 ,,4.947875,4.949325,43.70463,43.70377
43.743227705298,4.7955483198166,,,PA00081204,,Baumes de Roucas,2,1908-06-23 ,,4.7948233198166,4.7962733198166,43.743657705298,43.742797705297995
49.020972,0.407778,,C15,PA00111581,,Hospice,3,1927-01-19 ,fr:Hospice d'Orbec,0.407053,0.40850299999999995,49.021402,49.020542
49.28528,0.18274,,C17,PA00111603,,Ancien couvent des Dominicains de l'Isle,3,1927-02-09 ,fr:Couvent des Dominicaines de l'Isle,0.182015,0.18346500000000002,49.28571,49.28485
49.02,-0.03278,,C11,PA00111713,,Ancienne abbaye,,,fr:Abbaye de Saint-Pierre-sur-Dives,-0.03350499999999999,-0.032055,49.020430000000005,49.01957
48.892065,-0.190039,,C17,PA00111308,,Ancienne auberge de La Romaine,3,1946-09-20 ,fr:Auberge de la Romaine,-0.19076400000000002,-0.189314,48.892495000000004,48.891635
49.109637,-0.423245,yes,C13,PA00132686,,Chapelle Saint-Jean-Baptiste-du-Clos,3,1994-08-24 ,fr:Chapelle Saint-Jean-Baptiste-du-Clos,-0.42396999999999996,-0.42252,49.110067,49.109207
48.894861,-0.200139,,C13,PA00111317,,Ancien Hôtel-Dieu,3,1927-05-31 ,fr:Hôtel-Dieu de Falaise,-0.20086400000000001,-0.199414,48.895291,48.894431
49.1523,0.2118,,,PA00111665,,Théâtre amphithéâtre ou amphithéâtre,2,1984-12-21 ,,0.21107499999999998,0.212525,49.15273,49.151869999999995
49.2856,0.18217,,C19,PA14000006,,Ancienne prison,3,1997-12-05 ,fr:Prison de Pont-l'Évêque,0.181445,0.182895,49.286030000000004,49.28517
49.419491,0.233808,castle,manor,PA00111439,,Manoir Vigneron,2,1932-09-28 ,fr:Manoir Vigneron,0.23308299999999998,0.234533,49.419921,49.419061
48.99667,-0.32056,archaeological_site,megalith,PA00111677,,Menhir dit la Roche Piquée,2,1951-11-24 ,fr:Menhir de la Roche Piquée (Saint-Germain-le-Vasson),-0.321285,-0.31983500000000004,48.9971,48.99624
49.018637,-0.036041,castle,manor,PA00111718,,Manoir dit Cour d'Elu,3,1927-01-19 ,fr:Cour l'Élu,-0.03676599999999999,-0.035316,49.019067,49.018207
49.4204,0.2285,,C17,PA00111442,,Puits situé à l'angle de la rue du Puits et de la rue Bucaille (anciennement rue de l'Homme-de-Bois),3,1930-10-11 ,"fr:Puits de l'angle de la rue du Puits et de la rue Bucaille, à Honfleur",0.227775,0.229225,49.42083,49.41997
48.7912,-0.8741,archaeological_site,megalith,PA00111674,,Dolmen de la Loge aux Sarrazins,2,1934-06-26 ,fr:Dolmen de la Loge aux Sarrazins,-0.874825,-0.873375,48.791630000000005,48.79077
49.14524,0.22216,fountain,yes,PA00111474,,Fontaine publique,2,1919-11-18 ,fr:Fontaine de La Ferronnays,0.221435,0.222885,49.14567,49.14481
49.24361,-0.31278,archaeological_site,megalith,PA00111094,,Mégalithe dit Les Pierres branlantes,2,1958-05-24 ,fr:Pierres branlantes,-0.313505,-0.312055,49.24404,49.243179999999995
48.949639,-0.551306,archaeological_site,megalith,PA00111273,,Menhir dit La Belle Roche,2,1954-05-19 ,fr:Belle Roche,-0.5520309999999999,-0.550581,48.950069,48.949208999999996
49.0325,-0.32472,archaeological_site,megalith,PA00111371,,"Menhir dit La Pierre Tourneresse, situé dans le parc du château d'Outrelaize",2,1936-09-24 ,fr:Pierre Tourneresse,-0.325445,-0.32399500000000003,49.03293,49.03207
49.342361,0.101944,,C16,PA00111755,,Ancien hôtel de l'Amirauté,3,1969-12-01 ,fr:Manoir du Grenier à sel,0.101219,0.10266900000000001,49.342791,49.341930999999995
49.28489,0.18337,,C17,PA00111606,,Ancien hôtel de Brilly,3,1926-07-17 ,fr:Hôtel de ville de Pont-l'Évêque,0.182645,0.184095,49.28532,49.284459999999996
48.940903,-0.957778,wayside_cross,C17,PA00111519,,Croix de chemin,3,1970-11-23 ,fr:Croix de chemin de Malloué,-0.958503,-0.957053,48.941333,48.940473
48.897763,-0.201117,yes,C13,PA00111315,,Vestiges de l'enceinte fortifiée,,,fr:Remparts de Falaise,-0.201842,-0.200392,48.898193,48.897332999999996
49.15839,-0.384015,city_gate,C17,PA00111512,,Porte du 17e siècle,3,1928-02-17 ,fr:Porte de Louvigny,-0.38473999999999997,-0.38329,49.15882,49.157959999999996
49.213524,-0.341889,yes,C13,PA14000045,,Chapelle Saint-Vincent,3,2004-10-29 ,fr:Chapelle Saint-Vincent d'Hérouville-Saint-Clair,-0.342614,-0.341164,49.213954,49.213094
48.969339,-0.223716,stone,grooves,PA00111107,,Polissoir,3,1976-08-24 ,fr:Polissoirs de Poussendre,-0.224441,-0.222991,48.969769,48.968909
49.28521,0.18253,,C19,PA14000007,,Tribunal,3,1997-12-05 ,fr:Tribunal de Pont-l'Évêque,0.181805,0.183255,49.28564,49.28478
49.125164,0.319293,,C16,PA00111251,,Chambre de Charité,3,1971-10-29 ,fr:Chambre de Charité de Courtonne-la-Meurdrac,0.318568,0.32001799999999997,49.125594,49.124734
49.419583,0.233611,,,PA00111441,,Puits situé dans la cour du Musée du Vieux Honfleur,2,1932-09-28 ,fr:Puits du musée du Vieux Honfleur,0.232886,0.23433600000000002,49.420013000000004,49.419153
49.2532,0.1732,,C14,PA00111681,,Ancien prieuré de Saint-Hymer,,,fr:Prieuré de Saint-Hymer,0.172475,0.173925,49.25363,49.25277
49.021667,0.406389,,C16,PA00111584,,Ancien manoir Venelle-Dossin,,,fr:Manoir Venelle-Dossin,0.405664,0.407114,49.022097,49.021237
49.279583,-0.688611,,C13,PA00111725,,Ancien prieuré,2,1908-05-18 ,fr:Abbaye Saint-Vigor-le-Grand,-0.689336,-0.687886,49.280013000000004,49.279153
48.8003,-0.8502,,,PA00111517,,Pupitre en pierre,3,1928-09-19 ,,-0.8509249999999999,-0.849475,48.80073,48.79987
49.30167,-0.45528,archaeological_site,megalith,PA00111635,,Menhir dit Pierre debout,2,1934-02-21 ,fr:Pierre debout (Reviers),-0.456005,-0.45455500000000004,49.3021,49.30124
49.1362,0.1318,,C17,PA00111624,,Hostellerie Henri IV,,,fr:Hostellerie Henri IV,0.131075,0.132525,49.136630000000004,49.13577
49.278291,-0.566332,,C11,PA00111668,,"Restes du prieuré de Saint-Gabriel, puis Centre d'apprentissage horticole",2,1840 ,fr:Prieuré de Saint-Gabriel (Saint-Gabriel-Brécy),-0.5670569999999999,-0.565607,49.278721000000004,49.277861
49.018719,-0.036047,building,C16,PA00111717,,Maison de bois contiguë au manoir dit cour d'Elu,3,1927-01-19 ,fr:Cour l'Élu,-0.036772,-0.035322000000000006,49.019149,49.018288999999996
48.829583,-1.036667,,,PA00111722,,Motte castrale,2,1983-03-11 ,fr:Motte castrale de Saint-Sever-Calvados,-1.037392,-1.035942,48.830013,48.829153
49.419583,0.233472,citywalls,,PA00111443,,Rempart de ville,2,1932-09-28 ,fr:Rempart d'Honfleur,0.232747,0.23419700000000002,49.420013000000004,49.419153
49.285162,0.182052,,C17,PA00111617,,Siège de la Vicomté d'Auge,3,1971-10-29 ,fr:Siège de la vicomté d'Auge,0.181327,0.182777,49.285592,49.284732
48.928361,-0.432917,archaeological_site,megalith,PA00111705,,Mégalithe,3,1954-05-19 ,fr:Mégalithe du Pré-du-Vivret,-0.43364199999999997,-0.432192,48.928791000000004,48.927931
49.2112,-0.5391,wayside_cross,C17,PA00111631,,Croix,3,1932-10-04 ,fr:Croix du cimetière de Putot-en-Bessin,-0.539825,-0.538375,49.21163,49.21077
