latitude,longitude,historic,start_date,ref:mhs,wikidata,name,heritage,mhs:inscription_date,wikipedia,left,right,top,bottom
46.202201,5.222152,,C19,PA00116343,Q3323363,Monument du général Joubert,3,1932-10-04 ,fr:Monument du général Joubert,5.221427,5.222877,46.202631000000004,46.201771
45.7489,5.7255,,,PA00116446,Q3387855,Pierre à bassins,2,1913-05-03 ,fr:Pierre à bassins de Bagneux,5.724775,5.726225,45.74933,45.74847
45.90324798,5.17828389,citywalls,,PA00116525,,Rempart attenant à un immeuble,2,1921-11-24 ,fr:Maison Berges,5.17755889,5.17900889,45.903677980000005,45.90281798
45.90372322,5.18000876,citywalls,C15,PA00116527,,Rempart attenant à un immeuble,2,1921-11-24 ,fr:Remparts de Pérouges,5.17928376,5.18073376,45.904153220000005,45.90329322
45.90337039,5.18051167,building,C15,PA00116514,,Maisons et remparts qui en dépendent,2,1921-11-24 ,fr:Grenier à sel (Pérouges),5.1797866699999995,5.18123667,45.90380039,45.90294039
45.90345231,5.18044023,building,C15,PA00116515,,Maisons et remparts qui en dépendent,2,1921-11-24 ,,5.17971523,5.18116523,45.90388231,45.90302231
45.90301304,5.17989517,building,C15,PA00116511,Q22966727,,2,1941-08-07 ,,5.17917017,5.18062017,45.90344304,45.902583039999996
45.90274191,5.17916641,citywalls,,PA00116524,Q3424623,Rempart attenant à un immeuble,2,1921-11-24 ,fr:Remparts de Pérouges,5.17844141,5.17989141,45.903171910000005,45.90231191
46.360316,6.000202,,,PA00116425,Q3512788,Zone autour de la table d'orientation de Montrond,2,1936-08-10 ,fr:Table d'orientation de Montrond,5.999477,6.000927,46.360746,46.359885999999996
46.20538,5.22505,,C18,PA00116345,Q27950512,Préfecture (ancienne),3,1947-06-23 ,fr:Ancien hôtel de préfecture de l'Ain,5.224325,5.2257750000000005,46.20581,46.20495
45.903774,5.179847,,C15,PA00116450,,,3,1929-10-11 ,fr:Écurie Thimon,5.179122,5.180572,45.904204,45.903344
45.90332,5.180323,,C15,PA00116452,Q3579085,Ecurie Schlutz,3,1929-10-11 ,fr:Écurie Schlutz,5.1795979999999995,5.181048,45.90375,45.90289
45.90256797,5.17975677,citywalls,,PA00116522,,Rempart attenant à un immeuble,2,1921-11-24 ,fr:Remparts de Pérouges,5.17903177,5.18048177,45.90299797,45.90213797
46.20679,5.327232,,C10,PA00116415,Q3125370,Habitat du premier âge féodal (vestiges),3,1984-02-17 ,fr:Habitat du premier âge féodal de Jasseron,5.326507,5.3279570000000005,46.20722,46.20636
45.90263983,5.18011324,citywalls,C15,PA00116521,,Rempart attenant à un immeuble,2,1921-11-24 ,fr:Maison Grezin,5.17938824,5.18083824,45.90306983,45.90220983
45.75,5.7386,,,PA00116447,Q3387856,Pierre à bassins,2,1913-05-03 ,fr:Pierre à bassins de Rosset,5.737875,5.739325,45.75043,45.74957
45.90322143,5.17875498,building,C15,PA00116499,Q22966716,,2,1921-11-24 ,,5.17802998,5.17947998,45.903651430000004,45.90279143
45.9033,5.17915,building,,PA00116462,Q3280053,,2,1921-11-24 ,fr:Maison du Prince,5.178425,5.179875,45.90373,45.90287
45.90345231,5.18044023,building,C15,PA00116516,,Maison et remparts,3,1929-10-11 ,,5.17971523,5.18116523,45.90388231,45.90302231
45.75742,5.6903,,,PA00116421,Q3387857,Pierre à cupules,2,1920-12-20 ,fr:Pierre à cupules de Magnieu,5.689575,5.691025,45.757850000000005,45.75699
46.265394,5.426014,building,C16,PA00116373,Q22966702,Maison du 16e siècle,3,1947-07-21 ,fr:Maison du XVIe siècle (Chavannes-sur-Suran),5.425289,5.426739,46.265824,46.264964
45.90294267,5.18069936,citywalls,C15,PA00116519,,Remparts (restes),3,1929-10-11 ,fr:Remparts de Pérouges,5.17997436,5.18142436,45.90337267,45.90251267
45.903705,5.180054,citywalls,C15,PA00116526,,Rempart attenant à un immeuble dit maison Moschard,2,1921-11-24 ,fr:Maison Moschard,5.179329,5.180779,45.904135000000004,45.903275
45.8098,5.7707,building,C14,PA00116418,Q3278737,Maison Gallet,3,1933-04-13 ,fr:Maison Gallet,5.769975,5.771425,45.810230000000004,45.80937
45.903331,5.180319,,C15,PA00116451,Q3579081,Ecurie Gerlier,3,1929-10-11 ,fr:Écurie Gerlier,5.179594,5.181044,45.903761,45.902901
45.903635,5.179052,,,PA00116458,Q3278714,Immeubles dits Maison Falconnet,2,1941-08-07 ,fr:Maison Falconnet,5.178327,5.1797770000000005,45.904065,45.903205
45.903546,5.179311,building,,PA00116457,Q22966709,Immeuble dit Hostellerie du Vieux Pérouges,2,1921-11-24 ,fr:Hostellerie du Vieux Pérouges,5.178586,5.180036,45.903976,45.903116
45.903223,5.179205,building,,PA00116461,Q3149081,,2,1921-11-24 ,fr:Immeuble de la rue des Contreforts,5.1784799999999995,5.17993,45.903653,45.902792999999996
49.627343,3.455573,monastery,C13,PA00115685,Q3403042,Prieuré de Saint-Lambert,,,fr:Prieuré de Saint-Lambert,3.4548479999999997,3.456298,49.627773000000005,49.626913
49.341094,3.564361,yes,C13,PA00115626,Q2957445,Chapelle dite Le Calvaire,3,1929-01-25 ,fr:Chapelle du Calvaire (Courcelles-sur-Vesle),3.563636,3.565086,49.341524,49.340664
49.88489,3.550797,place_of_worship,christian,PA00115798,Q3582858,,,,fr:Église Saint-Martin de Macquigny,3.550072,3.5515220000000003,49.88532,49.88446
49.5279358,3.13567355,wayside_cross,C12,PA00115571,Q3003279,Croix dite Croix aux Héros,2,1925-01-05 ,fr:Croix aux Héros,3.13494855,3.13639855,49.5283658,49.5275058
49.24173,3.558463,place_of_worship,christian,PA00115802,Q3581654,,2,1920-07-15 ,fr:Église Saint-Germain de Mareuil-en-Dôle,3.557738,3.5591880000000002,49.24216,49.241299999999995
49.306598,3.553128,,C16,PA00115882,Q2970329,Ancien château,3,1927-06-03 ,fr:Château de Quincy-sous-le-Mont,3.552403,3.553853,49.307028,49.306168
49.423638,3.958967,archaeological_site,fortification,PA00116011,Q22966476,Oppidum de Variscourt (également sur commune de Variscourt),3,1992-07-27 ,,3.958242,3.959692,49.424068,49.423207999999995
49.045861,3.404297,building,C17,PA02000063,Q958440,Hôtel Dieu,3,2007-01-26 ,fr:Hôtel-Dieu de Château-Thierry,3.403572,3.405022,49.046291000000004,49.045431
49.25813,3.04107,,C16,PA00115774,Q22966462,Ancien manoir dit Fief Goret,3,1928-02-08 ,,3.040345,3.041795,49.25856,49.2577
49.411944,3.377222,,C13,PA00115643,Q2400427,Ancienne ferme de la Perrière,3,1928-01-10 ,fr:Ferme de la Perrière,3.376497,3.3779470000000003,49.412374,49.411514
49.856082,3.676469,castle,C18,PA02000075,Q2970305,,3,2008-07-11 ,fr:Château de Puisieux-et-Clanlieu,3.675744,3.677194,49.856512,49.855652
49.25237712,3.08868233,fountain,yes,PA00115986,Q3076174,Fontaine,3,1932-05-11 ,fr:Fontaine de Villers-Cotterêts,3.08795733,3.0894073300000002,49.25280712,49.25194712
49.205181,3.369906,,C16,PA00115858,Q3402963,Ancien prieuré,,,fr:Prieuré d'Oulchy-le-Château,3.3691809999999998,3.370631,49.205611000000005,49.204751
49.871071,4.103978,,C18,PA02000080,Q3068903,Ancienne ferme de l'abbaye prémontrée de Bucilly,3,2009-11-02 ,fr:Ferme de l'abbaye de Bucilly,4.103253,4.104703,49.871501,49.870641
49.499091,3.286991,place_of_worship,christian,PA00115874,Q3583284,,2,1919-08-05 ,fr:Église Saint-Médard de Pont-Saint-Mard,3.286266,3.287716,49.499521,49.498661
49.0689,3.5057,wayside_cross,C13,PA00115812,Q3003510,Croix de cimetière,2,1906-02-10 ,fr:Croix de cimetière de Mézy-Moulins,3.504975,3.506425,49.06933,49.06847
49.048217,3.406094,city_gate,C13,PA00115590,Q3398966,Porte Saint-Pierre,2,1886-07-12 ,fr:Porte Saint-Pierre (Château-Thierry),3.405369,3.406819,49.048647,49.047787
49.85637,3.95299,archaeological_site,megalith,PA00115549,Q3305903,Menhir dit La Haute-Ronde,2,1889 ,fr:Menhir de la Haute-Ronde,3.9522649999999997,3.953715,49.8568,49.85594
49.25558,3.090167,,C16,PA00135571,Q15952945,Pavillon Henri II,3,1995-07-19 ,,3.089442,3.090892,49.25601,49.25515
49.928629,3.576063,building,C18,PA02000037,Q3280351,Maisons de Nicolas Grain,3,2001-07-09 ,fr:Maisons de Nicolas Grain,3.575338,3.576788,49.929059,49.928199
49.35356,3.696607,place_of_worship,christian,PA00115811,Q3582873,,2,1919-10-15 ,fr:Église Saint-Martin de Merval,3.695882,3.6973320000000003,49.35399,49.35313
48.895206,3.397479,,C18,PA02000011,Q2970971,Parc du château,3,1997-11-28 ,fr:Château de Viels-Maisons,3.396754,3.3982040000000002,48.895636,48.894776
49.202335,3.386638,place_of_worship,christian,PA00115855,Q3583269,Église de Cugny-les-Crouttes,2,1921-10-06 ,fr:Église Saint-Médard de Cugny-les-Crouttes,3.385913,3.387363,49.202765,49.201905
49.33762,3.154428,,C16,PA00115603,Q2410650,Ancien château de Coeuvres,3,1927-06-28 ,fr:Château de Cœuvres,3.1537029999999997,3.155153,49.33805,49.33719
48.966481,3.323032,place_of_worship,christian,PA00115844,Q3581659,,2,1920-02-05 ,fr:Église Saint-Germain de Nogent-l'Artaud,3.322307,3.323757,48.966911,48.966051
49.6103958,3.8032309,building,C15,PA02000003,Q22995443,Maison en pan de bois,3,1996-03-14 ,,3.8025059,3.8039559,49.6108258,49.6099658
49.339616,3.490726,castle,C17,PA00115630,Q2969071,,3,1927-06-15 ,fr:Château de Couvrelles,3.490001,3.491451,49.340046,49.339186
49.7403801,3.7691983,building,C20,PA02000079,Q2376860,Maison des Frères Ignorantins,3,2009-07-16 ,fr:Maison des Frères Ignorantins,3.7684732999999997,3.7699233,49.740810100000004,49.7399501
49.199086,3.452464,monastery,abbey,PA00115560,Q2820804,Abbaye du Val-Chrétien,3,1928-06-05 ,fr:Abbaye du Val-Chrétien,3.451739,3.453189,49.199516,49.198656
49.69827,3.464298,place_of_worship,christian,PA00115848,Q3582915,,2,1922-03-20 ,fr:Église Saint-Martin de Nouvion-le-Comte,3.463573,3.465023,49.6987,49.69784
49.528342,3.539979,castle,C19,PA02000055,Q2968627,,3,2004-06-07 ,fr:Château de Bourguignon-sous-Montbavin,3.539254,3.5407040000000003,49.528772000000004,49.527912
49.259212,3.035308,,C19,PA02000078,Q3407583,"Domaine des Charmettes, dit propriété Castellant",3,2008-09-11 ,fr:Propriété Castellant,3.034583,3.036033,49.259642,49.258782
49.381103,3.352818,castle,C20,PA02000060,Q2971011,,3,2006-09-21 ,fr:Château de Villeneuve-Saint-Germain,3.352093,3.353543,49.381533000000005,49.380673
49.25382502,3.09250569,,C17,PA00125661,Q3146315,Hôtellerie du Régent,3,1993-11-19 ,fr:Hôtellerie du Régent,3.0917806899999998,3.09323069,49.25425502,49.25339502
49.740684,4.048349,place_of_worship,christian,PA00115883,Q3580646,,3,1927-10-24 ,fr:Église Notre-Dame de Renneval,4.047624,4.049074,49.741114,49.740254
49.2575,3.247222,,C16,PA00115793,Q2969744,Ancien château,3,1928-02-08 ,fr:Château de Louâtre,3.2464969999999997,3.247947,49.25793,49.25707
49.037718,3.348759,place_of_worship,C18,PA00115663,Q3517588,Temple de Monneaux,3,1986-09-02 ,fr:Temple de Monneaux,3.3480339999999997,3.349484,49.038148,49.037288
49.331782,3.075437,place_of_worship,christian,PA00115834,Q3581782,,3,1927-06-15 ,fr:Église Saint-Hilaire de Mortefontaine,3.074712,3.076162,49.332212,49.331351999999995
49.809422,3.472865,,C19,PA00125658,Q3325637,Moulin de Lucy,3,1993-01-14 ,fr:Moulin de Lucy,3.47214,3.47359,49.809852,49.808991999999996
49.005556,3.559167,castle,C12,PA00115608,Q639057,Château de Condé,2,1979-10-18 ,fr:Château de Condé,3.558442,3.559892,49.005986,49.005126
49.213634,3.351321,place_of_worship,christian,PA00115854,Q3583752,,2,1914-06-08 ,fr:Église Saint-Pierre d'Oulchy-la-Ville,3.350596,3.352046,49.214064,49.213204
49.322783,3.549474,,C15,PA00115788,Q3068860,Ancien manoir dit ferme d'Applincourt,3,1927-06-15 ,fr:Ferme d'Applincourt,3.548749,3.550199,49.323213,49.322353
49.51495,3.523328,place_of_worship,christian,PA00115892,Q3582204,Église Saint-Julien et Saint-Jean-Baptiste,2,1862 ,fr:Église Saint-Julien de Royaucourt-et-Chailvet,3.5226029999999997,3.524053,49.51538,49.51452
49.20454,3.435856,,C16,PA00115561,Q2969323,Ancien chateau de Givray,3,1928-06-05 ,fr:Château de Givray,3.4351309999999997,3.436581,49.20497,49.20411
49.425658,3.967631,archaeological_site,fortification,PA00116012,Q22966476,Oppidum de Variscourt,,,,3.966906,3.968356,49.426088,49.425228
48.883912,3.484951,place_of_worship,christian,PA00115800,Q3582861,,3,1928-06-05 ,fr:Église Saint-Martin de Marchais-en-Brie,3.484226,3.485676,48.884342000000004,48.883482
49.424248,3.183503,,C20,PA00116002,Q3323334,Monument de la Croix-Brisée,3,1990-06-28 ,fr:Monument de la Croix-Brisée,3.182778,3.184228,49.424678,49.423818
49.990712,3.260818,,C18,PA00115688,Q2820791,Ancienne abbaye du Mont-Saint-Martin,,,fr:Abbaye du Mont-Saint-Martin,3.260093,3.261543,49.991142,49.990282
49.33209,3.542152,castle,C17,PA00115551,Q2971595,Château du Bas,,,fr:Château du Bas,3.541427,3.5428770000000003,49.33252,49.33166
49.047496,3.481711,wayside_cross,C14,PA00115683,Q3003441,Croix de chemin,2,1931-09-24 ,fr:Croix de chemin de Fossoy,3.4809859999999997,3.482436,49.047926000000004,49.047066
49.843974,3.291333,building,C18,PA00115911,Q22966463,,3,1930-10-11 ,,3.2906079999999998,3.292058,49.844404000000004,49.843544
49.045017,3.402843,tower,yes,PA00115592,Q3533021,Tour Balhan,3,1926-12-02 ,fr:Tour Balhan,3.4021179999999998,3.403568,49.045447,49.044587
49.741576,3.773375,,,PA00115808,Q3424008,Relais de poste,3,1933-05-29 ,fr:Relais de poste de Marle,3.77265,3.7741000000000002,49.742006,49.741146
49.854491,3.29302,,C19,PA00116009,Q3552635,Usine Sidoux,3,1992-02-24 ,fr:Usine Sidoux,3.2922949999999997,3.293745,49.854921000000004,49.854061
49.22,3.1375,castle,C16,PA00115851,Q2968302,,,,fr:Château d'Oigny-en-Valois,3.136775,3.1382250000000003,49.22043,49.21957
49.18561159,3.37136802,,,PA02000029,Q3397779,Ponts Bernard,,,fr:Ponts Bernard,3.3706430199999997,3.37209302,49.18604159,49.18518159
49.47816,3.64506,,C20,PA02000008,Q3323316,Monument commémoratif franco-allemand,3,1997-12-22 ,fr:Monument commémoratif franco-allemand de Pancy-Courtecon,3.644335,3.645785,49.478590000000004,49.47773
49.874096,3.657872,castle,C16,PA00115511,Q2971120,Château de l'Etang,3,1927-06-28 ,fr:Château de l'Étang,3.6571469999999997,3.658597,49.874526,49.873666
49.254967,3.090722,,C18,PA00125660,Q3146210,"Ancien logis abbatial des Prémontrés, actuel Hôtel de Ville",2,1995-05-10 ,fr:Hôtel de ville de Villers-Cotterêts,3.089997,3.091447,49.255397,49.254537
49.56446,3.615862,building,,PA00115763,Q20728760,"Maison dite le Petit-Saint-Nicolas, actuellement Direction départementale des Contributions indirectes",3,1927-06-13 ,fr:Petit-Saint-Nicolas,3.615137,3.616587,49.56489,49.564029999999995
49.214205,3.409069,,C20,PA00115857,Q3232521,Monument dit des Fantômes commémorant la deuxième victoire de la Marne,2,1934-07-31 ,fr:Les Fantômes (Landowski),3.408344,3.409794,49.214635,49.213775
49.060538,3.571329,place_of_worship,christian,PA00115865,Q3584720,,2,1922-08-05 ,fr:Église Saint-Éloi de Passy-sur-Marne,3.570604,3.572054,49.060968,49.060108
49.178664,3.473731,building,C18,PA00115982,Q3280240,Maison natale de Paul Claudel,3,1964-07-07 ,fr:Maison natale de Paul Claudel,3.473006,3.474456,49.179094,49.178233999999996
49.379528,3.236233,wayside_cross,C14,PA00115866,Q3003680,Croix,2,1937-04-24 ,fr:Croix monumentale de Pernant,3.235508,3.236958,49.379958,49.379098
49.047329,3.406245,,C13,PA00115591,Q3424614,Anciens remparts,,,fr:Remparts de Château-Thierry,3.40552,3.4069700000000003,49.047759,49.046898999999996
49.3825,3.32091,,C20,PA02000027,Q22995457,Monument à l'oeuvre des sociétés coopératives de reconstruction des régions libérées et à la mémoire de Guy de Lubersac,2,2001-09-07 ,,3.320185,3.321635,49.38293,49.38207
49.164532,3.551014,,C13,PA00115930,Q3409332,Prévôté de Favières,3,1998-03-31 ,fr:Prévôté de Favières,3.550289,3.551739,49.164962,49.164102
49.473703,3.654652,place_of_worship,christian,PA00115861,Q3581997,,2,1921-02-14 ,fr:Église Saint-Jean-Baptiste de Pancy-Courtecon,3.653927,3.655377,49.474133,49.473273
49.716742,3.519686,,C12,PA00115846,Q2957421,Ancienne chapelle des Templiers,3,1928-02-08 ,fr:Chapelle des Templiers de Nouvion-et-Catillon,3.518961,3.520411,49.717172000000005,49.716312
49.274278,3.048094,castle,manor,PA02000045,Q3286375,Manoir des Fossés,3,2003-06-17 ,fr:Manoir des Fossés (Haramont),3.0473689999999998,3.048819,49.274708000000004,49.273848
49.167388,3.583474,archaeological_site,megalith,PA00115600,Q3033993,Dolmen de Carauda,2,1889 ,fr:Dolmen de Caranda,3.5827489999999997,3.584199,49.167818000000004,49.166958
49.333341,3.311691,castle,C13,PA00115528,Q2968542,,2,1926-07-13 ,fr:Château de Berzy-le-Sec,3.310966,3.3124160000000002,49.333771,49.332910999999996
49.118128,3.43326,castle,C16,PA00116007,Q2970074,Château et ferme de Moucheton,3,1992-04-10 ,fr:Château de Moucheton,3.432535,3.4339850000000003,49.118558,49.117698
49.161772,3.422086,,C11,PA00115605,Q2820561,Ancienne abbaye,3,1928-06-05 ,fr:Abbaye de Coincy,3.421361,3.4228110000000003,49.162202,49.161342
49.20393,3.568851,yes,C13,PA00115932,Q2970115,Ruines du château de Nesles,2,1922-05-29 ,fr:Château de Nesles,3.568126,3.569576,49.20436,49.2035
49.918219,3.572694,,C18,PA00115962,Q2820538,Ancienne abbaye de Bohéries,2,1995-01-30 ,fr:Abbaye de Bohéries,3.5719689999999997,3.573419,49.918649,49.917789
49.215442,3.21356,wayside_cross,C16,PA00115501,Q3003676,Croix,3,1927-06-15 ,fr:Croix monumentale d'Ancienville,3.212835,3.2142850000000003,49.215872000000005,49.215012
49.379521,3.236496,place_of_worship,christian,PA00115868,Q3582453,,2,1920-02-20 ,fr:Église Saint-Léger de Pernant,3.2357709999999997,3.237221,49.379951,49.379090999999995
49.658343,3.314736,,C20,PA02000018,Q22995453,Place Carnegie de Fargniers,3,1998-12-01 ,,3.314011,3.315461,49.658773000000004,49.657913
49.807534,4.01936,place_of_worship,christian,PA00115870,Q3580635,,3,1987-07-09 ,fr:Église Notre-Dame de Plomion,4.018635,4.020085,49.807964,49.807103999999995
49.25242447,3.6439273,farm,C13,PA02000033,Q3115322,Grange de Montaon,3,2001-07-09 ,fr:Grange de Montaon,3.6432023,3.6446523,49.25285447,49.25199447
49.927579,4.134731,,C13,PA00115904,Q2820695,Ancienne abbaye bénédictine,,,fr:Abbaye de Saint-Michel,4.134006,4.1354560000000005,49.928009,49.927149
49.151612,3.398622,,C12,PA00115555,Q3437617,Rocher gravé,2,1975-06-13 ,fr:Rocher gravé de Brécy,3.397897,3.399347,49.152042,49.151182
49.585379,3.734233,wayside_cross,C13,PA00115919,Q3003681,Croix,3,1932-06-03 ,fr:Croix monumentale de Samoussy,3.733508,3.7349580000000002,49.585809000000005,49.584949
49.222145,3.532072,yes,C13,PA00115670,Q2969290,Vestiges du château,,,fr:Château de Fère-en-Tardenois,3.531347,3.532797,49.222575,49.221714999999996
49.701927,3.485308,place_of_worship,christian,PA00115847,Q3584264,,2,1927-05-28 ,fr:Église Saint-Rémy de Nouvion-et-Catillon,3.4845829999999998,3.486033,49.702357,49.701496999999996
49.398662,3.909647,,C20,PA00115527,Q3010624,Cote 108,2,1937-01-11 ,fr:Côte 108,3.908922,3.910372,49.399092,49.398232
49.5151255,3.1521467,,,PA00115537,Q3001714,Ancien couvent des Feuillants,3,1928-02-08 ,fr:Couvent des Feuillants de Blérancourt,3.1514216999999998,3.1528717,49.515555500000005,49.5146955
49.3411647,3.5311362,building,C15,PA00115552,Q18578277,"Maison à colombages du 15e siècle, dite espagnole",,,fr:Maison à colombages (Braine),3.5304112,3.5318612000000003,49.3415947,49.3407347
49.876717,3.145904,,,PA00115969,Q940173,Camp Romain,2,1840 ,fr:Camp Romain,3.1451789999999997,3.146629,49.877147,49.876287
49.114849,3.082545,,C13,PA00115827,Q2985888,Ancienne commanderie de templiers de Moisy,,,fr:Commanderie de Moisy-le-Temple,3.08182,3.08327,49.115279,49.114419
49.061486,3.224651,castle,C18,PA02000042,Q2969804,,3,2003-03-17 ,fr:Château de Marigny-en-Orxois,3.223926,3.2253760000000002,49.061916000000004,49.061056
48.873314,3.495275,building,C16,PA02000069,Q3068899,Maison forte dite Ferme de Villefontaine,3,2007-09-14 ,fr:Ferme de Villefontaine,3.49455,3.496,48.873744,48.872884
49.21,3.084722,,C14,PA00115983,Q2961262,Ancienne chartreuse de Bourgfontaine,,,fr:Chartreuse de Bourgfontaine,3.083997,3.0854470000000003,49.21043,49.20957
49.5287053,3.5405795,,C17,PA02000001,Q3555407,Vendangeoirs Hédouville et Cuzey,,,fr:Vendangeoirs Hédouville et Cuzey,3.5398545,3.5413045000000003,49.5291353,49.5282753
49.907426,3.725317,place_of_worship,christian,PA00115799,Q3584895,,3,1927-06-01 ,fr:Église Sainte-Aldegonde de Malzy,3.724592,3.726042,49.907856,49.906996
49.0353,3.5305,wayside_cross,C13,PA00115613,Q3003479,Croix de cimetière,2,1922-02-07 ,fr:Croix de cimetière de Connigis,3.529775,3.531225,49.03573,49.03487
49.9005799,3.626976,building,C17,PA02000039,Q3145695,Hôtel Warnet,,,fr:Hôtel Warnet,3.626251,3.627701,49.9010099,49.900149899999995
49.677683,3.650393,,,PA00115580,Q2968820,Ancien chateau,3,1927-06-28 ,fr:Château de Chalandry,3.649668,3.6511180000000003,49.678113,49.677253
49.1617,3.4225,,C18,PA02000052,Q2911188,Bornes de délimitation,3,2004-10-18 ,fr:Bornes de délimitation de Coincy,3.421775,3.423225,49.162130000000005,49.16127
49.240819,3.311074,,,PA00115917,Q3409329,Ancienne prévôté de Blanzy,3,1928-02-08 ,fr:Prévôté de Blanzy,3.310349,3.311799,49.241249,49.240389
48.884693,3.448127,place_of_worship,christian,PA00115659,Q3581279,,3,1928-06-05 ,fr:Église Saint-Cyr-et-Sainte-Julitte de L'Épine-aux-Bois,3.447402,3.448852,48.885123,48.884263
49.333186,3.337449,place_of_worship,christian,PA00115850,Q3580632,,2,1921-10-06 ,fr:Église Notre-Dame de Noyant-et-Aconin,3.336724,3.338174,49.333616,49.332755999999996
49.406629,3.602545,yes,C16,PA02000072,Q2970716,Vestiges du château de Soupir,3,2007-09-14 ,fr:Château de Soupir,3.60182,3.60327,49.407059000000004,49.406199
49.234299,3.04335,castle,manor,PA02000062,Q3286176,Manoir de Coyolles,3,2007-02-06 ,fr:Manoir de Coyolles,3.042625,3.0440750000000003,49.234729,49.233869
49.828247,3.872142,,C15,PA00115681,Q2968749,Ancien château de Cambron,3,1928-02-03 ,fr:Château de Cambron,3.871417,3.8728670000000003,49.828677,49.827816999999996
49.0044,3.5626,,C16,PA00115610,Q3126132,Halles et mairie,3,1979-12-05 ,fr:Halles de Condé-en-Brie,3.561875,3.5633250000000003,49.00483,49.003969999999995
49.580908,3.4176145,,C17,PA00115902,Q3556074,Ancienne verrerie de Charles-Fontaine,3,1928-05-30 ,fr:Verrerie de Charles-Fontaine,3.4168895,3.4183395,49.581338,49.580478
49.030317,3.375345,,,PA00115664,Q22966408,Terrain,2,1928-08-17 ,,3.3746199999999997,3.37607,49.030747,49.029886999999995
49.5645,3.616507,yes,,PA00115711,Q22966415,Chapelle Saint-Genebaud,3,1927-07-22 ,,3.615782,3.617232,49.564930000000004,49.56407
49.3281,3.5978,,C18,PA00115859,Q2970160,Domaine du château,,,fr:Château de Paars,3.597075,3.598525,49.32853,49.32767
49.276898,3.394223,,C14,PA00115653,Q2969159,Ancien château,,,fr:Château de Droizy,3.393498,3.3949480000000003,49.277328000000004,49.276468
49.844044,3.288603,yes,C19,PA02000056,Q2399232,Chapelle de la Charité,3,2005-07-29 ,fr:Chapelle de la Charité,3.287878,3.2893280000000003,49.844474,49.843613999999995
49.04675,3.399994,building,C16,PA00115588,Q22966405,Maison de Jean de la Fontaine,2,1910-01-08 ,fr:Musée Jean de La Fontaine,3.399269,3.400719,49.047180000000004,49.04632
49.44808,3.409581,,C20,PA02000083,Q477892,Camp fortifié dit  Wolfschlucht 2  ou  W 2 ,3,2014-02-05 ,,3.408856,3.4103060000000003,49.44851,49.447649999999996
49.350635,3.169998,wayside_cross,C16,PA00115779,Q3003497,Croix de cimetière,3,1927-06-15 ,fr:Croix de cimetière de Laversine,3.169273,3.170723,49.351065,49.350204999999995
49.515128,3.152057,,C17,PA00115536,Q22966402,Ancien château,3,1927-10-24 ,fr:Ancien château de Blérancourt,3.151332,3.152782,49.515558,49.514697999999996
49.397211,3.468719,,C12,PA00115612,Q3403050,Ancien Prieuré de Saint-Ouen,2,1921-10-24 ,fr:Prieuré de Saint-Ouen,3.467994,3.469444,49.397641,49.396781
49.044082,3.39367,building,C18,PA00115587,Q22966404,,3,1943-06-11 ,,3.392945,3.3943950000000003,49.044512000000005,49.043652
49.776676,4.004286,place_of_worship,christian,PA00115837,Q3582906,,3,1934-03-22 ,fr:Église Saint-Martin de Nampcelles-la-Cour,4.0035609999999995,4.005011,49.777106,49.776246
49.0691,3.5057,place_of_worship,christian,PA00115813,Q3585802,,2,1862 ,fr:Église de la Nativité-de-la-Sainte-Vierge de Mézy-Moulins,3.504975,3.506425,49.06953,49.06867
49.738248,3.737202,place_of_worship,christian,PA00115801,Q3583281,,3,1966-04-15 ,fr:Église Saint-Médard de Marcy-sous-Marle,3.736477,3.737927,49.738678,49.737818
49.283479,3.417048,place_of_worship,christian,PA00115836,Q3581990,,3,1927-06-03 ,fr:Église Saint-Jean-Baptiste de Muret-et-Crouttes,3.4163229999999998,3.417773,49.283909,49.283049
49.371701,3.814605,,C13,PA00115890,Q3403029,Ancien prieuré,3,1932-06-03 ,fr:Prieuré de Roucy,3.8138799999999997,3.81533,49.372131,49.371271
49.182129,3.503783,yes,,PA00115669,Q2957273,Chapelle de Villemoyenne,3,1928-06-25 ,fr:Chapelle de Villemoyenne,3.503058,3.504508,49.182559000000005,49.181699
49.791843,3.527427,place_of_worship,christian,PA00115869,Q3581136,,2,1913-10-22 ,fr:Église Saint-Brice de Pleine-Selve,3.526702,3.528152,49.792273,49.791413
49.8654089,3.1071491,castle,C19,PA00116006,Q2968790,Château de Caulaincourt,,,fr:Château de Caulaincourt,3.1064241,3.1078741,49.8658389,49.8649789
49.4151,3.1361,,C20,PA02000026,Q2940287,Carrière de Chapeaumont,3,2000-07-17 ,fr:Carrière de Chapeaumont,3.135375,3.136825,49.415530000000004,49.41467
49.547222,3.410556,,C18,PA00115875,Q334110,Ancienne abbaye,2,1862 ,fr:Abbaye de Prémontré,3.409831,3.4112810000000002,49.547652,49.546791999999996
49.72564,3.85435,,C20,PA00115544,Q2821915,Ancien abri allemand dit du Kaiser,2,1921-12-22 ,fr:Abri du Kaiser,3.853625,3.8550750000000003,49.72607,49.72521
49.785479,3.548525,castle,C18,PA00115864,Q2970183,,3,1928-02-03 ,fr:Château de Parpeville,3.5478,3.5492500000000002,49.785909000000004,49.785049
49.270097,3.320859,place_of_worship,christian,PA00115862,Q3584345,Église de Parcy,2,1913-02-10 ,fr:Église Saint-Rémi de Parcy,3.320134,3.321584,49.270527,49.269667
49.807314,4.0201029,marketplace,yes,PA02000013,Q3126094,Halle,3,1998-02-13 ,fr:Halle de Plomion,4.0193779,4.0208279000000005,49.807744,49.806884
49.256506,3.245486,,C15,PA00115795,Q3286232,Ancien manoir,3,1928-02-08 ,fr:Manoir de Louâtre,3.244761,3.246211,49.256936,49.256076
49.528673,3.541152,,,PA02000046,Q3555403,Vendangeoir des Frères Le Nain,3,2003-09-23 ,fr:Vendangeoir des Frères Le Nain,3.5404269999999998,3.541877,49.529103,49.528242999999996
49.584106,3.434359,,C15,PA00115905,Q2820698,Ancienne abbaye bénédictine de Saint-Nicolas,3,1927-10-24 ,fr:Abbaye de Saint-Nicolas-aux-Bois,3.433634,3.4350840000000002,49.584536,49.583676
49.910596,4.073305,tower,yes,PA00116005,Q3533086,Tour Florentine,2,1995-11-06 ,fr:Tour Florentine de Buire,4.07258,4.0740300000000005,49.911026,49.910166
49.42847,3.173209,,C20,PA02000007,Q3323343,Monument des Fusillés,3,1997-04-30 ,fr:Monument des Fusillés,3.172484,3.173934,49.4289,49.428039999999996
49.925836,4.135666,building,C16,PA02000035,Q3280061,Maison du Prévôt,3,2001-08-17 ,fr:Maison du Prévôt (Saint-Michel),4.1349409999999995,4.136391,49.926266,49.925405999999995
49.25788,3.248238,place_of_worship,christian,PA00115794,Q3584378,,2,1921-08-12 ,fr:Église Saint-Rémy de Louâtre,3.247513,3.2489630000000003,49.25831,49.25745
49.949338,3.411698,,C19,PA02000006,Q3552677,Usine textile La Filandière,,,fr:Usine textile La Filandière,3.410973,3.412423,49.949768,49.948907999999996
49.38297,3.32343,,C13,PA00115937,Q22966465,Ancienne abbaye de Longpont,3,1988-05-27 ,,3.322705,3.324155,49.3834,49.38254
49.847262,3.287479,,C18,PA00115915,Q3410683,Puits,3,1932-05-11 ,,3.2867539999999997,3.288204,49.847692,49.846832
49.24996389,3.074644444,castle,C13,PA00115985,Q2970154,Château de Noue,3,1927-06-03 ,fr:Château de Noue,3.073919444,3.075369444,49.25039389,49.249533889999995
49.5073116,3.7029058000001,,C18,PA02000043,Q3555404,Vendangeoir,3,2003-06-17 ,fr:Vendangeoir d'Orgeval,3.7021808000000997,3.7036308000001,49.5077416,49.5068816
49.849751,3.404509,dovecote,yes,PA02000041,Q27902458,Pigeonnier,3,2003-02-17 ,fr:Pigeonnier de Marcy,3.403784,3.405234,49.850181,49.849320999999996
49.800118,3.774619,castle,C16,PA02000016,Q2969800,Château de Marfontaine,3,1998-10-13 ,fr:Château de Marfontaine,3.773894,3.775344,49.800548,49.799687999999996
49.663489,3.366226,castle,C15,PA00115666,Q2969550,,,,fr:Château de La Fère,3.365501,3.3669510000000002,49.663919,49.663059
49.019884,3.426806,place_of_worship,christian,PA00115840,Q3582909,,2,1979-12-31 ,fr:Église Saint-Martin de Nesles-la-Montagne,3.426081,3.427531,49.020314,49.019453999999996
49.987028,3.454868,building,C19,PA02000066,Q3146132,Hôtel de ville,3,2007-01-26 ,fr:Hôtel de ville de Bohain-en-Vermandois,3.4541429999999997,3.455593,49.987458000000004,49.986598
49.723862,3.866871,farm,C13,PA00115909,Q3068894,Ferme de Saint-Antoine,3,1988-12-30 ,fr:Ferme de Saint-Antoine,3.866146,3.8675960000000003,49.724292,49.723431999999995
49.565084,3.61646,building,C17,PA00115733,Q22966420,,3,1927-06-24 ,,3.615735,3.617185,49.565514,49.564654
49.45247,3.182344,place_of_worship,christian,PA00115833,Q2419323,,2,1920-12-20 ,fr:Église Saint-Martin de Morsain,3.181619,3.183069,49.4529,49.45204
49.90551,3.792614,place_of_worship,christian,PA00115809,Q3584379,,3,1928-02-03 ,fr:Église Saint-Rémy de Marly-Gomont,3.791889,3.793339,49.90594,49.90508
49.214032,3.479614,,C13,PA00115920,Q2970629,Restes du château,3,1928-06-05 ,fr:Château de Saponay,3.478889,3.4803390000000003,49.214462000000005,49.213602
49.846223,3.286999,,C19,PA00135570,Q3527868,Théâtre municipal,3,1995-10-10 ,fr:Théâtre municipal de Saint-Quentin,3.2862739999999997,3.287724,49.846653,49.845793
49.9294565,4.0119181,farm,C18,PA00116008,Q3068861,Ferme d'élevage,3,1992-09-29 ,fr:Ferme d'Ohis,4.0111931,4.0126431,49.9298865,49.9290265
49.305759,3.503598,,C14,PA00115783,Q18736748,"Ancienne maison prévôtale, puis ferme",3,1927-06-15 ,fr:Maison prévôtale de Lesges,3.502873,3.5043230000000003,49.306189,49.305329
49.8986718,3.6243921,building,C16,PA02000015,Q22995449,,3,1998-07-01 ,,3.6236671,3.6251171,49.899101800000004,49.8982418
49.497012,3.820592,,C13,PA00115918,Q3403053,Ancien prieuré de Saint-Thomas,,,fr:Prieuré de Saint-Thomas,3.819867,3.821317,49.497442,49.496582
49.329139,3.599964,place_of_worship,christian,PA00115860,Q3583407,,2,1919-10-15 ,fr:Église Saint-Nicolas de Paars,3.599239,3.600689,49.329569,49.328708999999996
49.5042,3.8241,archaeological_site,fortification,PA02000081,Q22995473,Oppidum,3,2013-05-27 ,,3.823375,3.824825,49.50463,49.503769999999996
49.78007,3.862086,place_of_worship,christian,PA00115880,Q3583285,Église Saint-Médard,2,1994-04-29 ,fr:Église Saint-Médard de Prisces,3.861361,3.862811,49.7805,49.77964
49.04625,3.402944,yes,C13,PA00115584,Q2968957,Ruines de l'ancien château et la butte sur laquelle elles sont situées,2,1932-08-02 ,fr:Château de Château-Thierry,3.402219,3.4036690000000003,49.04668,49.04582
49.896,3.623,,C10,PA00115693,Q1869481,Ancien château fort de Guise,,,fr:Château de Guise,3.622275,3.6237250000000003,49.89643,49.89557
49.394102,3.558106,place_of_worship,christian,PA00115876,Q3583640,,2,1912-10-31 ,fr:Église Saint-Pierre-et-Saint-Paul de Presles-et-Boves,3.557381,3.558831,49.394532,49.393671999999995
49.326944,3.493889,farm,C13,PA00115632,Q3068875,Ferme de La Siège,3,1927-06-15 ,fr:Ferme de La Siège,3.4931639999999997,3.494614,49.327374,49.326513999999996
49.047679,3.405499,city_gate,C13,PA00115589,Q3398954,Porte Saint-Jean,2,1921-10-22 ,fr:Porte Saint-Jean (Château-Thierry),3.4047739999999997,3.406224,49.048109000000004,49.047249
49.201746,3.638733,castle,C13,PA00115622,Q2970410,Château de Rognac,3,1928-06-05 ,fr:Château de Rognac (Aisne),3.638008,3.6394580000000003,49.202176,49.201316
49.29274663,3.28353341,,C15,PA00115978,Q2970974,Ancien château,3,1928-02-08 ,fr:Château de Vierzy,3.28280841,3.28425841,49.293176630000005,49.29231663
49.16561,3.265242,stone,grooves,PA00115842,Q3394285,Polissoir,2,1970-02-10 ,fr:Polissoir de Neuilly-Saint-Front,3.264517,3.2659670000000003,49.16604,49.16518
49.205006,3.369657,place_of_worship,christian,PA00115856,Q3580482,Église Notre-Dame,2,1914-03-27 ,fr:Église Notre-Dame d'Oulchy-le-Château,3.368932,3.370382,49.205436,49.204575999999996
49.673808,3.153299,place_of_worship,christian,PA00115843,Q3580588,,2,1934-01-25 ,fr:Église Notre-Dame de La Neuville-en-Beine,3.152574,3.154024,49.674238,49.673378
49.229029,3.451815,castle,C13,PA00115633,Q2969073,,3,1927-05-16 ,fr:Château de Cramaille,3.4510899999999998,3.45254,49.229459,49.228598999999996
49.557289,3.604586,,C18,PA00115709,Q20740320,Ancienne caserne des Dragons de la Reine,3,1927-07-23 ,fr:Caserne des Dragons de la Reine,3.6038609999999998,3.605311,49.557719,49.556858999999996
49.365923,3.699818,,C16,PA00115886,Q3286271,Ancien manoir,3,1927-06-28 ,fr:Manoir de Révillon,3.699093,3.700543,49.366353000000004,49.365493
49.185695,3.382606,yes,C12,PA00115506,Q1985816,Ruines du château d'Armentières avec sa poterne,2,1921-01-25 ,fr:Château d'Armentières,3.381881,3.383331,49.186125000000004,49.185265
49.692455,4.018657,,C17,PA00115823,Q3056751,Ermitage,3,1928-02-08 ,fr:Ermitage de Montcornet,4.017932,4.019382,49.692885000000004,49.692025
49.896438,4.022498,place_of_worship,christian,PA00115853,Q3581277,,3,1927-10-24 ,fr:Église Saint-Cyr-et-Sainte-Julitte d'Origny-en-Thiérache,4.021773,4.023223,49.896868000000005,49.896008
49.767739,3.396202,,C19,PA00132910,Q3325668,Moulin de Sénercy,3,1994-10-21 ,fr:Moulin de Sénercy,3.395477,3.3969270000000003,49.768169,49.767309
49.781707,3.274301,farm,C20,PA02000054,Q3068859,Ferme,3,2004-06-07 ,fr:Ferme d'Essigny-le-Grand,3.273576,3.275026,49.782137,49.781276999999996
49.80492,3.435577,yes,C14,PA00115935,Q2957381,Chapelle dite des Dormants,2,1920-12-20 ,fr:Chapelle des Dormants,3.434852,3.436302,49.805350000000004,49.80449
49.860308,3.306643,castle,C20,PA02000085,Q22995480,Château de la Pilule,3,2014-02-05 ,,3.305918,3.3073680000000003,49.860738000000005,49.859878
48.885734,3.508791,,C19,PA02000082,Q22979597,Colonne commémorative de Montmirail,3,2014-05-23 ,fr:Colonne commémorative de Montmirail,3.508066,3.509516,48.886164,48.885304
49.4441,3.6067,,C20,PA00132907,Q2940290,Carrière de Froidmont,2,1998-11-17 ,fr:Carrière de Froidmont,3.605975,3.607425,49.44453,49.44367
49.834972,3.905817,citywalls,,PA02000051,Q3424635,Rempart,3,2003-03-17 ,fr:Remparts de Vervins,3.905092,3.906542,49.835402,49.834542
49.374899,3.227237,castle,C14,PA00115867,Q2970197,Château de Pernant,,,fr:Château de Pernant,3.226512,3.227962,49.375329,49.374469
49.612003,3.219627,,C19,PA02000061,Q22995469,Pâtisserie du Marché couvert,3,2006-07-25 ,,3.218902,3.220352,49.612433,49.611573
49.666885,4.091962,place_of_worship,christian,PA00115845,Q3583404,Église Notre-Dame-de-l'Espérance,3,1932-05-11 ,fr:Église Saint-Nicolas de Noircourt,4.091237,4.092687,49.667315,49.666455
49.845206,3.286323,building,C17,PA00115912,Q3145530,Hôtel Joly de Bammeville,2,1930-08-25 ,fr:Hôtel Joly de Bammeville,3.285598,3.287048,49.845636,49.844775999999996
49.571841,3.142117,,,PA02000070,Q3403028,Vestiges du site du prieuré,3,2007-05-07 ,fr:Prieuré de Quierzy,3.1413919999999997,3.142842,49.572271,49.571411
49.3638,3.34734,building,C13,PA02000071,Q22995470,Maisons de source et aqueduc (également sur commune de Belleu),3,2007-05-07 ,fr:Belleu,3.346615,3.348065,49.36423,49.363369999999996
49.607764,3.439528,,C14,PA00115906,Q2820803,Ancienne abbaye du Tortoir,2,1912-08-01 ,fr:Le Tortoir,3.438803,3.4402530000000002,49.608194000000005,49.607334
49.300809,3.099679,castle,C16,PA00115991,Q2969854,Château de Mazancourt,3,1982-04-30 ,fr:Château de Mazancourt,3.098954,3.100404,49.301239,49.300379
48.966033,3.539481,place_of_worship,christian,PA00115830,Q3582896,,2,1920-10-05 ,fr:Église Saint-Martin de Montlevon,3.538756,3.540206,48.966463000000005,48.965603
49.486953,3.666843,place_of_worship,christian,PA02000030,Q3582892,Église Saint-Martin,3,2001-06-11 ,fr:Église Saint-Martin de Monthenault,3.666118,3.667568,49.487383,49.486523
49.904282,3.625402,,C19,PA00115695,Q1395337,Familistère Godin,,,fr:Familistère de Guise,3.6246769999999997,3.626127,49.904712,49.903852
49.137048,3.263359,place_of_worship,christian,PA00115879,Q3582000,,2,1920-11-20 ,fr:Église Saint-Jean-Baptiste de Priez,3.262634,3.264084,49.137478,49.136618
49.041205,3.401392,,C17,PA00115585,Q3001675,Ancien couvent des Capucins,3,1988-12-27 ,fr:Couvent des Capucins de Château-Thierry,3.400667,3.402117,49.041635,49.040775
48.995154,3.266618,castle,C18,PA02000073,Q2971027,,3,2007-09-14 ,fr:Château de Villiers-Saint-Denis,3.2658929999999997,3.267343,48.995584,48.994724
49.255954,3.092195,castle,C16,PA00115984,Q2971015,,2,1997-02-13 ,fr:Château de Villers-Cotterêts,3.0914699999999997,3.09292,49.256384000000004,49.255524
49.848579,3.262516,,C20,PA02000025,Q2972643,Monument du cimetière militaire allemand,3,2000-01-13 ,fr:Cimetière militaire allemand de Saint-Quentin,3.261791,3.2632410000000003,49.849009,49.848149
49.18376201,3.37166038,,,PA02000028,Q3397779,Ponts Bernard (également sur commune de Breny),3,2001-06-11 ,fr:Ponts Bernard,3.3709353799999997,3.37238538,49.184192010000004,49.18333201
49.30985,3.144169,castle,C18,PA00115825,Q2970004,,,,fr:Château de Montgobert,3.143444,3.1448940000000003,49.31028,49.309419999999996
49.440422,3.522921,,C20,PA02000019,Q3002519,La Creute du Caïd,,,fr:Creute du Caïd,3.522196,3.5236460000000003,49.440852,49.439992
49.5759,3.1469,,C16,PA00115881,Q2226745,Ancien château,3,1928-02-08 ,fr:Château de Quierzy,3.146175,3.147625,49.57633,49.575469999999996
49.30273495,3.38132307,,C15,PA00115577,Q2970993,Ancien chateau de Villeblain,3,1928-04-19 ,fr:Château de Villeblain,3.38059807,3.38204807,49.30316495,49.30230495
48.956465,3.424231,wayside_cross,C16,PA00115824,Q3003508,Croix de cimetière,2,1934-07-02 ,fr:Croix de cimetière de Montfaucon,3.4235059999999997,3.424956,48.956895,48.956035
49.844881,3.285658,city_gate,C17,PA00115914,Q3399158,Porte dite des Canonniers,3,1930-10-11 ,fr:Porte des Canonniers,3.284933,3.2863830000000003,49.845311,49.844451
49.727822,3.860557,castle,C17,PA00115545,Q2968831,Château de Chambly,,,fr:Château de Chambly (Aisne),3.859832,3.861282,49.728252000000005,49.727392
49.598548,3.37501,,C17,PA00135569,Q3287074,Ancienne manufacture royale des glaces,3,1995-03-15 ,fr:Manufacture royale de glaces de miroirs,3.374285,3.375735,49.598978,49.598118
49.17028,3.26028,place_of_worship,christian,PA00115841,Q3584311,,2,1920-02-05 ,fr:Église Saint-Rémi-et-Saint-Front de Neuilly-Saint-Front,3.2595549999999998,3.261005,49.17071,49.16985
49.992674,3.301858,,C14,PA00115522,Q2968501,Ancien château,,,fr:Château de Beaurevoir,3.301133,3.3025830000000003,49.993104,49.992244
49.6958908,3.6239682,building,C17,PA00115637,Q22966407,Maison du 17e siècle,,,,3.6232432,3.6246932000000003,49.6963208,49.6954608
49.320833,3.161944,,C12,PA00115602,Q2820327,Ancienne abbaye Notre-Dame de Valsery,2,1986-08-21 ,fr:Abbaye Notre-Dame de Valsery,3.161219,3.162669,49.321263,49.320403
49.924186,3.810692,castle,C17,PA00115655,Q2971340,Château de la Plesnoye,3,1985-10-14 ,fr:Château de la Plesnoye,3.809967,3.811417,49.924616,49.923756
49.25627244,3.08766162,,C16,PA02000074,Q3108392,Glacière,3,2008-05-09 ,fr:Glacière de Villers-Cotterêts,3.08693662,3.08838662,49.25670244,49.255842439999995
49.846936,3.287208,building,C14,PA00115913,Q3146184,Hôtel de ville,2,1984-08-29 ,fr:Hôtel de ville de Saint-Quentin,3.286483,3.287933,49.847366,49.846506
49.15451,3.425067,castle,C13,PA00115553,Q2971642,Château du Buisson,,,fr:Château du Buisson (Brécy),3.4243419999999998,3.425792,49.15494,49.15408
49.48215,3.635609,,C20,PA02000021,Q2940289,Carrière de Colligis,3,2000-01-26 ,fr:Carrière de Colligis,3.634884,3.636334,49.48258,49.481719999999996
49.499699,3.284132,castle,C19,PA02000040,Q2970267,,3,2002-10-14 ,fr:Château de Pont-Saint-Mard,3.283407,3.284857,49.500129,49.499269
49.102826,3.298043,place_of_worship,christian,PA00115826,Q3580622,,2,1920-08-31 ,fr:Église Notre-Dame de Monthiers,3.2973179999999997,3.298768,49.103256,49.102396
49.421167,3.686154,,C16,PA00115835,Q3403017,Ancien prieuré,3,1928-02-08 ,fr:Prieuré de Moulins,3.685429,3.6868790000000002,49.421597,49.420736999999995
49.662322,3.36931,,C18,PA00132908,Q3413050,Quartier Drouot,3,1994-01-19 ,fr:Quartier Drouot,3.368585,3.370035,49.662752000000005,49.661892
49.045263,3.396387,building,C18,PA02000002,Q22995437,Hôtel particulier,3,1996-02-02 ,,3.3956619999999997,3.397112,49.045693,49.044833
49.760399,4.076048,place_of_worship,christian,PA00115832,Q3583396,,3,1989-06-28 ,fr:Église Saint-Nicolas de Morgny-en-Thiérache,4.075323,4.076773,49.760829,49.759969
49.4309,3.2896,archaeological_site,megalith,PA00115966,Q3034095,Dolmen dit la Pierre Laye,2,1944-03-17 ,fr:Dolmen de la Pierre Laye,3.288875,3.290325,49.43133,49.43047
49.298691,3.4244,place_of_worship,christian,PA00115838,Q3581870,,3,1927-06-03 ,fr:Église Saint-Jacques de Nampteuil-sous-Muret,3.423675,3.425125,49.299121,49.298261
49.074,3.5426,place_of_worship,christian,PA00115629,Q3581333,,2,1941-04-25 ,fr:Église Saint-Denis de Courtemont-Varennes,3.541875,3.5433250000000003,49.07443,49.07357
49.266735,3.260662,castle,C15,PA00135572,Q2971017,,3,1995-10-10 ,fr:Château de Villers-Hélon,3.259937,3.261387,49.267165,49.266304999999996
49.984742,3.932149,,C20,PA02000005,Q3323337,Monument de la Pierre d'Haudroy,3,1997-12-22 ,fr:Monument de la Pierre d'Haudroy,3.931424,3.932874,49.985172,49.984311999999996
49.804581,3.457676,,C12,PA00115887,Q2820416,Ancienne abbaye Saint-Nicolas-des-Prés,3,1982-10-11 ,fr:Abbaye Saint-Nicolas-des-Prés,3.456951,3.4584010000000003,49.805011,49.804151
49.7967982,3.4608625,building,C18,PA00116004,Q3280227,Maison natale de Condorcet,3,1990-03-23 ,fr:Maison natale de Condorcet,3.4601375,3.4615875000000003,49.7972282,49.796368199999996
49.182545,3.202136,place_of_worship,christian,PA00115804,Q3585061,,2,1920-10-20 ,fr:Église Sainte-Geneviève de Marizy-Sainte-Geneviève,3.201411,3.202861,49.182975,49.182114999999996
49.74037,3.770682,place_of_worship,christian,PA00115807,Q3580615,Église Notre-Dame,2,1846 ,fr:Église Notre-Dame de Marle,3.769957,3.771407,49.7408,49.73994
49.29288,3.640353,,C15,PA00115989,Q2970992,Ancien château,3,1927-06-03 ,fr:Château de Ville-Savoye,3.639628,3.6410780000000003,49.29331,49.292449999999995
49.839701,3.297163,,C20,PA02000049,Q2031679,Gare,3,2003-09-23 ,fr:Gare de Saint-Quentin,3.2964379999999998,3.297888,49.840131,49.839271
49.4182,3.1728,,C20,PA00116001,Q2940312,Carrières dites de l'Infirmerie et du Premier Zouave,3,1990-06-28 ,fr:Carrières de Confrécourt,3.172075,3.173525,49.41863,49.41777
49.282585,3.449181,place_of_worship,christian,PA00115797,Q3582857,,2,1922-09-12 ,fr:Église Saint-Martin de Maast-et-Violaine,3.4484559999999997,3.449906,49.283015,49.282154999999996
49.6607056,3.3676342,building,C19,PA00115668,Q22966409,,3,1987-07-16 ,,3.3669092,3.3683592,49.6611356,49.6602756
49.314655,3.341587,,C20,PA00115570,Q3323353,Monument des Ecossais au Brisquet,2,1922-06-26 ,fr:Monument des Écossais,3.340862,3.342312,49.315085,49.314225
49.020299,3.195742,place_of_worship,christian,PA00115831,Q3582900,,2,1921-01-18 ,fr:Église Saint-Martin de Montreuil-aux-Lions,3.195017,3.196467,49.020729,49.019869
49.517931,3.154697,castle,C17,PA00115535,Q2056655,"Château de Blérancourt, ancien château des Ducs de Gesvres, actuellement Musée national de la coopération franco-américaine ou Musée national des Deux-Guerres",,,fr:Château de Blérancourt,3.153972,3.155422,49.518361,49.517500999999996
49.927719,4.131683,tomb,mausoleum,PA02000036,Q3301812,Mausolée Savart,2,2004-08-24 ,fr:Mausolée Savart,4.130958,4.132408,49.928149000000005,49.927289
49.38306,3.32698,building,C13,PA00115947,Q22966470,,3,1928-01-10 ,,3.3262549999999997,3.327705,49.38349,49.38263
49.405778,3.11449,castle,C12,PA00115974,Q2970968,,,,fr:Château de Vic-sur-Aisne,3.113765,3.115215,49.406208,49.405348
49.264948,3.598645,,C12,PA00115594,Q2957302,Ancienne chapelle de la Ferme des Dames,3,1927-06-28 ,fr:Chapelle de la Ferme des Dames,3.59792,3.59937,49.265378,49.264517999999995
49.401227,3.454,fort,,PA02000032,Q3078168,Fort de Condé,,,fr:Fort de Condé,3.453275,3.4547250000000003,49.401657,49.400797
49.38399,3.3258,building,C17,PA02000050,Q22995461,Hôtel de la Paix,3,2003-09-23 ,,3.325075,3.326525,49.38442,49.383559999999996
49.282095,3.639699,,C17,PA00115819,Q2969928,Ancien château,3,1927-06-15 ,fr:Château de Mont-Saint-Martin,3.6389739999999997,3.640424,49.282525,49.281665
49.37837,3.32476,,C18,PA00115950,Q22966473,Ancien Grand séminaire,2,1922-05-09 ,,3.324035,3.325485,49.3788,49.377939999999995
49.19199,3.408165,place_of_worship,christian,PA00115839,Q3585803,,2,1920-02-05 ,fr:Église de la Nativité-de-la-Sainte-Vierge de Nanteuil-Notre-Dame,3.40744,3.40889,49.19242,49.191559999999996
49.323638,3.445268,,C13,PA00115928,Q2985956,Ancienne commanderie des Templiers du Mont-de-Soissons,3,1927-06-03 ,fr:Commanderie du Mont-de-Soissons,3.444543,3.445993,49.324068000000004,49.323208
49.057373,3.530021,stone,grooves,PA00115814,Q3394284,Polissoir,2,1969-02-20 ,fr:Polissoir de Mézy-Moulins,3.529296,3.530746,49.057803,49.056943
49.83621,4.20524,castle,manor,PA00115510,Q3286137,Manoir,3,1978-12-29 ,fr:Manoir d'Aubenton,4.204515,4.205965,49.83664,49.83578
49.35631,3.3243,,C15,PA00115525,Q22966401,Ancien manoir dit Fief des Tournelles,3,1928-02-08 ,,3.323575,3.325025,49.35674,49.35588
49.046121,3.402452,building,C19,PA02000058,Q3146143,Hôtel de ville,3,2005-08-17 ,fr:Hôtel de ville de Château-Thierry,3.4017269999999997,3.403177,49.046551,49.045691
49.439599,3.392018,farm,C20,PA02000038,Q3068883,Ferme de Montgarny,,,fr:Ferme de Montgarny,3.391293,3.3927430000000003,49.440029,49.439169
49.696121,3.624035,building,C18,PA00115636,Q3146146,Hôtel de ville,3,1928-02-08 ,fr:Hôtel de ville de Crécy-sur-Serre,3.62331,3.62476,49.696551,49.695691
49.200936,3.513565,,,PA00115672,Q3126134,Halles,2,1921-04-19 ,fr:Halles de Fère-en-Tardenois,3.5128399999999997,3.51429,49.201366,49.200506
49.306287,3.617372,,C13,PA00115520,Q2968456,Ancien château,3,1927-06-28 ,fr:Château de Bazoches-sur-Vesles,3.616647,3.618097,49.306717,49.305856999999996
49.5150072,3.1494288,building,C18,PA00115539,Q3279553,Maison du conventionnel Saint-Just,3,1987-01-19 ,fr:Maison de Saint-Just,3.1487038,3.1501538,49.5154372,49.5145772
49.060201,3.226309,,C17,PA00115803,Q3126138,Halles,2,1921-02-07 ,fr:Halle de Marigny-en-Orxois,3.225584,3.227034,49.060631,49.059771
49.300701,3.537903,castle,C18,PA00115703,Q2969434,,3,1982-12-21 ,fr:Château de Jouaignes,3.537178,3.538628,49.301131,49.300270999999995
49.272052,3.375485,farm,C16,PA00115776,Q3068886,Ferme de Neuville-Saint-Jean,2,1995-02-03 ,fr:Ferme de Neuville-Saint-Jean,3.3747599999999998,3.37621,49.272482000000004,49.271622
49.181063,3.226298,place_of_worship,christian,PA00115806,Q3582865,,2,1920-10-12 ,fr:Église Saint-Martin de Marizy-Saint-Mard,3.225573,3.227023,49.181493,49.180633
49.952579,4.059191,archaeological_site,fortification,PA02000084,Q22995477,Oppidum,3,2014-05-23 ,,4.058466,4.059916,49.953009,49.952149
49.264815,3.504156,,C16,PA00115504,Q2968653,Ancien château de Branges,3,1928-02-08 ,fr:Château de Branges,3.503431,3.504881,49.265245,49.264385
49.4031,3.7147,,C17,PA00115647,Q2820573,Ancienne abbaye de Cuissy,3,1928-02-08 ,fr:Abbaye de Cuissy,3.713975,3.715425,49.40353,49.40267
49.179689,3.224104,,C13,PA00115805,Q2969809,Ancien château,,,fr:Château de Marizy-Saint-Mard,3.223379,3.224829,49.180119000000005,49.179259
49.5131,3.535,,C16,PA00115891,Q2968814,Ancien château,,,fr:Château de Chailvet,3.534275,3.5357250000000002,49.51353,49.51267
44.0729,5.9891,building,C20,PA04000023,Q22995537,Maison en bois à portique appelée aussi chalet,3,2001-03-19 ,,5.988375,5.989825,44.07333,44.072469999999996
44.186722,6.6316111,bridge,C18,PA00080374,Q3396562,Pont Haut,3,1948-12-29 ,fr:Pont Haut,6.6308861,6.6323361,44.187152000000005,44.186292
43.812258,5.7496,city_gate,,PA00080446,Q3398958,Porte de l'enceinte (ancienne),3,1937-10-27 ,fr:Porte Saint-Joseph de Pierrevert,5.748875,5.750325,43.812688,43.811828
44.446333,6.3732778,fort,C17,PA00080479,Q3077895,Fort Joubert ou Fort Saint-Vincent,2,1994-07-18 ,fr:Fort Joubert,6.3725528,6.3740028,44.446763000000004,44.445903
44.027036677949,6.3870799541473,castle,C16,PA00080369,Q2968998,Château (ruines),3,1978-03-01 ,fr:Château de Clumanc,6.3863549541473,6.3878049541473,44.027466677949,44.026606677949
43.8339084,5.7825263,building,C18,PA00080425,Q3146001,Hôtel de ville,3,1946-09-05 ,fr:Hôtel de ville de Manosque,5.7818013,5.7832513,43.8343384,43.8334784
43.895222,6.5066667,archaeological_site,megalith,PA00132925,Q3034128,Dolmen des Pierres Blanches,3,1994-07-25 ,fr:Dolmen des Pierres Blanches,6.5059417,6.5073917,43.895652,43.894791999999995
43.8028,5.6965,castle,C16,PA04000027,Q2967990,Château Sainte-Marguerite,3,2005-09-20 ,fr:Château Sainte-Marguerite,5.695775,5.697225,43.80323,43.802369999999996
44.393898,6.678302,place_of_worship,christian,PA00080392,Q3533555,,2,1913-07-22 ,fr:Tour de l'Horloge (Faucon-de-Barcelonnette),6.677577,6.6790270000000005,44.394328,44.393468
43.9542,5.7847,monastery,C16,PA04000010,Q3402929,Prieuré et chapelle Saint-Pancrace,3,1997-10-14 ,fr:Prieuré Saint-Pancrace,5.783975,5.785425,43.95463,43.95377
44.081566,6.224066,building,C20,PA04000004,Q3279145,Maison d'Alexandra David-Neel du nom tibétain de Samten Dzong (maison de la réflexion),3,1996-06-17 ,fr:Maison d'Alexandra David-Neel,6.223341,6.224791,44.081996000000004,44.081136
44.023850643807,6.3850522041321,tower,yes,PA00080371,Q3533521,"Tour de l'Annonciade, dite aussi Tour de Poriane",3,1989-02-21 ,fr:Tour de l'Annonciade,6.3843272041320995,6.3857772041321,44.024280643807,44.023420643807
43.817687,6.0929493,building,C17,PA04000020,Q22995535,,3,1999-01-19 ,,6.0922243,6.0936743,43.818117,43.817257
43.948889,6.811111,,C12,PA04000005,Q2942250,"Ancienne cathédrale de Glandèves, Notre-Dame de la Sed, dite aussi chapelle de l'Hôpital",3,1996-06-27 ,fr:Cathédrale Notre-Dame-de-la-Sed d'Entrevaux,6.810386,6.8118360000000004,43.949319,43.948459
43.8866,5.6969,,C19,PA04000015,Q3325572,Moulin Delestic dit aussi moulin Agnelier ou de l'Agnelet,3,1993-05-28 ,fr:Moulin Delestic,5.696175,5.697625,43.88703,43.88617
43.9585232,5.7805092999999,building,C14,PA00080399,Q3145719,Hôtel d'Autane,3,1988-09-13 ,fr:Hôtel d'Autane,5.7797842999999,5.7812342999999,43.9589532,43.9580932
44.18031312,6.62369709,bridge,,PA00080375,Q3396740,Pont de Saint-Roch ou Vieux Pont,3,1927-12-08 ,fr:Pont de Saint-Roch,6.62297209,6.62442209,44.18074312,44.17988312
44.100098698062,5.6158590316772,,C19,PA04000007,Q3325623,"Ferme, dite Le Moulin de Giono, située au Contadour",3,1996-06-17 ,fr:Moulin de Giono,5.6151340316772,5.6165840316772,44.100528698062,44.099668698062
43.9585478,5.7805737,building,C17,PA00080398,Q3145398,Hôtel Arnaud (ancien),3,1980-12-24 ,fr:Hôtel Arnaud,5.7798487,5.7812987,43.9589778,43.9581178
44.195444,5.9445556,building,C17,PA00080498,Q3279944,"Maison des Missionnaires de la Croix, puis école de musique",3,1987-06-18 ,fr:Maison des missionnaires de la Croix,5.9438306,5.9452806,44.195874,44.195014
43.9158,5.7419,citywalls,C12,PA00080473,Q3533423,,3,1961-10-25 ,fr:Tour de Porchères,5.741175,5.742625,43.91623,43.915369999999996
43.9587535,5.7810277,fountain,yes,PA00080397,Q3076074,Fontaine Saint-Michel,2,1910-05-21 ,fr:Fontaine Saint-Michel de Forcalquier,5.7803027,5.7817527,43.9591835,43.9583235
44.124917,6.00425,,,PA00080513,Q3402913,Ancien prieuré Saint-Jean-de-Taravon,3,1992-01-30 ,fr:Prieuré Saint-Jean-de-Taravon,6.003525,6.004975,44.125347000000005,44.124487
44.028332642842,5.9767234325409,building,C17,PA00080432,,Hôtel de Crose et portail Saint-Félix,3,1989-02-21 ,fr:Hôtel de Crose,5.9759984325409,5.9774484325409,44.028762642842004,44.027902642842
43.959111,5.78325,monastery,convent,PA00080395,Q1450288,Couvent des Cordeliers (restes de l'ancien),3,1968-09-12 ,fr:Couvent des Cordeliers de Forcalquier,5.782525,5.783975,43.959541,43.958681
43.859139,5.5947778,bridge,,PA00080364,Q3397581,Pont romain sur le ravin de l'Encreme,2,1862 ,fr:Pont romain de Céreste,5.5940528,5.5955028,43.859569,43.858709
43.835228,5.781761,city_gate,,PA00080428,Q3399092,Porte Soubeyran,3,1933-06-23 ,fr:Porte de Soubeyran,5.781036,5.7824860000000005,43.835658,43.834798
43.956944,5.8336,yes,C12,PA00080444,Q2956966,Chapelle Saint-Pierre (ruines),3,1984-07-11 ,fr:Chapelle Saint-Pierre de Pierrerue,5.832875,5.834325,43.957374,43.956514
44.100306,6.5693056,,C16,PA00080503,Q3397467,Ancien pont d'Ondres dit pont du Moulin sur le Verdon,2,1977-03-25 ,fr:Pont du Moulin (Thorame-Haute),6.5685806,6.5700306,44.100736000000005,44.099876
43.972086,5.672126,citywalls,C15,PA00080450,Q2405491,Rempart,3,1943-07-09 ,fr:Remparts de Revest-des-Brousses,5.6714009999999995,5.672851,43.972516,43.971655999999996
44.3702777778,6.06055555556,,C19,PA04000002,Q3063970,Ancienne fabrique Rolland de plâtre et de chaux,3,1996-06-17 ,fr:Fabrique Rolland,6.05983055556,6.06128055556,44.3707077778,44.3698477778
43.837064,5.983242,fountain,yes,PA00080504,Q3114944,Fontaine publique en pierre dite Grande Fontaine,2,1962-10-25 ,fr:Grande Fontaine de Valensole,5.982517,5.983967,43.837494,43.836634
43.837336,5.983177,place_of_worship,christian,PA00135600,Q3581361,Église paroissiale Saint-Blaise et vestiges de l'ancien prieuré Saint-Mayeul,,,fr:Église Saint-Denis de Valensole,5.982452,5.9839020000000005,43.837766,43.836906
44.0041,6.6401,,C18,PA00080401,Q3355121,Oratoire Saint-Joseph,3,1966-02-03 ,fr:Oratoire Saint-Joseph du Fugeret,6.639375,6.640825,44.00453,44.00367
43.937844,5.767263,monastery,C12,PA00080418,Q3402892,Prieuré Notre-Dame-de-Salagon (ancien),,,fr:Prieuré Notre-Dame de Salagon,5.766538,5.767988,43.938274,43.937414
44.483219,6.750705,,C17,PA00080477,Q3422928,Redoute de Berwick,3,1940-01-29 ,fr:Redoute de Berwick,6.74998,6.75143,44.483649,44.482789
43.9668,6.4377,,C17,PA04000016,Q3491890,Source salée,3,1993-04-01 ,fr:Source salée de Moriez,6.436975,6.4384250000000005,43.96723,43.96637
44.09667,5.79222,monastery,abbey,PA00080462,Q2820311,Abbaye Notre-Dame-de-Lure (restes de l'ancienne),2,1980-07-30 ,fr:Abbaye Notre-Dame de Lure,5.791495,5.7929450000000005,44.097100000000005,44.09624
43.87776919883,5.6613492965698,city_gate,C13,PA00080449,Q3398971,Porte Saint-Pierre,3,1984-12-28 ,fr:Porte Saint-Pierre de Reillanne,5.6606242965698,5.6620742965698,43.87819919883,43.87733919883
44.193639,5.9438056,,C18,PA00080497,Q3145293,Hôpital,3,1989-02-21 ,fr:Hôpital de Sisteron,5.9430806,5.9445306,44.194069,44.193208999999996
43.95046,6.8122,,C17,PA00080386,Q16835436,"Ancienne cathédrale Notre-Dame de l'Assomption, actuellement église paroissiale",2,1996-06-27 ,fr:Cathédrale Notre-Dame-de-l'Assomption d'Entrevaux,6.811475,6.812925,43.95089,43.95003
43.998194,5.9079722,monastery,C12,PA00080404,Q1860484,Prieuré (ancien),,,fr:Monastère de Ganagobie,5.9072472,5.9086972,43.998624,43.997764
44.386542,6.65677,archaeological_site,roman_villa,PA00080354,Q3558469,Villa Bleue,,,fr:Villa Bleue,6.656045,6.657495,44.386972,44.386112
43.9252778,5.7205555555556,yes,C12,PA00080470,Q2956876,Chapelle Saint-Jean,3,1979-04-23 ,fr:Chapelle Saint-Jean de Saint-Michel-l'Observatoire,5.7198305555556,5.7212805555556,43.925707800000005,43.9248478
44.1344,5.6237,,,PA04000024,Q3162825,Ensemble dénommé le Jas des Terres de Roux,3,1993-05-28 ,fr:Jas des Terres de Roux,5.622975,5.6244250000000005,44.13483,44.13397
44.038478,5.627492,,C17,PA00080352,Q3398776,Portail féodal (ancien),3,1927-10-26 ,fr:Portail féodal de Banon,5.626767,5.628217,44.038908,44.038047999999996
44.202611,5.9471667,place_of_worship,christian,PA00080495,Q3585912,Église des Dominicains de la Baume,2,1963-04-04 ,fr:Église des Dominicains de la Baume,5.9464417,5.9478917000000004,44.203041,44.202180999999996
43.8335,5.7894,building,C20,PA04000006,Q3280291,"Maison de Jean Giono, dénommée Le Paraïs",3,1996-03-01 ,fr:Maison « Le Paraïs »,5.788675,5.790125,43.83393,43.83307
44.092727,6.237724,building,C16,PA00080381,Q3145687,Hôtel Thoron de la Robine,2,1982-02-02 ,fr:Hôtel Thoron de la Robine,6.236999,6.238449,44.093157,44.092296999999995
44.092197,6.237281,building,C18,PA00080382,Q22998309,,3,1976-02-04 ,,6.236556,6.238006,44.092627,44.091767
44.0899,6.01223,monastery,C11,PA00080368,Q3402930,Prieuré Saint-Pierre-ès-Liens (restes),3,1978-05-30 ,fr:Prieuré Saint-Pierre-ès-Liens,6.011505,6.012955,44.09033,44.08947
44.351611,6.3544722,,C12,PA00080484,Q2974400,Citadelle (ancienne),,,fr:Citadelle de Seyne,6.3537472,6.3551972,44.352041,44.351181
43.825455784665,6.1297166347504,,,PA00080458,Q3556380,Vestiges antiques correspondant à trois états d'occupation,2,1983-05-06 ,fr:Vestiges antiques de Riez,6.1289916347504,6.1304416347504,43.825885784665005,43.825025784665
43.833728,5.783069,wayside_cross,C16,PA00080421,Q3003357,Croix en pierre située autrefois dans le cimetière Notre-Dame,3,1927-03-19 ,fr:Croix de Manosque,5.782344,5.783794,43.834158,43.833298
43.8347,5.7836,monastery,convent,PA00080419,Q2400234,Couvent des Observantins (restes de l'ancien),3,1977-09-12 ,fr:Couvent des Observantins de Manosque,5.782875,5.784325,43.83513,43.83427
44.0728,5.98918,building,C20,PA04000022,Q22995536,Maison en bois à portique appelée aussi chalet,3,2001-04-26 ,,5.988455,5.989905,44.07323,44.07237
43.952444,6.8135278,citywalls,C14,PA00080387,Q2974378,Fortifications et citadelle,,,fr:Citadelle d'Entrevaux,6.8128028,6.8142528,43.952874,43.952014
44.0642,6.4084,,,PA04000021,Q3491889,Source salée,3,1993-04-01 ,fr:Source salée de Tartonne,6.407675,6.409125,44.06463,44.06377
43.959933,5.780712,building,C15,PA04000018,Q22995531,,3,1999-01-19 ,,5.779987,5.781437,43.960363,43.959503
43.9585,6.73389,bridge,C14,PA00080461,Q15953067,Pont de la Reine Jeanne,3,1928-01-19 ,fr:Pont de la reine Jeanne (Saint-Benoît),6.733165,6.734615,43.95893,43.95807
43.82671,6.1289999000001,building,C15,PA04000019,Q22995533,Maison à encorbellement,3,1999-01-19 ,,6.1282749000001,6.1297249000001,43.82714,43.82628
43.955861719545,6.1736726760864,place_of_worship,christian,PA00080390,Q3580474,Église (ancienne),3,1926-12-02 ,fr:Église Notre-Dame d'Estoublon,6.1729476760864,6.1743976760864,43.956291719545,43.955431719545
44.195333,5.9431111,,,PA00080496,Q3053740,Enceinte (restes de l'ancienne),2,1875 ,fr:Enceinte de Sisteron,5.9423861,5.9438361,44.195763,44.194903
44.2389,6.0169,,C 5,PA00080464,Q3151503,Roche ornée avec inscription gallo-romaine dite la Pierre Ecrite,2,1909-03-10 ,fr:Inscription de la Pierre Écrite,6.016175,6.017625,44.23933,44.23847
43.815861,6.0898056,,C 4,PA00080451,Q2658732,Baptistère dit le Panthéon (chapelle circulaire),2,1840 ,fr:Baptistère de Riez,6.0890806,6.0905306,43.816291,43.815431
43.9811,5.5628,building,C17,PA00080489,Q22998315,,3,1932-06-03 ,,5.562075,5.563525,43.98153,43.980669999999996
43.8267763,6.1289781,building,C15,PA00080456,Q22998314,,2,1986-05-22 ,,6.1282531,6.1297031,43.8272063,43.8263463
44.35046,6.35606,monastery,convent,PA00080485,Q3001713,Couvent des Dominicains (ancien),3,1988-12-02 ,fr:Couvent des Dominicains de Seyne,6.355335,6.356785,44.35089,44.35003
44.115086,6.23149,,C19,PA04000003,Q3552682,Usine à plâtre de Champourcin,3,1996-06-17 ,fr:Usine à plâtre de Champourcin,6.230765,6.232215,44.115516,44.114656
44.166035,6.603585,building,C17,PA00080506,Q2932744,Maison communale,3,1948-11-29 ,,6.60286,6.60431,44.166465,44.165605
43.84797,6.514158,tower,yes,PA00080362,Q3533851,Tour pentagonale du 14s sur une hauteur dominant la ville,2,1921-08-12 ,fr:Tour pentagonale de Castellane,6.513433,6.514883,43.8484,43.847539999999995
44.182028,6.62725,,C17,PA00080373,Q3053728,Enceinte fortifiée de la ville,2,1923-02-12 ,fr:Enceinte de Colmars,6.626525,6.627975,44.182458000000004,44.181598
44.389068,6.654697,archaeological_site,roman_villa,PA00080355,Q3558496,"Villa Costebelle, dans le quartier de l'Adroit",3,1986-02-21 ,fr:Villa Costebelle,6.6539719999999996,6.655422,44.389498,44.388638
43.826209,6.1292183,building,C16,PA00080455,Q3145896,Hôtel de Mazan,2,1988-10-04 ,fr:Hôtel de Mazan,6.1284933,6.1299433,43.826639,43.825779
43.694,6.033,,,PA00080514,Q2821900,Abri Donner,3,1992-04-07 ,fr:Abri Donner,6.032275,6.0337250000000004,43.694430000000004,43.69357
44.0932873983,5.6128978729248,,C20,PA04000008,Q3068928,"Ferme, dite Les Graves, située au Contadour",3,1996-06-17 ,fr:Ferme des Graves,5.6121728729248,5.6136228729248,44.0937173983,44.0928573983
43.831739,5.784011,city_gate,,PA00080427,Q3399135,Porte de la Saunerie,2,1886-07-12 ,fr:Les portes de Manosque,5.7832859999999995,5.784736,43.832169,43.831309
43.8919,5.7295,yes,C12,PA00080469,Q2956669,Chapelle avec son clocher,2,1942-11-13 ,fr:Chapelle Notre-Dame d'Ardène,5.728775,5.730225,43.89233,43.89147
44.094778,6.0095,,C20,PA04000030,Q3323286,Monument aux morts de la guerre de 1914-1918,3,2010-02-22 ,fr:Monument aux morts de Château-Arnoux,6.008775,6.010225,44.095208,44.094348
44.195722,5.9440278,,C17,PA00080494,Q3001654,"Ancien couvent de la Visitation, puis résidence pour personnes âgées des Visitandines et Musée Terre et Temps",3,1984-12-21 ,fr:Couvent de la Visitation de Sisteron,5.9433028,5.9447528,44.196152000000005,44.195292
43.9435,6.1725,,C18,PA00080391,Q3140614,Horloge publique (vieille),3,1941-10-27 ,fr:Horloge publique d'Estoublon,6.171775,6.173225,43.94393,43.94307
43.832079,5.7837208,building,C17,PA00080426,Q22998311,,3,1987-03-10 ,,5.7829958,5.7844458,43.832509,43.831649
43.97119922,6.76019844,bridge,,PA00080460,Q3396986,Pont de Gueydan sur le Colomp,2,1944-02-28 ,fr:Pont de Gueydan,6.75947344,6.76092344,43.971629220000004,43.97076922
43.876389,5.703889,monastery,C12,PA00080507,Q3402885,Prieuré Notre-Dame-du-Largue,3,1989-02-21 ,fr:Prieuré Notre-Dame-du-Largue,5.703164,5.704614,43.876819000000005,43.875959
43.93,5.7564167,bridge,C12,PA00080416,Q2103675,Pont des Trois Arches dit aussi Pont Romain franchissant La Laye (ruines),2,1970-01-28 ,fr:Pont roman de Mane,5.7556917,5.7571417,43.93043,43.92957
43.9375,5.7676,building,C17,PA00080415,Q3145901,Hôtel de Miravail (ancien),,,fr:Hôtel de Miravail,5.766875,5.768325,43.93793,43.93707
43.817429,6.093893,,C14,PA00080457,,Portes (deux anciennes) : Porte d'Ayguières et Porte Saint-Sébastien,2,1921-02-23 ,fr:Porte d'Ayguières,6.0931679999999995,6.094618,43.817859,43.816998999999996
43.871306,5.6168611,monastery,C12,PA00080365,Q3402972,Prieuré de Carluc,,,fr:Prieuré de Carluc,5.6161361,5.6175861000000005,43.871736,43.870875999999996
44.386391,6.646431,,C20,PA04000029,Q3323302,"Monument aux morts de la guerre de 1914-1918, dit aussi Monument aux morts de la Vallée",3,2010-02-22 ,fr:Monument aux morts de la Vallée,6.645706,6.647156,44.386821000000005,44.385961
43.958683,5.781608,building,C16,PA00080400,Q3278805,Maison Jean Rey,3,1943-09-17 ,fr:Maison Jean Rey,5.780883,5.782333,43.959113,43.958253
43.857190508383,5.5894982814789,building,C13,PA00080511,Q22998322,Maison médiévale,,,,5.5887732814788995,5.5902232814789,43.857620508383,43.856760508383
44.199,5.9431111,,C14,PA00080493,Q206260,Citadelle,,,fr:Citadelle de Sisteron,5.9423861,5.9438361,44.19943,44.19857
43.961444,6.6708056,wayside_cross,C10,PA00080351,Q3003285,Croix couverte,2,1928-09-15 ,fr:Croix couverte d'Annot,6.6700805999999995,6.6715306,43.961874,43.961014
43.83125,5.782667,monastery,convent,PA00080420,Q3001647,Couvent de la Présentation (ancien),2,1987-09-15 ,fr:Couvent de la Présentation de Manosque,5.781942,5.783392,43.83168,43.830819999999996
43.959994,5.780836,,C17,PA00080394,Q3001764,Collège (ancien),3,1927-03-09 ,fr:Collège de Forcalquier,5.780111,5.781561,43.960424,43.959564
44.1857,6.0122,farm,C10,PA00080383,Q3068949,Ferme du prieuré de Vilhosc,2,1934-07-12 ,fr:Ferme du prieuré de Vilhosc,6.011475,6.012925,44.18613,44.185269999999996
43.817056,6.0882222,,C1,PA00080453,Q1272940,Quatre colonnes antiques surmontées d'un entablement,2,1840 ,fr:Colonnes de Riez,6.0874972,6.0889472,43.817486,43.816626
44.1971953,5.9448416,building,C16,PA00080499,Q22998317,,3,1948-11-29 ,,5.9441166,5.9455666,44.1976253,44.196765299999996
44.9776,6.5067,yes,C15,PA00080582,Q22998441,"Chapelle Saint-Martin, puis garage",2,1989-12-18 ,,6.505975,6.5074250000000005,44.978030000000004,44.97717
44.7305,6.843,building,C16,PA00080580,Q22998444,,3,1930-10-11 ,,6.842275,6.843725,44.73093,44.73007
44.8992,6.6438,monastery,convent,PA00080526,Q22998386,Couvent des Récollets (ancien) ou ancienne caserne du Muy,3,1978-09-07 ,,6.643075,6.644525,44.89963,44.89877
44.3779,5.5139,monastery,C12,PA00080605,Q3403032,Prieuré (ancien),,,fr:Prieuré de Saint-André-de-Rosans,5.5131749999999995,5.514625,44.37833,44.377469999999995
44.6697,6.6241,,C17,PA00080589,Q22998467,Place-forte,2,1966-10-18 ,,6.623375,6.624825,44.67013,44.66927
44.7339,6.8352,,C15,PA00135710,Q22995413,"Maison, au hameau de la Rua",2,1995-10-12 ,,6.834475,6.8359250000000005,44.73433,44.73347
44.6719,6.2318,castle,manor,PA00080611,Q22998496,Manoir de Prégentil,3,1988-09-13 ,,6.231075,6.232525,44.67233,44.67147
44.5629,6.4954,,C12,PA00080563,Q2446001,Ancien archevêché d'Embrun,,,fr:Tour brune d'Embrun,6.494675,6.496125,44.56333,44.56247
44.9371,6.5955,,,PA00135607,Q22995066,"Maison, à Villard-Late",3,1995-05-31 ,fr:Giovanni Francesco Zarbula,6.594775,6.5962250000000004,44.93753,44.93667
44.5636,6.4949,building,C12,PA00080561,Q22998435,Hôtel des Gouverneurs (ancien),,,,6.494175,6.495625,44.56403,44.56317
45.0459,6.3047,,C12,PA00080573,Q22998452,Ensemble religieux,2,1959-07-10 ,,6.303975,6.3054250000000005,45.046330000000005,45.04547
44.6666,6.7758,,C19,PA00080544,Q22998415,Maison-ferme dite maison Chabrand,2,1991-10-31 ,,6.775075,6.776525,44.667030000000004,44.66617
44.899,6.643,building,C16,PA00080538,Q22998407,"Immeuble dit ancienne maison du Roi, actuellement Palais de Justice",2,1994-10-18 ,,6.642275,6.643725,44.89943,44.89857
44.9439,6.5531,,C17,PA00080624,Q22998514,Maison-Ferme,3,1987-06-29 ,,6.552375,6.553825,44.94433,44.94347
44.794,6.9276,,C17,PA00080516,,Vieille Halle,,,,6.926875,6.928325,44.79443,44.793569999999995
44.4285,5.7147,,C19,PA05000005,Q3333286,Ecole primaire,3,1996-10-03 ,,5.713975,5.715425,44.42893,44.42807
44.4601,6.056,castle,C14,PA00080628,Q21009458,,,,fr:Château de Tallard,6.055275,6.056725,44.46053,44.459669999999996
44.6576,6.6527,yes,C18,PA00080575,Q22998447,Chapelle Notre-Dame-des-Neiges et Saint-Ours,3,1986-10-21 ,,6.651975,6.653425,44.658030000000004,44.65717
44.5652,6.4966,fountain,yes,PA00080557,Q22998431,Fontaine,3,1930-10-11 ,,6.495875,6.497325,44.56563,44.564769999999996
44.4284,5.7146,building,,PA00080626,Q22998516,"Maison dite hôtel de Perrinet, actuellement mairie, ancien hôtel de Lesdiguières",2,1927-05-16 ,,5.713875,5.715325,44.428830000000005,44.42797
44.3179,5.8748,building,C17,PA00080631,Q22998520,Immeuble dit ancien château,,,,5.8740749999999995,5.875525,44.31833,44.31747
44.7854,6.5537,,C17,PA00080646,Q22916155,Ensemble domanial dit Château Saint-Jean,3,1992-05-13 ,,6.552975,6.554425,44.785830000000004,44.78497
44.8774,6.6854,,C20,PA05000010,Q18380153,Téléphérique militaire de Terre Rouge ou des Gondrans (également sur commune de Cervières),3,2003-10-01 ,fr:Téléphérique militaire de Terre Rouge ou des Gondran,6.6846749999999995,6.686125,44.87783,44.87697
44.9517,6.6755,,,PA00135609,Q22995074,"Maison, sise au hameau de Pra-Premier",3,1995-08-02 ,fr:Giovanni Francesco Zarbula,6.674775,6.6762250000000005,44.952130000000004,44.95127
44.8259,6.1446,,C19,PA00080638,Q22998535,Moulin à eau (ancien),3,1983-03-21 ,,6.1438749999999995,6.145325,44.82633,44.825469999999996
44.3322,6.0437,,C18,PA00080568,Q3034419,Domaine de Charance,3,1987-09-08 ,fr:Domaine de Charance,6.042975,6.044425,44.33263,44.33177
44.5526,6.0803,castle,manor,PA00080570,Q22998456,Manoir de Kapados,,,,6.079575,6.081025,44.55303,44.55217
44.8995,6.6433,building,,PA00080537,Q22998405,,3,1932-06-03 ,,6.642575,6.644025,44.899930000000005,44.89907
44.3774,5.5133,tower,yes,PA00080606,Q22998491,Tour carrée et immeuble qui la jouxte,3,1988-02-29 ,,5.512575,5.514025,44.37783,44.37697
44.703,6.8649,,C19,PA05000004,Q22995544,"Maison, sise aux Forannes",3,1996-08-02 ,fr:Giovanni Francesco Zarbula,6.8641749999999995,6.865625,44.703430000000004,44.70257
44.786,6.534,,,PA00132926,Q22975780,Village minier du Fournel,3,1994-10-01 ,,6.533275,6.534725,44.78643,44.78557
44.6634,6.5795,yes,C18,PA00135606,Q22995056,"Chapelle Notre-Dame-des-Neiges, au hameau des Casses",3,1995-02-20 ,,6.578775,6.580225,44.663830000000004,44.66297
44.8697,6.7222,building,C19,PA05000001,Q22995541,,3,1996-06-27 ,fr:Giovanni Francesco Zarbula,6.721475,6.722925,44.87013,44.86927
44.8774,6.6855,,,PA05000011,Q18380153,Téléphérique militaire de Terre Rouge ou des Gondrans,,,,6.684775,6.686225,44.87783,44.87697
44.562779,6.493584,fountain,yes,PA00080560,Q22998434,Fontaine,3,1927-03-19 ,,6.492859,6.494309,44.563209,44.562349
44.7868,6.5541,building,C17,PA00132713,Q22969366,maison Giraud,3,1994-03-25 ,,6.553375,6.554825,44.78723,44.78637
44.5587,6.0795,building,C17,PA00080569,Q22998457,Hôtel de ville,3,1948-11-29 ,,6.078775,6.080225,44.55913,44.55827
44.767,5.9761,castle,C16,PA00080571,Q22998455,Château de Lesdiguières (ruines du),3,1978-07-27 ,fr:Château de Lesdiguières,5.975375,5.976825,44.767430000000004,44.76657
44.3147,5.8227,,C17,PA05000003,Q22995543,Ancien château de Laragne,3,1996-08-02 ,,5.821975,5.823425,44.31513,44.31427
44.4523,5.8418,,C12,PA00135608,Q20725719,Ancienne abbaye de Clausonne,3,1995-06-26 ,fr:Abbaye de Clausonne,5.841075,5.842525,44.45273,44.45187
44.8696182,6.7212812,,C18,PA05000018,Q22995556,Maison-ferme dite maison Faure-Vincent,3,2011-05-11 ,,6.7205562,6.7220062,44.8700482,44.869188199999996
44.8888,6.6522,fort,C18,PA00080532,Q3078372,Fort du Randouillet,,,fr:Fort du Randouillet,6.651475,6.652925,44.889230000000005,44.88837
44.5645,6.4957,building,C14,PA05000002,Q22995542,,3,1996-02-16 ,,6.494975,6.496425,44.564930000000004,44.56407
44.556,6.0769,building,C19,PA00080642,Q22998547,,3,1989-09-19 ,,6.076175,6.077625,44.55643,44.555569999999996
44.8892,6.6607,,,PA00080541,Q22998411,Redoute du Point du Jour et ensemble des terrains nus attenants,3,1986-10-21 ,,6.659975,6.661425,44.889630000000004,44.88877
44.5635,6.4937,fountain,yes,PA00080559,Q22998433,Fontaine,3,1948-11-29 ,,6.4929749999999995,6.494425,44.56393,44.563069999999996
44.7658,6.7789,,,PA00135602,Q22995029,"Maison, sise Clot du Riou à Souliers",3,1995-08-02 ,fr:Giovanni Francesco Zarbula,6.778175,6.779625,44.76623,44.76537
44.8906,6.6252,,,PA00135605,Q22995047,"Maison, au Pinet",3,1995-03-21 ,fr:Giovanni Francesco Zarbula,6.624475,6.6259250000000005,44.89103,44.89017
44.8988,6.6473,bridge,C18,PA00080540,Q3396820,Pont d'Asfeld sur la Durance,2,1988-12-05 ,fr:Pont d'Asfeld,6.646575,6.6480250000000005,44.89923,44.89837
44.9049,6.6518,fort,C18,PA00080533,Q3078326,Fort des Salettes,,,fr:Fort des Salettes,6.651075,6.652525,44.90533,44.904469999999996
44.8995,6.6434,fountain,yes,PA00080530,Q22998396,Fontaine des Soupirs,3,1930-03-18 ,,6.642675,6.644125,44.899930000000005,44.89907
44.5627,6.4946,building,C13,PA00080562,Q22998437,"Maison des Chanonges ou du Chapître, anciennement collège des Chanoines de la cathédrale",2,1988-10-24 ,,6.493875,6.495325,44.56313,44.56227
44.8953,6.6511,fort,C18,PA00080534,Q3078338,Fort des Trois-Têtes,,,fr:Fort des Têtes,6.6503749999999995,6.651825,44.89573,44.89487
44.8989,6.6416,,C17,PA00080536,Q22998403,Anciennes fortifications de la Ville Haute,,,,6.640875,6.6423250000000005,44.89933,44.898469999999996
45.0029,6.6619,,,PA00135604,Q22995039,"Immeuble, sis à Plampinet",3,1995-09-01 ,,6.661175,6.662625,45.00333,45.002469999999995
44.7062,6.6075,place_of_worship,christian,PA00080609,Q22998494,,2,1931-08-18 ,,6.606775,6.608225,44.706630000000004,44.70577
44.6697,6.6243,,,PA00080588,Q22998466,Mesure banale de grains en pierre,3,1944-02-09 ,,6.623575,6.625025,44.67013,44.66927
44.8883,6.6598,fort,,PA00080531,Q22998400,Fort d'Anjou et ensemble des terrains nus attenant,3,1986-10-21 ,,6.659075,6.660525,44.88873,44.88787
44.8985,6.6441,yes,C16,PA00080525,Q2957414,Chapelle des Pénitents Noirs (ancienne),3,1973-07-30 ,fr:Chapelle des Pénitents noirs de Briançon,6.643375,6.644825,44.89893,44.89807
44.5643,6.496,fountain,yes,PA00080558,Q22998432,Fontaine,3,1948-11-29 ,,6.495275,6.4967250000000005,44.564730000000004,44.56387
44.7987,6.5646,,,PA05000012,Q14627616,Ancien cellier dit de la maison Planche,3,1993-02-04 ,fr:Cellier de la maison Planche,6.563875,6.5653250000000005,44.79913,44.798269999999995
44.7658,6.8046,building,,PA00135603,Q22995035,"Maison Thier, sise aux Meyriès",3,1995-05-05 ,,6.803875,6.805325,44.76623,44.76537
44.6689,6.6222,place_of_worship,christian,PA00080587,Q22998464,Église inachevée comprise dans l'ensemble architectural de la place-forte,,,,6.621475,6.622925,44.66933,44.66847
44.7569,6.7902,,C19,PA00135601,Q22995025,"Maison, sise à Château-Queyras",3,1995-02-20 ,,6.7894749999999995,6.790925,44.75733,44.75647
44.3914,5.4711,tower,defensive,PA00080603,Q22998488,Donjon,3,1932-06-03 ,,5.470375,5.471825,44.39183,44.390969999999996
44.5451,6.2766,fountain,yes,PA00080551,Q22998428,Fontaine sur la place,3,1930-10-11 ,,6.275875,6.277325,44.54553,44.544669999999996
44.4291,5.716,building,C16,PA00080627,Q22998517,Maison dite de Lesdiguières,2,2000-12-06 ,,5.715275,5.716725,44.42953,44.42867
44.9,6.6431,building,C16,PA00080539,Q22998409,Maison dite maison du Temple,3,1982-02-05 ,,6.6423749999999995,6.643825,44.90043,44.89957
44.8119,6.559,yes,C14,PA00080635,Q22998527,Chapelle Saint-Claude,3,1983-06-27 ,,6.558275,6.559725,44.81233,44.81147
44.9002,6.6436,building,C17,PA05000008,Q22995545,Maison des Têtes,3,1998-02-18 ,,6.642875,6.644325,44.90063,44.89977
44.5651,6.4957,monastery,convent,PA00080555,Q3001690,Couvent des Cordeliers (ancien),,,fr:Couvent des Cordeliers d'Embrun,6.494975,6.496425,44.56553,44.56467
44.8069,6.5612,,C13,PA00080637,Q22998533,Mur dit des Vaudois,2,1988-10-13 ,,6.560475,6.5619250000000005,44.80733,44.80647
44.794666,6.928049,,C17,PA05000019,Q22995558,Ensemble paroissial d'Abriès,3,2014-02-07 ,,6.927324,6.928774,44.795096,44.794236
44.8921,6.6514,,C18,PA00080527,Q22998388,Communication Y,,,,6.650675,6.652125,44.89253,44.89167
44.00417002,7.55429564,place_of_worship,christian,PA00080721,Q15953527,Église Notre-Dame de la Victoire,2,1949-04-25 ,fr:Église Notre-Dame-de-la-Visitation de Fontan,7.55357064,7.55502064,44.00460002,44.003740019999995
43.5681,7.0616,lighthouse,yes,PA06000044,Q13518338,Phare de Vallauris,3,2012-09-19 ,fr:Phare de Vallauris,7.060875,7.062325,43.56853,43.56767
43.744421,7.422912,,C19,PA00080928,Q13518172,Riviera Palace,3,1989-12-14 ,fr:Riviera Palace (Beausoleil),7.422187,7.423637,43.744851000000004,43.743991
43.745007,7.400885,building,C12,PA00080894,Q22999271,,3,1953-03-05 ,,7.40016,7.40161,43.745437,43.744577
43.98698085,7.55328508,yes,C17,PA00080853,Q15945243,Chapelle des Pénitents Noirs ou de Saint-Claude,3,1974-07-19 ,fr:Chapelle Saint-Claude des Pénitents noirs de Saorge,7.55256008,7.55401008,43.98741085,43.98655085
44.225609,6.932855,yes,C13,PA00080837,Q2957036,"Chapelle Saint-Erige, à Auron",2,2000-03-27 ,fr:Chapelle Saint-Érige d'Auron,6.93213,6.93358,44.226039,44.225179
43.86575,6.80297222,place_of_worship,christian,PA00080723,Q15953950,,3,1936-12-12 ,fr:Église Saint-Sauveur de Gars,6.80224722,6.80369722,43.86618,43.86532
43.727506,7.112872,yes,C20,PA00080911,Q1062726,"Chapelle des Dominicaines, dite aussi chapelle du Rosaire",3,1965-12-28 ,fr:Chapelle du Rosaire de Vence,7.112147,7.113597,43.727936,43.727076
43.87812388,7.45091112,fountain,yes,PA00080867,Q22999240,Fontaine circulaire,3,1949-12-10 ,,7.45018612,7.45163612,43.87855388,43.877693879999995
43.9401389,7.50461111,yes,C12,PA00080671,Q13518507,Chapelle Notre-Dame-des-Monts,2,1978-12-28 ,fr:Chapelle Notre-Dame-des-Monts de Breil-sur-Roya,7.50388611,7.50533611,43.9405689,43.9397089
43.69510438,7.12334685,citywalls,C13,PA00080847,Q15953236,Remparts et cimetière avoisinant,2,1945-02-20 ,fr:Remparts de Saint-Paul-de-Vence,7.12262185,7.12407185,43.69553438,43.694674379999995
43.50523549,7.04781119,castle,,PA00080693,Q15952779,Château fort ou ancien monastère de Lérins,2,1840 ,fr:Monastère fortifié de l'abbaye de Lérins,7.04708619,7.04853619,43.50566549,43.504805489999995
43.9018611,7.51441667,yes,C19,PA00080963,Q13518197,Chapelle Notre-Dame de la Visitation ou chapelle des Pénitents,3,1992-04-07 ,fr:Chapelle Notre-Dame-de-la-Visitation de Piène-Haute,7.51369167,7.51514167,43.9022911,43.901431099999996
44.0623611,7.65427778,yes,C12,PA00080680,Q7111011,Chapelle Notre-Dame-des-Fontaines,2,1951-05-22 ,fr:Chapelle Notre-Dame-des-Fontaines de la Brigue,7.65355278,7.65500278,44.0627911,44.061931099999995
43.944231,7.513868,tower,bell_tower,PA00080674,Q13516856,Clocher Saint-Jean,3,1935-10-18 ,fr:Clocher Saint-Jean de Breil-sur-Roya,7.513143,7.5145930000000005,43.944661,43.943801
43.7227738,7.112655,fountain,yes,PA00080917,Q15948827,Fontaine publique,2,1920-10-05 ,fr:Fontaine du Peyra,7.11193,7.11338,43.7232038,43.7223438
44.076111,7.438333,,,PA00080881,Q22999258,Gravures rupestres de la vallée des Merveilles et de la région du Mont Bégo,,,fr:Vallée des Merveilles,7.437608,7.439058,44.076541,44.075680999999996
43.674493,6.945725,archaeological_site,roman_villa,PA00125703,Q22969133,"Villa d'Andon, située quartier Magagnosc",2,1995-10-12 ,,6.945,6.9464500000000005,43.674923,43.674063
44.06807806,7.25559635,castle,C17,PA00080842,Q15952117,Château Gubernatis ou palais Gubernatis,3,1933-06-06 ,fr:Maison Gubernatis (Saint-Martin-Vésubie),7.25487135,7.25632135,44.06850806,44.067648059999996
43.7767278,7.5045365,,C20,PA00080956,Q14627572,Ancienne villa les Mouettes,3,1990-09-19 ,fr:Villa Les Mouettes,7.5038115,7.5052615000000005,43.777157800000005,43.7762978
43.94604889,7.18423342,building,,PA00080885,Q22999261,,3,1927-05-02 ,,7.18350842,7.18495842,43.94647889,43.94561889
43.87775495,7.44750899,fountain,yes,PA00080865,Q15948821,Fontaine,3,1939-05-19 ,fr:Fontaine de la Cabraïa,7.44678399,7.44823399,43.878184950000005,43.87732495
44.0837987,7.59269388,yes,C18,PA00080877,Q15945281,Chapelle de l'Annonciation,2,1950-03-24 ,fr:Chapelle de l'Annonciation de Tende,7.59196888,7.59341888,44.084228700000004,44.0833687
43.8719444,6.96463889,fountain,yes,PA00080860,Q13516821,Fontaine publique,3,1927-02-28 ,fr:Fontaine de Sigale,6.96391389,6.96536389,43.8723744,43.871514399999995
43.7373,7.258779,place_of_worship,christian,PA00080789,Q15953949,Église de Gairaut,3,1951-06-25 ,fr:Église Saint-Sauveur de Gairaut,7.258054,7.259504,43.73773,43.736869999999996
43.9167587,7.2477821,place_of_worship,christian,PA00080900,Q3584701,Église Saint-Veran,2,1963-12-05 ,fr:Église Saint-Véran (Utelle),7.2470571,7.2485071,43.917188700000004,43.9163287
44.255635,6.926112,place_of_worship,christian,PA00080838,Q3584826,Église des Dignitaires ou Saint-Etienne,,,fr:Église Saint-Étienne de Saint-Etienne-de-Tinée,6.925387,6.926837,44.256065,44.255205
43.621133,7.094937,,,PA00080669,Q15953404,Monument romain dit La Tour de la Chèvre d'Or,2,1943-09-02 ,fr:Tour de la Chèvre d'Or,7.094212,7.095662,43.621563,43.620703
43.60567384,7.06765783,,C1,PA00080649,Q2859215,Aqueduc de Clausonnes (restes) (également sur commune de Valbonne),3,1936-07-25 ,fr:Aqueduc de Clausonnes,7.06693283,7.06838283,43.60610384,43.60524384
43.8835,7.3613,building,C13,PA00080758,Q22916193,,3,1932-10-21 ,,7.360575,7.362025,43.88393,43.88307
44.283405,6.866867,place_of_worship,christian,PA00080834,Q3581310,Église paroissiale Saint-Dalmas,3,1988-02-29 ,fr:Église Saint-Dalmas de Saint-Dalmas-le-Selvage,6.866142,6.867592,44.283835,44.282975
43.87799031,7.44917126,,C12,PA00080876,Q13518426,Vieux pont et tour qui le surmonte,2,1924-07-08 ,fr:Vieux Pont de Sospel,7.44844626,7.44989626,43.87842031,43.87756031
43.725833,7.300833,,,PA00080971,Q508362,Observatoire d'astronomie du Montgros,,,fr:Observatoire de Nice,7.300108,7.301558,43.726263,43.725403
43.628199,7.096397,yes,C15,PA00080667,Q13516905,Chapelle Saint-Roch,3,1949-12-10 ,fr:Chapelle Saint-Roch de Biot,7.0956719999999995,7.097122,43.628629000000004,43.627769
43.877004,7.447452,yes,C16,PA00080861,Q15945283,Chapelle des Pénitents Gris,3,1952-04-17 ,fr:Chapelle de l'Immaculée-Conception des Pénitents gris de Sospel,7.446727,7.448177,43.877434,43.876574
43.7536,7.381764,,C16,PA00080888,Q3216163,Sanctuaire de Laghet,3,1931-01-12 ,fr:Laghet,7.381039,7.3824890000000005,43.75403,43.75317
44.252615,6.928199,yes,C15,PA00080949,Q2957006,Chapelle Saint-Sébastien,2,2000-03-27 ,fr:Chapelle Saint-Sébastien de Saint-Étienne-de-Tinée,6.927474,6.928924,44.253045,44.252185
43.78661257,7.27605176,place_of_worship,christian,PA00080887,Q3585264,,3,1937-09-15 ,fr:Église Sainte-Rosalie de Tourrette-Levens,7.27532676,7.27677676,43.787042570000004,43.78618257
43.5773286,7.1260875,citywalls,,PA00080660,Q15945158,Remparts et demi-bastion 17 dit Fort Saint-André,3,1930-01-23 ,fr:Bastion Saint-André (Antibes),7.1253625,7.1268125,43.5777586,43.5768986
43.687703,7.234733,,,PA00125705,Q3360981,"Ancienne villa les Palmiers, actuellement Archives municipales, et son parc, actuellement parc des Grands Cèdres",3,1993-06-23 ,fr:Palais de Marbre (Nice),7.234008,7.235458,43.688133,43.687273
43.7448,7.40181,yes,C1,PA00080897,Q747588,"Ruines du Trophée d'Auguste, actuellement Musée du Trophée d'Auguste",2,1865-05-13 ,fr:Trophée des Alpes,7.401085,7.402535,43.74523,43.744369999999996
43.95819433,7.21169952,yes,C14,PA00080883,Q13518442,Chapelle Saint-Jean-Baptiste,2,1943-09-14 ,fr:Chapelle Saint-Jean-Baptiste de La Tour,7.21097452,7.21242452,43.95862433,43.957764329999996
43.98489129,7.55508545,,C17,PA00080855,Q15952778,Ancien couvent des Franciscains,2,1917-04-14 ,fr:Monastère de Saorge,7.55436045,7.55581045,43.98532129,43.98446129
43.70598624,7.31123093,citywalls,C13,PA00080923,Q22999286,Remparts (vestige dit Le Bastionnet),3,1959-10-07 ,,7.31050593,7.31195593,43.70641624,43.70555624
44.0680556,7.25591667,place_of_worship,christian,PA06000006,Q15953523,Église paroissiale Notre-Dame de l'Assomption,3,1997-09-17 ,fr:Église Notre-Dame-de-l'Assomption de Saint-Martin-Vésubie,7.25519167,7.2566416700000005,44.0684856,44.0676256
44.0535833,7.25302778,yes,C15,PA00080950,Q2957007,"Chapelle Saint-Sébastien, dite Sainte-Claire",2,2000-05-26 ,fr:Chapelle Saint-Sébastien de Venanson,7.25230278,7.25375278,44.0540133,44.0531533
43.6972,7.12210722,place_of_worship,christian,PA00080844,Q2984049,Église de la Conversion de Saint-Paul,2,1921-09-02 ,fr:Collégiale de la Conversion-de-Saint-Paul de Saint-Paul-de-Vence,7.12138222,7.12283222,43.697630000000004,43.69677
43.7769699,7.5071356,place_of_worship,christian,PA00080762,,"Église Saint-Michel, chapelle de la Conception et leurs abords",,,fr:Basilique Saint-Michel-Archange,7.5064106,7.5078606,43.7773999,43.776539899999996
43.694678,7.258025,building,C20,PA00080797,Q743147,Immeuble de l'Hôtel Negresco,2,2003-06-13 ,fr:Hôtel Negresco,7.2573,7.25875,43.695108000000005,43.694248
43.6752,7.3269,lighthouse,yes,PA06000043,Q3378555,Phare du Cap Ferrat,2,2012-09-13 ,fr:Phare du cap Ferrat,7.326175,7.327625,43.67563,43.674769999999995
43.8133056,7.31011111,,C19,PA00080714,Q15948831,Site de l'ancienne forge,,,fr:Forge de Contes,7.30938611,7.31083611,43.8137356,43.8128756
43.577541,7.1261,,,PA00080658,Q13518447,Monument romain provenant de Biot,2,1945-04-19 ,fr:Monument romain provenant de Biot,7.125375,7.126825,43.577971,43.577110999999995
44.243143,6.936664,yes,C16,PA00080948,Q2956919,Chapelle Saint-Maur,2,2000-03-27 ,fr:Chapelle Saint-Maur de Saint-Étienne-de-Tinée,6.935939,6.9373890000000005,44.243573000000005,44.242713
43.721846626727,7.1038815379143,wayside_cross,C17,PA00080951,Q22999292,Calvaire,3,1989-12-14 ,,7.1031565379143,7.1046065379143,43.722276626727,43.721416626727
44.07001607,7.1701774,place_of_worship,christian,PA00080904,Q15953691,Église Saint-Jacques-de-la-Bolline,3,1932-04-19 ,fr:Église Saint-Jacques-le-Majeur de La Bolline Valdeblore,7.1694524,7.1709024,44.07044607,44.06958607
44.06447123,7.63018914,bridge,C18,PA00080685,Q3397431,Pont du Coq sur la Lévanza,3,1987-11-03 ,fr:Pont du Coq,7.62946414,7.63091414,44.064901230000004,44.06404123
43.696383,7.275092,castle,palace,PA00132718,Q3361109,"Palais de la Préfecture, ancien palais des rois de Sardaigne",,,fr:Palais des ducs de Savoie,7.274367,7.275817,43.696813,43.695952999999996
43.937056,7.517347,city_gate,,PA00080677,Q15953109,Porte d'Italie,3,1986-10-21 ,fr:Porte de Gênes (Breil-sur-Roya),7.516622,7.518072,43.937486,43.936626
43.8781,7.4507,building,C15,PA00080871,Q22999244,,3,1931-01-12 ,,7.449975,7.451425,43.878530000000005,43.87767
44.227177,6.934792,,,PA00080836,Q22916205,Edicule dit Pilon d'Auron,3,1928-01-27 ,,6.934067,6.935517,44.227607,44.226746999999996
43.696294,7.262658,,C19,PA00080786,Q2396560,Colonne en marbre blanc,2,1906-12-26 ,fr:Colonne du pape,7.261933,7.263383,43.696724,43.695864
44.257453,6.922249,,C17,PA00080835,Q13516903,"Ancien couvent des Trinitaires de Saint-Salaire, devenu collège Jean Franco",,,fr:Ancien couvent des Trinitaires,6.921524,6.922974,44.257883,44.257023
43.7262982,7.1338531,,C20,PA06000017,Q273463,Ecole Freinet,3,2001-11-06 ,fr:École Freinet,7.1331280999999995,7.1345781,43.726728200000004,43.7258682
43.877075,7.448884,castle,palace,PA00080875,Q22999255,Palais de la Gabelle (ancien),3,1949-12-10 ,,7.4481589999999995,7.449609,43.877505,43.876644999999996
43.6139296,7.1068883,,C18,PA00080650,Q22916159,Bastide du Roy,,,,7.1061632999999995,7.1076133,43.6143596,43.6134996
44.284405,6.864926,yes,C15,PA06000007,Q2957110,Chapelle Sainte-Marguerite,2,2000-01-20 ,fr:Chapelle Sainte-Marguerite de Saint-Dalmas-le-Selvage,6.8642009999999996,6.865651,44.284835,44.283975
44.0627222,7.61380556,yes,C17,PA00080682,Q15945346,Chapelle supérieure de l'Annonciation ou chapelle des Pénitents Blancs d'en-haut,2,1949-03-03 ,fr:Chapelle supérieure de l'Annonciation de La Brigue,7.61308056,7.61453056,44.063152200000005,44.0622922
43.8503056,7.16119444,castle,C13,PA00080724,Q15944477,Château (ruines),3,1933-06-28 ,fr:Château de Gilette,7.16046944,7.16191944,43.8507356,43.8498756
43.7303151,7.3500359,archaeological_site,fortification,PA06000002,Q22995560,Oppidum du Castellar,3,1996-09-05 ,fr:Oppidum du Castellar,7.3493109,7.3507609,43.7307451,43.7298851
43.8343178,7.3549283,place_of_worship,christian,PA00080718,Q12951275,,2,1978-12-28 ,fr:Église Saint-Pierre-ès-Liens de l'Escarène,7.3542033,7.3556533,43.8347478,43.8338878
43.696186,7.276382,yes,C16,PA00080783,Q807839,Chapelle Saint-Jaume ou Saint-Jacques-le-Majeur ou Saint-Giaume ou Sainte-Rita,2,1942-02-03 ,fr:Église de l'Annonciation de Nice,7.275657,7.277107,43.696616,43.695755999999996
43.62668,7.09982,place_of_worship,christian,PA00080668,Q3585141,Église Sainte-Marie-Madeleine,2,1984-12-05 ,fr:Église Sainte-Marie-Madeleine de Biot,7.099095,7.100545,43.62711,43.62625
43.8594444,7.22566667,citywalls,,PA00080752,Q13516879,Rempart,3,1942-07-04 ,fr:Rempart de Levens,7.22494167,7.22639167,43.8598744,43.8590144
43.6574625,6.9233405,,C20,PA06000032,Q22995569,Monument à Léon Chiris,3,2009-07-23 ,,6.9226155,6.9240655,43.6578925,43.6570325
43.685307,7.234953,place_of_worship,christian,PA00080790,Q15954021,Église Sainte-Hélène,3,1951-06-25 ,fr:Église Sainte-Hélène de Nice,7.234228,7.235678,43.685737,43.684877
43.74350214,7.31444172,place_of_worship,christian,PA06000025,Q15714117,Église paroissiale de Sainte-Trinité,3,2004-03-11 ,fr:Église de la Très-Sainte-Trinité de La Trinité,7.3137167199999995,7.31516672,43.74393214,43.743072139999995
43.5511797,7.0458551,,C20,PA00080931,Q13518185,Parc et jardins de Champfleuri,3,1990-04-03 ,fr:Villa Champfleuri,7.0451301,7.0465801,43.5516097,43.5507497
44.0937448,7.0517124,castle,C12,PA00080827,Q15944484,Château (restes),3,1941-12-22 ,fr:Château de Roubion,7.0509874,7.0524374000000005,44.094174800000005,44.0933148
43.7039444,7.31113889,place_of_worship,christian,PA00080921,Q15953852,Église paroissiale Saint-Michel,2,1990-06-26 ,fr:Église Saint-Michel de Villefranche-sur-Mer,7.3104138899999995,7.31186389,43.7043744,43.703514399999996
43.78360759,7.27648114,castle,C13,PA00080886,Q2970827,Château et son enceinte fortifiée,3,1937-09-15 ,fr:Château de Tourette-Levens,7.2757561399999995,7.27720614,43.784037590000004,43.78317759
43.65624709,7.09881904,tower,yes,PA00080953,Q15940450,Tour de la Madone,3,1989-12-14 ,fr:Tour de la Madone (Villeneuve-Loubet),7.09809404,7.0995440400000005,43.65667709,43.65581709
43.722778,7.113889,,C11,PA00080910,Q912245,Ancienne cathédrale de la Nativité-de-Notre-Dame,2,1944-01-03 ,fr:Cathédrale de la Nativité-de-Marie de Vence,7.113164,7.114614,43.723208,43.722348
43.87834067,7.44936532,fountain,yes,PA00080866,Q13516907,Fontaine sise sous les arcades,3,1949-12-10 ,fr:Fontaine Souta Loggia,7.44864032,7.45009032,43.87877067,43.87791067
43.74799051,7.41071115,,C18,PA00080890,,Carrière romaine du Mont de Justice,,,fr:Carrière romaine du Mont Justicier,7.40998615,7.41143615,43.74842051,43.74756051
43.9366111,7.09766667,place_of_worship,christian,PA00080919,Q15953712,,3,1983-03-08 ,fr:Église Saint-Jean-Baptiste de Villars-sur-Var,7.09694167,7.09839167,43.9370411,43.9361811
44.0620833,7.61480556,,C12,PA00080683,Q15944475,Chateau des Seigneurs (restes),3,1949-02-02 ,fr:Château des Seigneurs de la Brigue,7.61408056,7.61553056,44.0625133,44.061653299999996
43.8119167,7.31466667,fountain,yes,PA00080713,Q13518386,Fontaine publique,2,1906-11-07 ,fr:Fontaine de Contes,7.31394167,7.31539167,43.8123467,43.811486699999996
43.8645,6.75733333,yes,C12,PA00080678,Q15945253,Chapelle Saint-Martin,3,1936-12-12 ,fr:Chapelle Saint-Martin de Briançonnet,6.75660833,6.75805833,43.86493,43.86407
43.689794,7.229538,,C20,PA00132715,Q13518764,"Demeure dite abbaye de Roseland, quartier de Fabron",2,1996-09-03 ,fr:Abbaye de Roseland,7.228813,7.230263,43.690224,43.689364
43.60661153,7.06692164,,,PA06000042,Q15948713,Domaine des Trois Moulins de la Valmasque,,,fr:Domaine des Trois Moulins de la Valmasque,7.06619664,7.06764664,43.607041530000004,43.60618153
43.87747737,7.44651936,,C16,PA00080869,Q22999242,Hospice (ancien),3,1931-02-02 ,,7.44579436,7.44724436,43.87790737,43.87704737
44.0903,7.04545,yes,C16,PA00080826,Q15945265,Chapelle Saint-Sébastien,2,1948-03-16 ,fr:Chapelle Saint-Sébastien de Roubion,7.044725,7.046175,44.09073,44.08987
43.6300833,7.11875,castle,manor,PA00080952,Q2970917,Manoir de Vaugrenier,2,1992-01-30 ,fr:Château de Vaugrenier,7.118025,7.119475,43.630513300000004,43.6296533
43.6996977695,7.3094701766968,,C17,PA00080960,Q3016578,Port de la Darse (bâtiments et éléments d'infrastructure),3,1991-02-11 ,fr:Darse de Villefranche-sur-Mer,7.3087451766968,7.3101951766968005,43.7001277695,43.6992677695
43.7257311,6.7859781,archaeological_site,megalith,PA00080719,Q15948636,Dolmen des Claps,2,1921-08-08 ,fr:Dolmen des Claps,6.7852531,6.7867031,43.7261611,43.725301099999996
43.685655,7.1031027,monastery,abbey,PA00080710,Q13516817,Abbaye du Canadel,3,1927-01-24 ,fr:Abbaye du Canadel,7.1023777,7.1038277,43.686085,43.685224999999996
44.08980556,7.085722222,yes,C16,PA00080828,Q2957002,Chapelle Saint-Sébastien,2,1989-08-28 ,fr:Chapelle Saint-Sébastien de Roure,7.084997222,7.086447222,44.09023556,44.08937556
43.946292,7.184149,place_of_worship,christian,PA00080884,Q3582815,Église Saint-Martin,2,1943-05-25 ,fr:Église Saint-Martin de La Tour,7.183424,7.184874,43.946722,43.945862
43.69073,7.294788,,,PA00080796,Q1547643,Grotte préhistorique du Lazaret,2,1963-03-21 ,fr:Grotte du Lazaret,7.2940629999999995,7.295513,43.69116,43.6903
43.758278,7.473493,tomb,C1,PA00080823,Q15952739,Tombeau romain,2,1951-06-12 ,fr:Mausolée de Lumone,7.472768,7.4742180000000005,43.758708,43.757847999999996
43.8718611,6.96444444,place_of_worship,christian,PA00080859,Q13443088,Église des Templiers,3,1927-12-08 ,fr:Église Saint-Michel de Sigale,6.96371944,6.96516944,43.8722911,43.871431099999995
43.8804722,7.35630556,yes,C15,PA00080755,Q2956840,Chapelle Saint-Grat,2,1928-02-27 ,fr:Chapelle Saint-Grat de Lucéram,7.35558056,7.35703056,43.8809022,43.8800422
43.98797592,7.55122244,yes,C17,PA00080854,Q15945266,Chapelle des Pénitents Rouges ou de Saint-Sébastien,3,1974-07-19 ,fr:Chapelle Saint-Sébastien des Pénitents rouges de Saorge,7.55049744,7.55194744,43.98840592,43.987545919999995
43.50775,7.05397222,,C17,PA00080694,Q15948842,Fours à boulets,2,1908-10-22 ,fr:Fours à boulets des îles de Lérins,7.05324722,7.05469722,43.50818,43.50732
43.7499048,7.2603562,,C19,PA06000029,Q3411269,Pyramide,3,2007-08-07 ,fr:Pyramide de Falicon et grotte de Ratapignata,7.2596312,7.2610812000000005,43.750334800000005,43.7494748
43.696853,7.273499,,,PA00080777,Q2879075,Caserne Lympia (ancienne),3,1943-09-16 ,fr:Bagne de Nice,7.272774,7.274224,43.697283,43.696422999999996
44.25639,6.924924,building,,PA00135613,Q22995090,Maison de Sébastien Fabri,3,1995-07-26 ,,6.924199,6.925649,44.256820000000005,44.25596
44.1425,6.76144444,place_of_worship,christian,PA00080841,Q15953817,,3,1926-05-15 ,fr:Église Saint-Martin de Saint-Martin-d'Entraunes,6.76071944,6.76216944,44.14293,44.14207
43.77837178,7.38210081,fountain,yes,PA00080815,Q13516875,Fontaine publique,3,1941-12-22 ,fr:Fontaine de Peillon,7.38137581,7.38282581,43.77880178,43.77794178
43.8751389,7.07955556,place_of_worship,christian,PA00080817,Q15953967,Église du Vieux Pierrefeu,3,1968-09-24 ,fr:Église Saint-Sébastien-Saint-Martin de Pierrefeu,7.07883056,7.08028056,43.875568900000005,43.8747089
43.77883974,7.38135035,yes,C15,PA00080814,Q13518773,Chapelle des Pénitents blancs ou chapelle Notre-Dame-des-Sept-Douleurs,2,2000-03-27 ,fr:Chapelle Notre-Dame-des-Douleurs de Peillon,7.38062535,7.38207535,43.779269740000004,43.77840974
43.719078,7.276725,,C1,PA00080808,Q3523863,"Thermes romains de Cimiez, dans le domaine de la villa Garin de Cacconata",,,fr:Thermes romains de Cimiez,7.276,7.27745,43.719508000000005,43.718648
43.7828029,7.512272,yes,C19,PA00080760,Q13516898,Chapelle Saint-Jacques,3,1948-11-29 ,fr:Chapelle Saint-Jacques de Menton,7.511547,7.512997,43.7832329,43.7823729
44.088743,7.587756,yes,C14,PA00080879,Q2311348,Chapelle Saint-Sauveur,2,2000-05-26 ,fr:Chapelle Saint-Sauveur de Tende,7.587031,7.588481,44.089173,44.088313
43.9558889,6.89544444,place_of_worship,christian,PA00080944,Q15953522,Église paroissiale Notre-Dame-de-l'Assomption,3,1989-12-14 ,fr:Église Notre-Dame-de-l'Assomption de Puget-Théniers,6.89471944,6.89616944,43.9563189,43.955458899999996
43.5805036,7.121678,building,C17,PA00080657,Q22916166,Immeuble dit Porte de France,3,1928-03-31 ,,7.120953,7.122403,43.5809336,43.5800736
43.720432,7.278662,wayside_cross,C15,PA00080788,Q3003690,Croix en marbre,2,1903-09-26 ,fr:Croix séraphique de Cimiez,7.277937,7.279387,43.720862000000004,43.720002
43.696125,7.262731,wayside_cross,C16,PA00080787,Q3003360,Croix en marbre blanc,2,1906-08-13 ,fr:Croix de Marbre,7.2620059999999995,7.263456,43.696555000000004,43.695695
43.9955278,7.01619444,place_of_worship,christian,PA00080753,Q15954093,,3,1989-04-26 ,fr:Église de la Nativité-de-Notre-Dame de Lieuche,7.0154694399999995,7.01691944,43.9959578,43.995097799999996
43.610478,7.116762,bridge,,PA00080659,Q13516861,Pont romain sur la Brague dit Pont du Bourget,3,1935-09-09 ,fr:Pont du Bourget,7.1160369999999995,7.117487,43.610908,43.610048
43.9030278,7.51569444,place_of_worship,christian,PA00080675,Q15953764,Église Saint-Marc de Piène Haute,3,1987-11-03 ,fr:Église Saint-Marc de Piène-Haute,7.51496944,7.51641944,43.9034578,43.902597799999995
43.701297,7.300175,fort,C16,PA00080795,Q2133894,Fort du Mont-Alban,,,fr:Fort du mont Alban,7.29945,7.3009,43.701727,43.700866999999995
43.8164444,7.21755556,,C19,PA06000019,Q2310539,"Siphon de Saint-Blaise, ouvrage technique remarquable du canal de la Vésubie (également sur commune de Saint-Blaise)",3,2001-11-28 ,fr:Canal de la Vésubie,7.21683056,7.21828056,43.8168744,43.8160144
43.87834067,7.44936532,building,C16,PA00080874,Q22999253,Maisons à arcades,3,1949-12-10 ,,7.44864032,7.45009032,43.87877067,43.87791067
43.87706953,7.44728356,,C13,PA00080870,Q15953013,Immeubles et place Saint-Michel,3,1947-03-18 ,fr:Place Saint-Michel (Sospel),7.44655856,7.44800856,43.87749953,43.87663953
43.8089722,7.29625,place_of_worship,christian,PA00080702,Q3580316,,3,1928-02-03 ,fr:Église Notre-Dame-de-l'Assomption de Villevieille,7.295525,7.296975,43.8094022,43.8085422
43.87866949,7.45015703,yes,,PA00080862,Q15695477,Chapelle Sainte-Croix ou des Pénitents Blancs,3,1949-12-10 ,fr:Chapelle Sainte-Croix de Sospel,7.44943203,7.45088203,43.87909949,43.87823949
44.0628889,7.61369444,place_of_worship,christian,PA00080684,Q3682894,Église paroissiale Saint-Martin,2,1949-03-03 ,fr:Collégiale Saint-Martin de La Brigue,7.61296944,7.61441944,44.0633189,44.062458899999996
43.7217045,7.29717837,archaeological_site,roman_villa,PA06000045,Q17355614,Villa Schmitz,3,2013-10-01 ,fr:Villa Schmitz,7.29645337,7.29790337,43.7221345,43.7212745
43.7454,7.4007,building,C13,PA00080896,Q22999275,,3,1928-02-03 ,,7.3999749999999995,7.401425,43.74583,43.744969999999995
43.678949,7.109736,castle,C16,PA00080711,Q15944481,Château de Montfort dit Le Gaudelet,3,1969-12-26 ,fr:Château de Montfort (La Colle-sur-Loup),7.109011,7.110461,43.679379000000004,43.678519
43.9201389,7.26388889,,C19,PA06000022,Q2310539,"Prise d'eau de Saint-Jean-la-Rivière, ouvrage de tête du canal de la Vésubie",3,2001-11-28 ,fr:Canal de la Vésubie,7.2631638899999995,7.26461389,43.9205689,43.919708899999996
43.93735,7.514117,yes,C18,PA00080673,Q13518513,Chapelle Sainte-Catherinne (ancienne chapelle des Pénitents Blancs),2,1979-06-18 ,fr:Chapelle Sainte-Catherine de Breil-sur-Roya,7.513392,7.514842,43.937780000000004,43.93692
43.630282,6.953489,,C18,PA00080933,Q22999290,Domaine de Saint-Donat,3,1990-04-03 ,,6.952764,6.954214,43.630712,43.629852
44.08346923,7.10437139,place_of_worship,christian,PA00080849,Q15953849,,3,1939-12-12 ,fr:Église Saint-Michel de Saint-Sauveur-sur-Tinée,7.10364639,7.10509639,44.08389923,44.08303923
43.71346638,7.12672266,yes,C15,PA00080913,Q15945277,Chapelle Sainte-Elisabeth,3,1927-01-24 ,fr:Chapelle Sainte-Élisabeth de Vence,7.12599766,7.1274476600000005,43.71389638,43.71303638
43.67324922,6.80808463,archaeological_site,megalith,PA00080947,,Dolmen et tombe en blocs de Mauvans Sud,3,1989-04-26 ,fr:Dolmen de Mauvans Sud,6.80735963,6.80880963,43.673679220000004,43.67281922
44.08369925,7.59257348,yes,C18,PA00080878,Q15945287,Chapelle de la Miséricorde,2,1950-03-24 ,fr:Chapelle de la Miséricorde de Tende,7.59184848,7.5932984800000005,44.084129250000004,44.08326925
43.86025,7.2241667,place_of_worship,christian,PA00080750,Q15953598,,3,1941-12-22 ,fr:Église Saint-Antonin de Levens,7.2234416999999995,7.2248917,43.86068,43.85982
43.87629023,7.44743946,,,PA00080863,Q15714091,Chateau (ancien),3,1933-06-06 ,fr:Château de Sospel,7.44671446,7.44816446,43.876720230000004,43.87586023
43.69695464,7.12221805,tower,yes,PA00080848,Q14628532,Tour du 12s,2,1922-09-23 ,fr:Tour de la mairie,7.12149305,7.12294305,43.69738464,43.69652464
43.5812186,7.1282279,place_of_worship,christian,PA00080653,,"Église paroissiale, chapelle Saint-Esprit et tour Grimaldi",2,1945-10-16 ,fr:Cathédrale Notre-Dame-de-la-Platea d'Antibes,7.1275029,7.1289529,43.5816486,43.5807886
43.8435556,6.85836111,place_of_worship,christian,PA00080759,Q15953575,,3,1937-09-15 ,fr:Église Notre-Dame du Mas,6.85763611,6.85908611,43.8439856,43.8431256
43.5801091,7.1274152,,,PA00080654,Q15948785,Enceinte gréco-romaine (restes),3,1939-02-16 ,fr:Enceinte gréco-romaine d'Antibes,7.1266902,7.1281402,43.5805391,43.5796791
43.590278,7.127222,,,PA00080656,Q88397,Fort-Carré,,,fr:Fort carré,7.126497,7.127947,43.590708,43.589847999999996
43.80281368,7.40279354,,C12,PA00080813,Q15953011,Place Lascaris,3,1942-09-30 ,fr:Place Lascaris,7.40206854,7.40351854,43.80324368,43.80238368
43.72269794,7.1142162,,,PA00080914,Q22999283,Colonnes romaines,2,1886-07-12 ,,7.1134912,7.1149412000000005,43.723127940000005,43.72226794
43.7769389,7.5030586,building,C20,PA00080955,Q22999293,,3,1990-09-19 ,,7.5023336,7.5037836,43.7773689,43.776508899999996
43.656889,6.8315556,archaeological_site,megalith,PA00080946,Q3034004,Dolmen de Colbas I,3,1989-04-26 ,fr:Dolmen de Colbas 1,6.8308306,6.8322806,43.657319,43.656459
