latitude,longitude,historic,start_date,ref:mhs,wikidata,name,heritage,mhs:inscription_date,wikipedia,left,right,top,bottom
46.307202,4.93005,,C13,PA00116298,Q3145122,Hôpital-Hospice (ancien),3,1980-07-04 ,fr:Hôpital-hospice de Bâgé-le-Châtel,4.9293249999999995,4.930775,46.307632,46.306771999999995
46.209463,5.223366,,C19,PA01000014,Q3325614,Moulin de Crève-Coeur,3,2005-05-30 ,fr:Moulin de Crève-Cœur,5.222641,5.2240910000000005,46.209893,46.209033
46.243976,5.351316,castle,C16,PA01000023,Q2969857,Château de Meillonnas,3,2007-07-04 ,fr:Château de Meillonnas,5.350591,5.352041,46.244406000000005,46.243546
46.204612,5.224521,building,C15,PA00116333,Q22966697,,3,1947-07-28 ,"fr:Maison, 7 rue d'Espagne (Bourg-en-Bresse)",5.223796,5.225246,46.205042,46.204181999999996
45.90274191,5.17916641,citywalls,,PA00116524,Q3424623,Rempart attenant à un immeuble,2,1921-11-24 ,fr:Remparts de Pérouges,5.17844141,5.17989141,45.903171910000005,45.90231191
45.903363,5.178647,building,C15,PA00116507,Q3280272,Maison sise face à la porte d'En-Haut,2,1912-05-23 ,fr:Maison Vernay,5.177922,5.179372,45.903793,45.902933
46.003177,5.029507,,C12,PA00116595,Q3401026,Motte féodale dite Poype de Villars,2,1905-02-15 ,fr:Poype de Villars,5.028782,5.030232,46.003607,46.002747
45.90294267,5.18069936,citywalls,C15,PA00116519,,Remparts (restes),3,1929-10-11 ,fr:Remparts de Pérouges,5.17997436,5.18142436,45.90337267,45.90251267
46.05314876,4.84381949,,C14,PA00116608,Q3278556,Maison-forte de Villon,2,1992-10-16 ,fr:Maison-forte de Villon,4.8430944899999995,4.84454449,46.05357876,46.05271876
45.90337039,5.18051167,building,C15,PA00116514,,Maisons et remparts qui en dépendent,2,1921-11-24 ,fr:Grenier à sel (Pérouges),5.1797866699999995,5.18123667,45.90380039,45.90294039
45.719488,5.577219,castle,C15,PA00116409,Q2970907,Château de Varepe,3,1985-09-14 ,fr:Château de Varepe,5.576494,5.5779440000000005,45.719918,45.719058
46.024226,4.991248,castle,C17,PA00116316,Q2968619,,3,1926-11-15 ,fr:Château de Bouligneux,4.990523,4.991973,46.024656,46.023796
46.04335,4.764504,castle,C18,PA00116424,Q2969957,Château de Montbriand,3,1989-01-23 ,fr:Château de Montbriand,4.7637789999999995,4.765229,46.04378,46.042919999999995
45.8978,5.6828,,,PA00116602,Q2859242,Aqueduc romain,2,1840 ,fr:Aqueduc romain de Vieu,5.682075,5.683525,45.89823,45.897369999999995
45.7578,5.6888,,,PA00116310,Q3390351,Place de la cathédrale Saint-Jean,2,1944-12-18 ,fr:Place de la Cathédrale (Belley),5.6880749999999995,5.689525,45.758230000000005,45.75737
46.162872,5.330401,tower,yes,PA01000009,Q3533324,Tour de Deaul (tour résidentielle),3,2003-06-11 ,fr:Tour de Deaul,5.329676,5.331126,46.163302,46.162442
45.870447,5.224171,place_of_worship,christian,PA00116363,Q3585685,,3,1925-12-07 ,fr:Église de l'Assomption de Charnoz-sur-Ain,5.223446,5.224896,45.870877,45.870017
45.903774,5.179847,,C15,PA00116450,,,3,1929-10-11 ,fr:Écurie Thimon,5.179122,5.180572,45.904204,45.903344
45.823871,4.951511,,,PA00116426,Q2934450,Calvaire-fontaine,3,1929-06-25 ,fr:Calvaire-fontaine de Miribel,4.950786,4.952236,45.824301,45.823440999999995
45.903112,5.179634,building,C15,PA00116481,Q3278930,Maison Peychiers,2,1941-08-07 ,fr:Maison Peychiers,5.178909,5.180359,45.903542,45.902682
45.8219,5.1956,place_of_worship,christian,PA00116559,Q1408671,Église Saint-Maurice,2,1909-04-24 ,fr:Église Saint-Maurice de Saint-Maurice-de-Gourdans,5.194875,5.196325,45.82233,45.82147
45.90372322,5.18000876,citywalls,C15,PA00116527,,Rempart attenant à un immeuble,2,1921-11-24 ,fr:Remparts de Pérouges,5.17928376,5.18073376,45.904153220000005,45.90329322
45.903323,5.178513,building,C15,PA00116506,Q22966723,Maison contiguë à la porte d'En-Haut,2,1912-05-23 ,fr:Maison Berges,5.177788,5.179238,45.903753,45.902893
46.07597,5.374201,castle,C19,PA01000019,Q2971413,Château de la Tour,3,2006-07-27 ,fr:Château de la Tour (Ain),5.373476,5.374926,46.0764,46.07554
46.38384,5.34623,place_of_worship,christian,PA00116382,Q3582741,,3,1984-12-28 ,fr:Église Saint-Martin de Coligny,5.345505,5.346955,46.38427,46.38341
45.902786,5.179502,citywalls,,PA00116529,,Rempart attenant à l'immeuble dit maison du sergent de justice,2,1921-11-24 ,fr:Maison du Sergent de Justice,5.178777,5.180227,45.903216,45.902356
45.897595,5.583973,,,PA00132810,Q1572876,Ancienne abbaye de Saint-Sulpice,3,1994-11-17 ,fr:Abbaye de Saint-Sulpice,5.583248,5.584698,45.898025000000004,45.897165
45.941209,4.772723,building,,PA00116587,Q3278772,Maison Guerrier,3,1933-06-06 ,fr:Maison Guerrier,4.771998,4.773448,45.941639,45.940779
46.430359,5.012619,castle,C17,PA00116371,Q2969797,Château de Mareste,3,1969-09-26 ,fr:Château de Mareste,5.011894,5.013344,46.430789000000004,46.429929
46.334545,6.057233,fountain,yes,PA00116406,Q3076132,Fontaine,3,1929-06-25 ,fr:Fontaine de Gex,6.056508,6.057958,46.334975,46.334115
46.070599,4.898049,citywalls,C13,PA01000016,Q3424629,,3,2005-10-19 ,fr:Remparts de Saint-Trivier-sur-Moignans,4.897324,4.898774,46.071029,46.070169
46.307469,5.060738,farm,,PA00116548,Q3068870,Ferme,3,1925-04-30 ,fr:Ferme de Cossiat,5.060013,5.061463,46.307899,46.307038999999996
45.902999,5.18079,city_gate,C15,PA00116517,Q3398998,Porte d'En-Bas,3,1929-10-11 ,fr:Porte d'En-Bas,5.180065,5.181515,45.903429,45.902569
46.03129135,5.6659057,place_of_worship,christian,PA00116530,Q3584862,,3,1973-05-08 ,fr:Église Saint-Étienne du Petit-Abergement,5.6651807,5.6666307,46.03172135,46.030861349999995
45.908428,5.428426,place_of_worship,christian,PA00116381,Q3585519,,3,1969-10-22 ,fr:Église Saint-Martin de Cleyzieu,5.427701,5.429151,45.908858,45.907998
45.807175,5.732535,,C15,PA00116401,Q3464260,Sainte-Fontaine,3,1926-07-09 ,fr:Sainte-Fontaine,5.73181,5.7332600000000005,45.807605,45.806745
45.7781,5.6129,,C16,PA00116551,Q3080001,Four banal,3,1938-08-08 ,fr:Four banal de Meyrieu,5.612175,5.613625,45.77853,45.77767
46.4355,4.9222,farm,,PA00116538,Q3068834,Ferme Coulas,3,1974-11-29 ,fr:Ferme Coulas,4.921475,4.922925,46.43593,46.435069999999996
46.197038,5.062522,place_of_worship,christian,PA00116374,Q3581934,Église Saint-Jean-Baptiste,3,1947-06-23 ,fr:Église Saint-Jean-Baptiste de Chaveyriat,5.061797,5.0632470000000005,46.197468,46.196608
46.369056,4.991055,farm,,PA00116315,Q3068876,Ferme,2,1936-09-21 ,fr:Ferme de Layat,4.99033,4.99178,46.369486,46.368626
46.25438364,6.11375531,building,C18,PA00116398,Q3278952,,3,1986-04-28 ,fr:Maison Racle (Ferney-Voltaire),6.11303031,6.11448031,46.25481364,46.25395364
45.714027,5.560809,castle,,PA00116617,Q2969363,,3,1992-10-05 ,fr:Château de Groslée,5.560084,5.561534,45.714457,45.713597
46.278513,4.892354,monastery,abbey,PA00116389,Q2820570,Abbaye (ancienne),3,1951-01-17 ,fr:Abbaye de Crottet,4.891629,4.893079,46.278943,46.278082999999995
46.188696,5.16801,place_of_worship,christian,PA00116565,Q3584384,,3,1926-10-21 ,fr:Église Saint-Rémy de Saint-Rémy,5.167285,5.168735,46.189126,46.188266
45.78204,5.663152,castle,C15,PA00116603,Q2968070,Château d'Andert,3,1990-07-17 ,fr:Château d'Andert,5.662427,5.663877,45.78247,45.78161
45.99085,4.773324,place_of_worship,christian,PA00116404,Q3584790,Église Saint-Etienne,3,2008-04-09 ,fr:Église Saint-Étienne de Frans,4.772599,4.774049,45.99128,45.99042
45.90379655,5.17904493,building,C15,PA00116495,Q3279022,Maison Thibault,3,1929-10-11 ,fr:Maison Thibault,5.17831993,5.17976993,45.904226550000004,45.90336655
45.903705,5.180054,citywalls,C15,PA00116526,,Rempart attenant à un immeuble dit maison Moschard,2,1921-11-24 ,fr:Maison Moschard,5.179329,5.180779,45.904135000000004,45.903275
46.0764,4.7944,place_of_worship,christian,PA00116287,Q3583620,,3,1969-10-14 ,fr:Église Saint-Pierre-et-Saint-Paul d'Amareins,4.793675,4.7951250000000005,46.07683,46.07597
46.204026,5.226848,building,C15,PA00116330,Q22966695,,3,1947-07-28 ,"fr:Immeuble, 26 rue Victor-Basch (Bourg-en-Bresse)",5.226123,5.2275730000000005,46.204456,46.203596
45.851944,5.057778,place_of_worship,christian,PA00116433,Q3580377,Église Notre-Dame-des-Marais,3,1982-02-17 ,fr:Église Notre-Dame-des-Marais de Montluel,5.057053,5.058503,45.852374000000005,45.851514
46.342336,5.107244,farm,,PA00116438,Q2402828,Ferme de Sougey,2,1946-02-13 ,fr:Ferme du Sougey,5.106519,5.107969,46.342766000000005,46.341906
46.10687722,4.78036436,,C17,PA00116410,Q3424006,relais de poste (ancien),3,1981-04-10 ,fr:Relais de poste de Guéreins,4.77963936,4.78108936,46.10730722,46.10644722
46.371036,5.309315,,,PA01000013,Q3325648,Moulin de Pertuizet,,,fr:Moulin de Pertuizet,5.30859,5.31004,46.371466,46.370605999999995
46.206708,5.221488,building,C16,PA00116323,Q3146049,Hôtel de la Teyssonnière (ancien Hôtel de la Gabelle),3,1947-07-28 ,fr:Hôtel de la Teyssonnière,5.220763,5.222213,46.207138,46.206278
46.060725,5.470308,building,C12,PA00116355,Q2968381,"Maison dite château d'Epierre ou cellier d'Epierre, dépendant de l'ancienne chartreuse de Meyriat",3,2005-05-30 ,fr:Château d'Épierre (Ain),5.469583,5.471033,46.061155,46.060294999999996
46.262378,5.840548,milestone,C17,PA00116360,Q2911144,"Borne frontière, appelée Borne au Lion",2,1926-01-12 ,fr:Borne frontière de la Buna,5.839823,5.841273,46.262808,46.261948
45.90294536,5.18044122,building,C15,PA00116502,Q22966719,,3,1925-01-16 ,,5.1797162199999995,5.18116622,45.90337536,45.902515359999995
46.332673,4.897955,wayside_cross,C15,PA00116394,Q3003440,Croix de chemin,2,1927-11-08 ,fr:Croix de chemin de Feillens,4.8972299999999995,4.89868,46.333103,46.332243
45.850761,5.055063,building,C15,PA00116435,Q22966706,,3,1982-10-05 ,fr:Hôtel de Condé (Montluel),5.0543379999999996,5.055788,45.851191,45.850331
46.185134,4.976202,castle,C17,PA00116612,Q2969729,Château de Longes,3,1991-03-19 ,fr:Château de Longes,4.975477,4.976927,46.185564,46.184703999999996
46.197814,5.123102,place_of_worship,christian,PA00116437,Q3581376,,3,1927-01-28 ,fr:Église Saint-Didier de Montracol,5.122377,5.123827,46.198244,46.197384
46.079002,5.470971,building,C15,PA00116356,Q3279088,,3,1950-12-08 ,fr:Maison au lieu-dit la Suisse,5.4702459999999995,5.471696,46.079432000000004,46.078572
46.069539,5.024099,yes,C14,PA00116364,Q2956559,Chapelle de Beaumont,3,1979-01-22 ,fr:Chapelle Notre-Dame-de-Beaumont de La Chapelle-du-Châtelard,5.023374,5.024824,46.069969,46.069109
45.781445,5.623545,castle,C15,PA01000010,Q2968500,Château de Beauretour,3,2003-09-25 ,fr:Château de Beauretour,5.62282,5.62427,45.781875,45.781015
45.903305,5.180119,building,C15,PA00116503,Q22966720,,2,1921-11-24 ,fr:Maison Herriot,5.179394,5.1808440000000004,45.903735000000005,45.902875
45.782320975035,5.6444592990213,,,PA00116384,Q2935296,Camp préhistorique des Portes,2,1913-07-22 ,fr:Camp des Portes,5.6437342990212995,5.6451842990213,45.782750975035,45.781890975035
46.172368,5.2938,castle,C18,PA00116428,Q2970034,Château de Montplaisant,3,1981-12-28 ,fr:Château de Montplaisant (Montagnat),5.293075,5.294525,46.172798,46.171938
46.018997,5.459282,place_of_worship,christian,PA00116348,Q3582237,,3,1926-07-09 ,fr:Église Saint-Jérôme de Boyeux-Saint-Jérôme,5.458557,5.460007,46.019427,46.018567
45.847527,5.645872,castle,C15,PA00116597,Q2968260,Château d'Honoré d'Urfé,3,1935-03-08 ,fr:Château d'Honoré d'Urfé,5.645147,5.646597,45.847957,45.847097
46.202758,5.227867,building,C15,PA00116340,Q15952637,,3,1947-07-28 ,fr:Maison au 30 rue de la République (Bourg-en-Bresse),5.227142,5.228592,46.203188000000004,46.202328
45.759318,5.686734,building,C18,PA00116304,Q3146055,Hôtel de Province du Bugey (ancien),3,1944-04-13 ,fr:Hôtel de province du Bugey,5.686009,5.6874590000000005,45.759748,45.758888
46.024444444444,5.0877777777778,place_of_worship,christian,PA01000027,Q3584192,Église Saint-Pierre,3,2008-04-09 ,fr:Église Saint-Pierre du Plantay,5.0870527777778,5.0885027777778005,46.024874444444,46.024014444444
45.90312089,5.18066161,building,C15,PA00116486,Q3278981,Maison Ruyssen,3,1929-10-11 ,fr:Maison Ruyssen,5.1799366099999995,5.18138661,45.90355089,45.902690889999995
46.360316,6.000202,,,PA00116425,Q3512788,Zone autour de la table d'orientation de Montrond,2,1936-08-10 ,fr:Table d'orientation de Montrond,5.999477,6.000927,46.360746,46.359885999999996
46.278987,5.040021,castle,C19,PA00132808,Q2969737,Château de Loriol,3,1994-10-20 ,fr:Château de Loriol,5.039296,5.040746,46.279417,46.278557
45.655278,5.644167,building,C20,PA00116609,Q3333154,"Maison dite des Enfants d'Izieu, ou maison d'Izieu, mémorial des enfants juifs exterminés",3,1991-03-26 ,fr:Mémorial des enfants d'Izieu,5.643442,5.6448920000000005,45.655708000000004,45.654848
45.903278,5.179242,building,,PA00116490,Q3279011,Maison Tacani,2,1937-04-19 ,fr:Maison Tacani,5.178517,5.179967,45.903708,45.902848
46.001489,5.030644,place_of_worship,christian,PA00116594,Q3585807,Église de la Nativité-de-la-Sainte-Vierge,3,1927-01-28 ,fr:Église de la Nativité-de-la-Sainte-Vierge de Villars-les-Dombes,5.029919,5.031369,46.001919,46.001059
46.387349,4.956572,farm,,PA00116380,Q3068942,Ferme du Mont,2,1980-07-09 ,fr:Ferme du Mont,4.955847,4.9572970000000005,46.387779,46.386919
46.200894,5.232882,,C18,PA00116322,Q3145273,Hôpital,3,1947-07-28 ,fr:Hôtel-Dieu de Bourg-en-Bresse,5.232157,5.233607,46.201324,46.200464
45.8098,5.7707,building,C14,PA00116418,Q3278737,Maison Gallet,3,1933-04-13 ,fr:Maison Gallet,5.769975,5.771425,45.810230000000004,45.80937
45.864978,5.280099,castle,C13,PA00116556,Q2970598,,3,1984-12-21 ,fr:Château de Sainte-Julie,5.279374,5.280824,45.865408,45.864548
46.0335323,5.42955077,dovecote,yes,PA00116417,Q3533319,Pigeonnier (ancien) dit Tour de Cossieux,3,1984-05-30 ,fr:Tour de Cossieux,5.4288257699999996,5.43027577,46.0339623,46.033102299999996
46.213401,4.912787,place_of_worship,christian,PA00116542,Q3580920,,3,1947-06-23 ,fr:Église Saint-André de Saint-André-d'Huiriat,4.912062,4.913512,46.213831,46.212970999999996
45.828515,4.964104,place_of_worship,christian,PA00116427,Q3582877,Église Saint-Martin (ancienne),2,1928-11-24 ,fr:Église Saint-Martin de Miribel,4.963379,4.964829,45.828945000000004,45.828085
46.263636,4.889183,place_of_worship,christian,PA01000028,Q3580636,Église Notre-Dame,3,2008-04-09 ,fr:Église Notre-Dame de Pont-de-Veyle,4.888458,4.889908,46.264066,46.263206
46.413034,5.022195,farm,,PA00116550,Q3068893,Ferme de Pérignat,2,1981-04-23 ,fr:Ferme de Pérignat,5.02147,5.02292,46.413464000000005,46.412604
45.903546,5.179311,building,,PA00116457,Q22966709,Immeuble dit Hostellerie du Vieux Pérouges,2,1921-11-24 ,fr:Hostellerie du Vieux Pérouges,5.178586,5.180036,45.903976,45.903116
45.903217,5.180406,building,C15,PA00116482,Q3278944,Maison Plantier,2,1921-11-24 ,fr:Maison Plantier,5.1796809999999995,5.181131,45.903647,45.902787
46.25391,4.935504,dovecote,yes,PA00125735,Q3388295,Pigeonnier du Moulin Grand,2,1993-12-17 ,fr:Pigeonnier du Moulin Grand,4.934779,4.936229,46.25434,46.253479999999996
45.853449,5.051994,yes,C13,PA00116432,Q2956770,Chapelle Saint-Barthélémy,3,1930-10-11 ,fr:Chapelle Saint-Barthélémy de Montluel,5.051269,5.052719,45.853879,45.853018999999996
45.903244,5.179124,building,,PA00116460,Q3280053,Immeuble dit Maison du Prince,2,1921-11-24 ,fr:Maison du Prince,5.178399,5.179849,45.903674,45.902814
45.812432,5.72459,place_of_worship,christian,PA00116601,Q3583455,,3,1976-08-30 ,fr:Église Saint-Oyen de Vongnes,5.723865,5.725315,45.812862,45.812002
46.429838,4.93947,building,C18,PA01000006,Q3278953,maison Racle,,,fr:Maison Racle (Pont-de-Vaux),4.938745,4.940195,46.430268,46.429407999999995
46.379475,4.957843,farm,C11,PA00116379,Q3068905,Ferme,3,1925-04-30 ,fr:Ferme de la Bourlière,4.957118,4.9585680000000005,46.379905,46.379045
45.94083,4.774281,building,,PA00116586,Q3279017,,3,1933-07-26 ,fr:Maison Thermac,4.773556,4.775006,45.94126,45.9404
46.140183,4.811164,wayside_cross,,PA00116610,Q2400269,Calvaire,3,1991-07-22 ,fr:Calvaire de Mogneneins,4.810439,4.811889,46.140613,46.139753
45.78822,5.465327,,,PA00116351,Q2859240,Aqueduc romain,2,1904-08-08 ,fr:Aqueduc romain de Briord,5.464602,5.466052,45.788650000000004,45.78779
46.0783,5.4706,,C19,PA01000037,Q3007050,Cuivrerie de Cerdon,3,2013-10-22 ,fr:Cuivrerie de Cerdon,5.469875,5.471325,46.07873,46.07787
45.903661,5.179767,building,C15,PA00116496,Q3279026,Maison Thimon,3,1929-10-11 ,fr:Maison Thimon,5.179042,5.180492,45.904091,45.903231
45.903375,5.18004,building,C15,PA00116510,Q22966726,,3,1929-10-11 ,fr:Maison Massa,5.179315,5.180765,45.903805,45.902944999999995
46.030833333333,4.7583333333333,castle,C17,PA00116393,Q1895555,Château de Fléchères,,,fr:Château de Fléchères,4.7576083333333,4.7590583333333,46.031263333333,46.030403333333
46.21728,4.944146,place_of_worship,christian,PA00116314,Q3580229,,3,1947-06-23 ,fr:Église Saint-Clair de Biziat,4.943421,4.944871,46.217710000000004,46.21685
45.84323,5.778685,,C19,PA01000031,Q2444752,Gare,3,2009-01-23 ,fr:Gare de Culoz,5.77796,5.77941,45.84366,45.8428
45.802164,5.693032,building,C16,PA00116376,Q3278643,Maison Brillat,3,1927-03-09 ,fr:Maison Brillat,5.692307,5.693757,45.802594,45.801733999999996
45.902897,5.180164,building,C15,PA00116485,Q3278980,Maison Ruivet,2,1921-11-24 ,fr:Maison Ruivet,5.179439,5.1808890000000005,45.903327000000004,45.902467
45.9033,5.17915,building,,PA00116462,Q3280053,,2,1921-11-24 ,fr:Maison du Prince,5.178425,5.179875,45.90373,45.90287
46.2278,5.2101,castle,C18,PA01000038,Q17346990,Château de Fleyriat,3,2013-03-15 ,fr:Château de Fleyriat,5.209375,5.210825,46.22823,46.22737
45.828815,4.950112,,C20,PA00125734,Q2938784,Carillon du Mas Rillier,3,1993-11-26 ,fr:Carillon du Mas Rillier,4.949387,4.950837,45.829245,45.828385
46.020837,5.808366,yes,C18,PA01000024,Q3116482,Grenier à sel,3,2007-03-21 ,fr:Grenier à sel de Surjoux,5.807641,5.8090910000000004,46.021267,46.020407
45.824897,5.603961,castle,C14,PA00116378,Q2971587,Château des Eclaz,3,1988-05-03 ,fr:Château des Éclaz,5.603236,5.604686,45.825327,45.824467
46.159621,5.07939,place_of_worship,christian,PA00116383,Q3582189,Église Saint-Julien,3,1927-03-02 ,fr:Église Saint-Julien de Condeissiat,5.078665,5.080115,46.160051,46.159191
45.759634,5.687332,building,C18,PA00116305,Q2845796,Hôtel de ville (ancien),3,1944-04-13 ,fr:Ancien hôtel de ville de Belley,5.6866069999999995,5.688057,45.760064,45.759204
46.205527,5.222513,building,C18,PA00116325,Q15950652,"Hôtel particulier, dit hôtel de Loras",3,2009-09-17 ,fr:Hôtel de Loras,5.221788,5.223238,46.205957,46.205096999999995
46.20193,5.2544,castle,C17,PA00116319,Q2970194,"Château de Pennesuyt, dit aussi château de Loëze",3,1987-06-09 ,fr:Château de Pennesuyt,5.253675,5.2551250000000005,46.20236,46.201499999999996
45.903096,5.179001,building,C15,PA00116466,Q3278693,Maison Devigne,2,1930-03-25 ,fr:Maison Devigne,5.178276,5.1797260000000005,45.903526,45.902665999999996
45.96298355,4.88374404,,C12,PA00116605,Q3325347,Motte castrale,3,1989-09-19 ,fr:Motte castrale de Saint-Jean-de-Thurigneux,4.88301904,4.88446904,45.96341355,45.962553549999996
46.206483,5.225506,,C19,PA00116346,Q3527617,Théâtre,3,1975-01-15 ,fr:Théâtre de Bourg-en-Bresse,5.224781,5.226231,46.206913,46.206053
45.90332,5.180323,,C15,PA00116452,Q3579085,Ecurie Schlutz,3,1929-10-11 ,fr:Écurie Schlutz,5.1795979999999995,5.181048,45.90375,45.90289
46.081395,5.057211,place_of_worship,christian,PA00116552,Q3581669,,2,1945-05-11 ,fr:Église Saint-Germain de Saint-Germain-sur-Renon,5.056486,5.057936,46.081825,46.080965
46.317518,5.660071,castle,C15,PA01000005,Q2969150,Château de Dortan,3,1997-12-30 ,fr:Château de Dortan,5.659346,5.660796,46.317948,46.317088
46.0525,5.344722,,C14,PA00116532,Q2970268,Ancien château,3,2004-10-18 ,fr:Château de Pont-d'Ain,5.343997,5.345447,46.05293,46.05207
45.895653,5.253396,castle,C12,PA00116377,Q2968910,,3,1987-02-18 ,fr:Château de Chazey-sur-Ain,5.252671,5.2541210000000005,45.896083000000004,45.895223
45.90322143,5.17875498,building,C15,PA00116499,Q22966716,,2,1921-11-24 ,,5.17802998,5.17947998,45.903651430000004,45.90279143
46.040528,5.313793,castle,C18,PA01000025,Q2970902,Château de Varambon,3,2007-11-05 ,fr:Château de Varambon,5.313068,5.3145180000000005,46.040958,46.040098
46.45972,5.05722,farm,C17,PA00116571,Q3068873,Ferme de Grandval,2,1981-04-23 ,fr:Ferme de Grandval,5.056495,5.057945,46.46015,46.459289999999996
46.205309,5.22766,building,C16,PA00116337,Q22966700,,3,1947-07-28 ,"fr:Maison, 14 rue Maréchal-Foch (Bourg-en-Bresse)",5.226935,5.228385,46.205739,46.204879
46.480989,5.08697,farm,C17,PA00116589,Q3068837,Ferme Ferrand,2,1944-07-11 ,fr:Ferme Ferrand,5.086245,5.087695,46.481419,46.480559
45.902718,5.180199,building,C15,PA00116476,Q3278869,Maison Mandon (restes),2,1930-03-25 ,fr:Maison Mandon,5.179474,5.180924,45.903148,45.902288
46.201971,5.225673,,C17,PA00116320,Q3268797,Collège des Jésuites (ancien),,,fr:Lycée Lalande,5.2249479999999995,5.226398,46.202401,46.201541
45.903515,5.179127,building,,PA00116493,Q3279020,Maison Thevenin,,,fr:Maison Thevenin,5.178402,5.179852,45.903945,45.903085
45.90394701,5.34603756,castle,,PA00116607,Q2969994,Château de Montferrand,3,1990-12-28 ,fr:Château de Montferrand (Lagnieu),5.34531256,5.34676256,45.904377010000005,45.90351701
45.973611111111,5.4102777777778,,C14,PA00116289,Q3278554,Maison-forte de Saint-Germain dite Tour de Gy,3,1984-12-06 ,fr:Maison-forte de Saint-Germain,5.4095527777778,5.4110027777778,45.974041111111,45.973181111110996
45.90315645,5.17884384,building,C15,PA00116509,Q22966725,,3,1929-10-11 ,,5.17811884,5.17956884,45.90358645,45.902726449999996
45.92667,5.230671,castle,C19,PA01000030,Q2969747,Château de Loyes,3,2008-03-28 ,fr:Château de Loyes,5.229946,5.231396,45.9271,45.92624
45.903223,5.179205,building,,PA00116461,Q3149081,,2,1921-11-24 ,fr:Immeuble de la rue des Contreforts,5.1784799999999995,5.17993,45.903653,45.902792999999996
45.849474,5.648641,building,C15,PA00116598,Q14627720,,3,1927-01-28 ,fr:Maison Todeschini,5.6479159999999995,5.649366,45.849904,45.849044
45.8319,5.5958,place_of_worship,christian,PA00116540,Q3584071,Église Saint-Pierre,3,1939-11-22 ,fr:Église Saint-Pierre de Rossillon,5.595075,5.596525,45.83233,45.831469999999996
45.902859,5.179918,building,C15,PA00116474,Q3278864,Maison Magnin,2,1941-08-07 ,fr:Maison Magnin,5.179193,5.180643,45.903289,45.902429
46.203649,5.224045,building,C16,PA00116342,Q15952634,,3,1947-07-28 ,fr:Maison au 11 rue Teynière (Bourg-en-Bresse),5.22332,5.22477,46.204079,46.203219
45.9037,5.179224,building,,PA00116484,Q3278974,Maison Rouby,2,1941-08-07 ,fr:Maison Rouby,5.1784989999999995,5.179949,45.90413,45.90327
45.90343661,5.17845554,,C15,PA00116453,Q22966708,,2,1937-04-22 ,fr:Écuries Vernay,5.17773054,5.17918054,45.90386661,45.90300661
45.9406,4.7737,building,,PA00116585,Q3278590,Maison Anginieur (ensemble),3,1933-07-26 ,fr:Maison Anginieur,4.772975,4.774425,45.941030000000005,45.94017
45.710547,5.723242,,C17,PA00116600,Q2961274,Ancienne chartreuse de Pierre-Châtel,2,1996-02-01 ,fr:Chartreuse de Pierre-Châtel,5.722517,5.723967,45.710977,45.710117
45.850761,5.055063,building,C16,PA00116436,Q3145818,,3,1975-04-25 ,fr:Hôtel de Condé (Montluel),5.0543379999999996,5.055788,45.851191,45.850331
45.996388,5.169708,building,C15,PA00116357,Q3278873,,3,1927-02-22 ,fr:Maison Maron,5.168983,5.170433,45.996818000000005,45.995958
45.90379403,5.17977985,citywalls,C15,PA00116528,,Rempart attenant à des immeubles,2,1921-11-24 ,fr:Maison Messimy,5.17905485,5.18050485,45.90422403,45.90336403
45.727821,5.606697,place_of_worship,christian,PA00116385,Q3584551,Église Saint-Sébastien,2,1908-03-07 ,fr:Église Saint-Sébastien de Conzieu,5.6059719999999995,5.607422,45.728251,45.727391
45.854391,5.055546,,C19,PA01000032,,Grand moulin de Montluel dit  Moulin Girard ,,,fr:Moulin Girard,5.054821,5.056271,45.854821,45.853961
45.98502,4.850804,castle,C10,PA00116577,Q2969445,Château de Juis,3,1984-05-04 ,fr:Château de Juis,4.850079,4.851529,45.98545,45.98459
46.270738,5.090192,wayside_cross,C14,PA00116391,Q2934464,Calvaire,2,1933-05-22 ,fr:Calvaire de Curtafond,5.089467,5.090917,46.271168,46.270308
45.75,5.7386,,,PA00116447,Q3387856,Pierre à bassins,2,1913-05-03 ,fr:Pierre à bassins de Rosset,5.737875,5.739325,45.75043,45.74957
46.2033943,5.226695,city_gate,C15,PA00116344,Q2105024,Porte des Jacobins,3,1927-08-24 ,fr:Porte des Jacobins,5.22597,5.22742,46.2038243,46.2029643
45.903585,5.180005,building,C15,PA00116463,Q3278601,Maison Bache,2,1930-04-26 ,fr:Maison Bache,5.17928,5.1807300000000005,45.904015,45.903155
45.756846,5.69133,,,PA00116309,Q3377282,Petit Séminaire,2,1840 ,fr:Petit séminaire de Belley,5.690605,5.692055,45.757276000000005,45.756416
46.022666,4.990641,place_of_worship,christian,PA00116317,Q3582512,Église Saint-Marcel,3,2008-04-09 ,fr:Église Saint-Marcel de Bouligneux,4.989916,4.991366,46.023096,46.022236
46.43955,5.239352,farm,,PA00116299,Q2396804,Ferme de Bevay,3,1944-06-20 ,fr:Ferme de Bevay,5.238627,5.240077,46.43998,46.439119999999996
45.902984,5.178974,building,C15,PA00116471,Q3278770,Maison Guedon (ancienne),3,1929-10-11 ,fr:Maison Guedon,5.178249,5.179699,45.903414,45.902553999999995
45.992778,4.823611,place_of_worship,christian,PA00116294,Q2315683,Église (ancienne) et basilique,2,1982-02-02 ,fr:Basilique d'Ars,4.822886,4.824336,45.993208,45.992348
45.8319,5.5958,castle,manor,PA01000015,Q2247151,Manoir de La Forest,3,2005-09-05 ,fr:Château de Rossillon,5.595075,5.596525,45.83233,45.831469999999996
46.473427,5.03177,farm,,PA00116592,Q3068878,Ferme de Loscelle,2,1944-04-28 ,fr:Ferme de Loscelle,5.031045,5.032495,46.473857,46.472997
46.121061,5.19501,building,C16,PA00116419,Q3280306,Maison à pans de bois,3,1937-09-17 ,fr:Maison à pans de bois (Lent),5.194285,5.195735,46.121491,46.120630999999996
45.75742,5.6903,,,PA00116421,Q3387857,Pierre à cupules,2,1920-12-20 ,fr:Pierre à cupules de Magnieu,5.689575,5.691025,45.757850000000005,45.75699
46.371036,5.309315,,C18,PA01000012,Q3325648,Moulin de Pertuizet,2,2005-03-29 ,fr:Moulin de Pertuizet,5.30859,5.31004,46.371466,46.370605999999995
45.981967,4.758554,place_of_worship,christian,PA01000003,Q3580284,Église Notre-Dame de l'Assomption,3,1996-02-01 ,fr:Église Notre-Dame-de-l'Assomption de Jassans-Riottier,4.757829,4.759279,45.982397,45.981536999999996
46.46444,5.07833,farm,,PA00116572,Q3068917,Ferme de la Servette,3,1944-04-14 ,fr:Ferme de la Servette,5.077605,5.079055,46.464870000000005,46.46401
46.00934,5.271623,castle,C13,PA00116596,Q2970370,Château de Richemont,3,1927-03-09 ,fr:Château de Richemont (Villette-sur-Ain),5.270898,5.272348,46.00977,46.00891
45.757853,5.68969,,C18,PA00116301,Q3361228,Evêché (ancien),2,1932-02-16 ,fr:Palais épiscopal de Belley,5.688965,5.690415,45.758283,45.757422999999996
46.204919,5.226687,building,C16,PA00116334,Q3279627,Maison de bois,2,1940-03-15 ,fr:Demeure Hugon (Bourg-en-Bresse),5.225962,5.227412,46.205349,46.204488999999995
45.90274191,5.17916641,citywalls,,PA00116523,,Rempart attenant à la maison Nicolas,2,1924-03-22 ,fr:Maison Nicolas,5.17844141,5.17989141,45.903171910000005,45.90231191
46.202201,5.222152,,C19,PA00116343,Q3323363,Monument du général Joubert,3,1932-10-04 ,fr:Monument du général Joubert,5.221427,5.222877,46.202631000000004,46.201771
46.265394,5.426014,building,C16,PA00116373,Q22966702,Maison du 16e siècle,3,1947-07-21 ,fr:Maison du XVIe siècle (Chavannes-sur-Suran),5.425289,5.426739,46.265824,46.264964
46.3031,4.9244,place_of_worship,christian,PA00116541,Q387644,,2,1840 ,fr:Église Saint-André de Saint-André-de-Bâgé,4.923675,4.925125,46.30353,46.30267
46.126549,4.797453,castle,C12,PA00116405,Q2968904,Château de Chavagneux,3,1942-12-17 ,fr:Château de Chavagneux,4.796728,4.798178,46.126979,46.126118999999996
45.931576,5.759583,,,PA00132938,Q2961254,Chartreuse d'Arvières,2,1995-08-06 ,fr:Chartreuse d'Arvières,5.758858,5.760308,45.932006,45.931146
45.902789,5.179934,building,C15,PA00116468,Q3278736,Maison Gagneux,3,1929-10-11 ,fr:Maison Gagneux,5.179209,5.180659,45.903219,45.902359
45.903677,5.179409,,,PA00116456,Q3141020,Hostellerie du Vieux Pérouges,2,1941-08-07 ,fr:Hostellerie du Vieux Pérouges,5.178684,5.180134,45.904107,45.903247
46.204373,5.223798,building,C15,PA00116326,Q22966690,Hôtel particulier,3,1947-09-10 ,fr:Maison des Quatre Saisons (Bourg-en-Bresse),5.223073,5.2245230000000005,46.204803,46.203942999999995
45.91322,5.812744,castle,C18,PA00116292,Q2968076,Château (ancien),3,1974-08-01 ,fr:Château d'Anglefort,5.812019,5.813469,45.913650000000004,45.91279
45.903415,5.179043,building,,PA00116491,Q3279013,Maison Tary,2,1930-12-24 ,fr:Maison Tary,5.178318,5.179768,45.903845000000004,45.902985
45.940296,4.775767,,C17,PA01000017,Q3365506,Ancien parlement de la Dombes dit également tribunal d'instance ou palais de justice,3,2006-02-28 ,fr:Parlement de Dombes,4.775042,4.776492,45.940726,45.939865999999995
46.203307,5.226472,building,C15,PA00116335,Q22966698,,3,1983-10-03 ,"fr:Maison, 5 rue Jules-Migonney (Bourg-en-Bresse)",5.225747,5.227197,46.203737000000004,46.202877
46.263368,5.4273,place_of_worship,christian,PA00116372,Q3583844,,3,1946-06-22 ,fr:Église Saint-Pierre de Chavannes-sur-Suran,5.426575,5.428025,46.263798,46.262938
45.969288,4.755889,castle,manor,PA01000002,Q3286354,Manoir de la Rigaudière,3,1996-03-14 ,fr:Manoir de la Rigaudière,4.755164,4.756614,45.969718,45.968858
46.012954,5.334066,,,PA00125733,Q2887696,Bastide de Gironville dite Fort Sarrazin,2,1993-12-02 ,fr:Bastide de Gironville,5.333341,5.334791,46.013384,46.012524
45.980167,5.105348,place_of_worship,christian,PA00116591,Q3583553,,3,1927-01-28 ,fr:Église Saint-Pierre-Saint-Paul de Versailleux,5.104623,5.106073,45.980597,45.979737
46.230945,5.421925,archaeological_site,megalith,PA00116580,Q3305887,Menhir de Pierrefiche,2,1888-03-06 ,fr:Menhir de Pierrefiche,5.4212,5.42265,46.231375,46.230515
45.903575,5.17893,building,,PA00116492,Q3279018,Maison Thevenet-Falconnet,2,1941-08-07 ,fr:Maison Thevenet-Falconnet,5.178205,5.179655,45.904005,45.903144999999995
45.9031,5.180282,building,C15,PA00116494,Q3279024,Maison Thibaut,2,1924-03-22 ,fr:Maison Thibaut,5.179557,5.181007,45.90353,45.90267
46.25534938,6.11073833,building,C18,PA00116399,Q3279444,Maison de Loes,3,1988-06-07 ,fr:Maison de Loes,6.11001333,6.11146333,46.25577938,46.25491938
46.257616,6.108146,place_of_worship,christian,PA00116396,Q3580779,Église Notre-Dame-de-l'Assomption,2,1988-04-26 ,fr:Église Notre-Dame et Saint-André de Ferney-Voltaire,6.1074209999999995,6.108871,46.258046,46.257186
46.265794,4.884762,castle,C18,PA00116533,Q2970270,,3,1972-12-27 ,fr:Château de Pont-de-Veyle,4.884037,4.885487,46.266224,46.265364
45.996619,5.794955,castle,C12,PA00116361,Q2969147,Château de la Dorches (restes),3,1927-03-09 ,fr:Château de Dorches,5.79423,5.79568,45.997049000000004,45.996189
45.903397,5.17923,building,C14,PA00116459,Q3278804,Immeuble dit Maison Jean Escoffier,2,1921-11-24 ,fr:Maison Jean Escoffier,5.1785049999999995,5.179955,45.903827,45.902967
46.396559,5.062797,place_of_worship,christian,PA00116555,Q2392308,,3,1972-06-14 ,fr:Église Saint-Jean-Baptiste de Saint-Jean-sur-Reyssouze,5.062072,5.063522,46.396989000000005,46.396129
46.205193,5.225337,building,C18,PA00116324,Q3146133,Hôtel de ville,3,1932-10-04 ,fr:Hôtel de ville de Bourg-en-Bresse,5.224612,5.226062,46.205623,46.204763
45.7575,5.6891666666667,place_of_worship,christian,PA00116300,Q1736164,Cathédrale Saint-Jean-Baptiste,2,1906-10-30 ,fr:Cathédrale Saint-Jean de Belley,5.6884416666667,5.6898916666667,45.75793,45.75707
46.356895,6.143573,,,PA00132809,Q3558460,Ancienne villa Beaulieu,3,1994-07-07 ,fr:Villa Beaulieu,6.142848,6.144298,46.357325,46.356465
46.257084,4.914622,place_of_worship,christian,PA00116553,Q3582019,Église Saint-Jean-Baptiste,3,1965-04-14 ,fr:Église Saint-Jean-Baptiste de Saint-Jean-sur-Veyle,4.9138969999999995,4.915347,46.257514,46.256654
45.903431,5.178735,building,C15,PA00116508,Q22966724,,3,1929-10-11 ,fr:Ancienne maison Carrière,5.17801,5.17946,45.903861,45.903000999999996
46.316236,4.992664,yes,C12,PA00116296,Q2957153,Chapelle d'Epaisse (ancienne),3,1982-03-26 ,fr:Chapelle d'Épaisse,4.991939,4.9933890000000005,46.316666000000005,46.315806
45.903048,5.180286,building,C15,PA00116504,Q3279024,,3,1925-01-16 ,,5.179561,5.181011,45.903478,45.902618
45.961734,5.213131,place_of_worship,christian,PA00116388,Q3580552,Église Notre-Dame,3,1926-10-21 ,fr:Église Notre-Dame de Crans,5.212406,5.213856,45.962164,45.961304
46.038353,5.410278,castle,C12,PA00116416,Q2971415,Château de la Tour-des-Echelles,,,fr:Château de la Tour-des-Échelles,5.409553,5.411003,46.038783,46.037923
46.2633,4.8881,building,C16,PA00116535,Q3258036,Maison dite logis du gouverneur de Savoie,3,1938-05-20 ,fr:Logis du gouverneur de Savoie,4.887375,4.888825,46.26373,46.26287
46.255833333333,6.1080555555556,castle,C18,PA00116395,Q2969210,Château de Voltaire,2,1958-12-13 ,fr:Château de Ferney-Voltaire,6.1073305555556,6.1087805555556,46.256263333333,46.255403333333
46.205722,5.227306,place_of_worship,christian,PA00116321,Q2980998,Église Notre-Dame,2,1914-12-21 ,fr:Co-cathédrale Notre-Dame de l'Annonciation de Bourg-en-Bresse,5.2265809999999995,5.228031,46.206152,46.205292
45.80919,5.733671,place_of_worship,christian,PA00116400,Q3583103,Église Saint-Maurice,3,1969-09-10 ,fr:Église Saint-Maurice de Flaxieu,5.732946,5.734396,45.80962,45.80876
46.307493,4.931198,,C14,PA00116297,Q3053726,Enceinte (ancienne),3,1929-02-16 ,fr:Enceinte de Bâgé-le-Châtel,4.930473,4.931923,46.307923,46.307063
45.90345231,5.18044023,building,C15,PA00116516,,Maison et remparts,3,1929-10-11 ,,5.17971523,5.18116523,45.90388231,45.90302231
45.774064,5.479023,,,PA00116352,Q2970484,Inscriptions mérovingiennes du château de Saint-André,2,1862 ,fr:Château de Saint-André (Briord),5.478298,5.479748,45.774494000000004,45.773634
46.043681,5.466546,yes,,PA00116347,Q2957174,Chapelle de Châtillon-de-Cornelle,3,1986-05-20 ,fr:Chapelle de Châtillon-de-Cornelle,5.465821,5.467271,46.044111,46.043251
45.903414,5.180121,building,C15,PA00116487,Q22966714,Maison Salomon,2,1924-03-22 ,fr:Ruines de la maison Salomon,5.179396,5.180846,45.903844,45.902984
46.26472,5.86944,milestone,C17,PA00116403,Q2911130,Borne frontière,2,1926-01-12 ,fr:Borne au Lion,5.868715,5.870165,46.26515,46.264289999999995
46.118328,4.958133,city_gate,C14,PA00116370,Q3399103,Porte de Villars,3,1926-07-13 ,fr:Porte de Villars,4.957408,4.958858,46.118758,46.117898
46.216768,5.334206,castle,C13,PA00116414,Q2969422,Château (restes),3,1927-02-22 ,fr:Château de Jasseron,5.333481,5.334931,46.217198,46.216338
45.7583,5.6885,building,C16,PA00116307,Q3278885,Maison May et ancien oratoire,3,1971-10-22 ,fr:Maison dite d'Olivier Le Daim,5.687775,5.689225,45.75873,45.75787
46.20538,5.22505,,C18,PA00116345,Q27950512,Préfecture (ancienne),3,1947-06-23 ,fr:Ancien hôtel de préfecture de l'Ain,5.224325,5.2257750000000005,46.20581,46.20495
46.204202,5.227655,building,C18,PA00116328,Q22966693,,3,1950-03-13 ,"fr:Immeuble, 20 rue Samaritaine (Bourg-en-Bresse)",5.22693,5.2283800000000005,46.204632000000004,46.203772
46.2707,6.0961,building,C15,PA01000039,Q20650232,Maison haute dite également Tour d'Ornex,3,2014-03-17 ,fr:Maison haute d'Ornex,6.095375,6.096825,46.27113,46.27027
46.041123,5.316159,place_of_worship,christian,PA01000035,Q15954026,Église Sainte-Madeleine,3,2012-01-25 ,fr:Église Sainte-Madeleine de Varambon,5.315434,5.316884,46.041553,46.040693
45.942709,5.074332,,C13,PA00116430,Q3054865,Ensemble castral du Montellier,2,2003-06-17 ,fr:Château du Montellier,5.073607,5.075057,45.943139,45.942279
46.367305,5.166965,farm,,PA00116402,Q3068945,Ferme du Tiret,,,fr:Ferme du Tiret,5.16624,5.16769,46.367735,46.366875
46.333858,6.058338,lavoir,C17,PA00116407,Q3219851,Lavoir,3,1929-06-25 ,fr:Lavoir de Gex,6.057613,6.059063,46.334288,46.333428
46.51225404,4.98892986,,,PA00116579,Q3107781,Gisement préhistorique,2,1978-12-06 ,fr:Gisement préhistorique de Sermoyer,4.98820486,4.98965486,46.51268404,46.51182404
46.197917,5.236111,,C16,PA00116318,,Ancienne abbaye de Brou,,,fr:Monastère royal de Brou,5.235386,5.236836,46.198347,46.197486999999995
46.220216,5.555423,place_of_worship,christian,PA00116412,Q3580264,,3,1926-07-09 ,fr:Église Notre-Dame-de-l'Assomption d'Izernore,5.554698,5.556148,46.220646,46.219786
46.119215,4.956931,place_of_worship,christian,PA00116367,Q3580856,,2,1909-04-14 ,fr:Église Saint-André-et-Saint-Vincent-de-Paul de Châtillon-sur-Chalaronne,4.956206,4.957656,46.119645,46.118784999999995
45.8499,5.777199,castle,C14,PA00116390,Q2970061,Château de Montveran,3,1946-09-20 ,fr:Château de Montvéran,5.776474,5.7779240000000005,45.85033,45.84947
46.164418,5.22381,castle,C13,PA00116448,Q2970605,Château de Saix,3,1987-06-09 ,fr:Château de Saix,5.223085,5.224535,46.164848,46.163987999999996
45.997114,4.90303,castle,C15,PA00116290,Q2968062,Château (ancien),2,1905-06-21 ,fr:Château d'Ambérieux-en-Dombes,4.902305,4.903755,45.997544000000005,45.996684
46.026744,5.404538,castle,C13,PA00116554,Q2970908,Château de Varey,3,1983-03-21 ,fr:Château de Varey,5.4038129999999995,5.405263,46.027174,46.026314
45.90263983,5.18011324,citywalls,C15,PA00116521,,Rempart attenant à un immeuble,2,1921-11-24 ,fr:Maison Grezin,5.17938824,5.18083824,45.90306983,45.90220983
45.90367027,5.1783662,place_of_worship,christian,PA00116454,Q3585157,Église Sainte-Marie-Madeleine,2,1912-05-23 ,fr:Église Sainte-Marie-Madeleine de Pérouges,5.1776412,5.1790912,45.90410027,45.90324027
45.903054,5.178536,,C15,PA00116449,Q3577849,école de filles,3,1929-10-11 ,fr:École de filles de Pérouges,5.177811,5.179261,45.903484,45.902623999999996
45.883302,5.374057,place_of_worship,christian,PA00116566,Q3585158,,3,1938-04-01 ,fr:Église Sainte-Marie-Madeleine de Saint-Sorlin-en-Bugey,5.3733319999999996,5.374782,45.883732,45.882872
46.12753,5.53638,yes,,PA00116422,Q2957085,Chapelle Sainte-Claire ou des Rochers,3,1931-01-12 ,fr:Chapelle Sainte-Claire de Maillat,5.535655,5.537105,46.12796,46.1271
45.9474,4.7617,castle,C19,PA01000004,Q2969034,Château de Corcelles,3,1996-03-26 ,fr:Château de Corcelles (Trévoux),4.760975,4.762425,45.94783,45.94697
45.90284418,5.17971642,building,C15,PA00116483,Q3278954,Maison Raynaud-Gaillard,2,1941-08-07 ,fr:Maison Raynaud-Gaillard,5.17899142,5.18044142,45.903274180000004,45.90241418
45.903345,5.178925,building,C15,PA00116477,Q3278880,Maison Martinet et Grassin,2,1921-11-24 ,fr:Maison Martinet et Grassin,5.1781999999999995,5.17965,45.903775,45.902915
46.480915,5.086904,farm,C17,PA00116590,Q3068857,Ferme Tricot,,,fr:Ferme Tricot,5.086179,5.087629,46.481345000000005,46.480485
45.940541,4.772862,building,C15,PA00116613,Q3279891,Maison dite des Sires de Villars,3,1991-07-22 ,fr:Maison des Sires de Villars,4.772137,4.773587,45.940971000000005,45.940111
46.085556,5.398056,,,PA00116442,Q3117187,Abri sous roche de la Colombière,3,1946-12-28 ,fr:Grotte de la Colombière,5.397331,5.3987810000000005,46.085986,46.085125999999995
46.157793,4.859024,castle,C19,PA01000020,Q2968485,Château de Beaumont,3,2006-07-05 ,fr:Château de Beaumont (Ain),4.858299,4.859749,46.158223,46.157363
45.89876,5.682378,castle,C19,PA01000021,Q2970087,Château de Machuraz,3,2006-11-06 ,fr:Château de Mâchuraz,5.681653,5.683103,45.899190000000004,45.89833
45.90256797,5.17975677,citywalls,,PA00116522,,Rempart attenant à un immeuble,2,1921-11-24 ,fr:Remparts de Pérouges,5.17903177,5.18048177,45.90299797,45.90213797
45.9035,5.17968,building,C15,PA00116480,Q3280041,Maison du Petit-Saint-Georges,3,1929-10-11 ,fr:Maison du Petit-Saint-Georges,5.178955,5.180405,45.90393,45.90307
46.472452,5.070581,farm,C18,PA00116573,Q3068946,Ferme du Tremblay,3,2003-06-11 ,fr:Ferme du Tremblay,5.069856,5.071306,46.472882,46.472021999999996
46.500128,5.167233,castle,manor,PA00116606,Q3286235,Manoir de Malmont,3,1990-12-28 ,fr:Manoir de Malmont,5.166508,5.1679580000000005,46.500558,46.499697999999995
46.326068,5.127541,castle,manor,PA00116439,Q3286317,Manoir de la Charme,3,1987-02-18 ,fr:Manoir de la Charme,5.126816,5.128266,46.326498,46.325638
45.90285953,5.18001962,building,C15,PA00116512,Q22966728,Maison (restes),3,1929-10-11 ,,5.17929462,5.1807446200000005,45.90328953,45.90242953
46.171993,4.80051,monastery,convent,PA00116581,Q3001750,Couvent des Ursulines (ancien),3,1980-05-20 ,fr:Couvent des Ursulines de Thoissey,4.799785,4.801235,46.172423,46.171563
46.15819,5.407435,tower,defensive,PA00116411,Q3036706,Donjon de Buenc (ruines),3,1974-06-28 ,fr:Donjon de Buenc,5.40671,5.4081600000000005,46.15862,46.157759999999996
46.205301,5.227564,building,C16,PA00116336,Q22966699,,3,1947-07-21 ,"fr:Maison, 12 rue Maréchal-Foch (Bourg-en-Bresse)",5.226839,5.228289,46.205731,46.204871
46.117881,4.954831,castle,C15,PA00116366,Q2968975,Château (ancien),3,1927-02-22 ,fr:Château de Châtillon-sur-Chalaronne,4.954106,4.9555560000000005,46.118311,46.117450999999996
46.063604,4.981045,place_of_worship,christian,PA00116576,Q3584220,,3,1926-10-21 ,fr:Église Saint-Priest de Sandrans,4.98032,4.98177,46.064034,46.063174
46.22334,5.55853,,,PA00116413,Q3517710,Ruines du temple romain,2,1840 ,fr:Temple romain d'Izernore,5.557805,5.559255,46.22377,46.22291
46.021666666667,5.0813888888889,tower,yes,PA00116611,Q2971776,Tour et bâtiment annexe,3,1991-01-29 ,fr:Château du Plantay,5.0806638888889,5.0821138888889,46.022096666667004,46.021236666667
46.086879,5.410497,castle,C13,PA00116531,Q2970260,,3,1970-03-12 ,fr:Château de Poncin,5.409772,5.411222,46.087309000000005,46.086449
45.90341878,5.1787573,building,C15,PA00116501,Q22966718,,2,1921-11-24 ,,5.1780323,5.1794823,45.903848780000004,45.90298878
46.158521,4.919128,,,PA00132969,Q3558070,Site médiéval du Vieux Bourg,2,1994-11-18 ,fr:Vieux Bourg de L'Abergement-Clémenciat,4.918403,4.919853,46.158951,46.158091
45.903056,5.17911,building,C15,PA00116467,Q3279844,Maison des Dîmes,2,1921-11-24 ,fr:Maison des Dîmes,5.178385,5.179835,45.903486,45.902626
45.90307229,5.18079818,building,C15,PA00116513,,Maisons et remparts qui en dépendent,3,1929-10-11 ,,5.18007318,5.18152318,45.90350229,45.902642289999996
45.902645,5.179996,building,C15,PA00116470,,Maison Grezin,2,1921-11-24 ,fr:Maison Grezin,5.179271,5.180721,45.903075,45.902215
46.099699,5.142748,castle,C15,PA00116562,Q2970903,,3,1981-09-29 ,fr:Château de Varax,5.142023,5.143473,46.100129,46.099269
45.956546,4.940057,place_of_worship,christian,PA00116431,Q3583993,,3,1979-11-02 ,fr:Église Saint-Pierre de Monthieux,4.939332,4.9407820000000005,45.956976000000004,45.956116
45.943033,4.749784,castle,C17,PA00116583,Q2969218,Château de Fetan,3,1973-01-30 ,fr:Château de Fetan,4.749059,4.750509,45.943463,45.942603
45.940692,5.189342,wayside_cross,C14,PA00116539,Q3003377,Croix,2,1914-04-03 ,fr:Croix de Rignieux-le-Franc,5.188617,5.190067,45.941122,45.940262
46.126106,5.484554,place_of_worship,christian,PA00116354,Q2956891,Église d'Etables,3,1943-09-09 ,fr:Chapelle Saint-Laurent d'Étables,5.483829,5.485279,46.126536,46.125676
45.6382,5.6319,,,PA00116349,Q3117183,Abri sous roche dit Grotte préhistorique de la Bonne-Femme,,,fr:Grotte de la Bonne-Femme,5.631175,5.632625,45.63863,45.637769999999996
46.323412,5.38507,place_of_worship,christian,PA01000029,Q3582304,Église Saint-Laurent,3,2008-04-09 ,fr:Église Saint-Laurent de Pressiat,5.384345,5.385795,46.323842,46.322981999999996
46.189847,4.88865,place_of_worship,christian,PA01000026,Q3584533,Église Saint-Symphorien,3,2008-04-09 ,fr:Église Saint-Symphorien d'Illiat,4.887925,4.889375,46.190277,46.189417
45.949296,5.333873,castle,C13,PA00116547,Q2970503,Château (ancien),2,1899-05-26 ,fr:Château de Saint-Denis-en-Bugey,5.3331479999999996,5.334598,45.949726,45.948865999999995
46.289,5.587,castle,C14,PA00116423,Q2969004,Château de Coiselet,3,1983-11-04 ,fr:Château de Coiselet,5.586275,5.587725,46.28943,46.28857
45.888404,5.369039,,C18,PA00116567,Q3075983,Fontaine-lavoir de Collonges,3,1973-05-08 ,fr:Fontaine-lavoir de Collonges,5.368314,5.369764,45.888834,45.887974
45.951754,5.434873,monastery,abbey,PA00116564,Q2820704,Abbaye (ancienne),2,1945-05-07 ,fr:Abbaye de Saint-Rambert-en-Bugey,5.4341479999999995,5.435598,45.952184,45.951324
46.331388,6.114333,castle,C15,PA00116408,Q2969356,,3,1987-02-18 ,fr:Château de la Tour de Grilly,6.113608,6.115058,46.331818,46.330957999999995
46.464157,5.035018,farm,,PA00116593,Q3068882,Ferme de Montalibord,2,1974-11-13 ,fr:Ferme de Montalibord,5.034293,5.035743,46.464587,46.463727
45.902651,5.179967,building,C15,PA00116479,,Maison Perrin,2,1921-11-24 ,fr:Maison Perrin,5.179242,5.1806920000000005,45.903081,45.902221
46.116844,5.07968,place_of_worship,christian,PA00116543,Q3580924,,3,1947-06-23 ,fr:Église Saint-André de Saint-André-le-Bouchoux,5.078955,5.080405,46.117274,46.116414
45.974851,5.249051,place_of_worship,christian,PA00116365,Q3581821,,3,1966-06-22 ,fr:Église Saint-Irénée de Châtillon-la-Palud,5.248326,5.249776,45.975281,45.974421
45.944536,4.73266,castle,C14,PA00116614,Q2970496,,2,1997-04-10 ,fr:Château de Saint-Bernard,4.731935,4.733385,45.944966,45.944106
45.759314,5.688992,building,,PA00116302,Q3145436,Hôtel Brillat-Savarin,3,1926-11-15 ,fr:Hôtel Brillat-Savarin,5.688267,5.689717,45.759744000000005,45.758884
45.903632,5.179878,building,C15,PA00116500,Q22966717,,3,1929-10-11 ,fr:Maison Timon,5.179153,5.1806030000000005,45.904062,45.903202
46.119109,4.954877,,C18,PA00116369,Q3140937,Hospice,2,1982-11-25 ,fr:Hospice de Châtillon-sur-Chalaronne,4.954152,4.955602,46.119539,46.118679
46.205052,5.225233,building,C18,PA00116327,Q22966692,,3,1943-09-16 ,fr:Hôtel de Bohan,5.224508,5.225958,46.205482,46.204622
46.195,5.355278,place_of_worship,christian,PA00116537,Q3582172,Église Saint-Julien-sur-Roche (restes),2,1945-07-12 ,fr:Église Saint-Julien-sur-Roche de Ramasse,5.354553,5.356003,46.19543,46.19457
46.320593,5.039054,farm,,PA00116569,Q3068934,Ferme du Colombier,2,1930-11-22 ,fr:Ferme du Colombier,5.038329,5.039779,46.321023000000004,46.320163
45.90273,5.179674,,C15,PA00116455,,Hôpital (ancien),3,1929-12-09 ,fr:Hôpital de Pérouges,5.178949,5.180399,45.90316,45.9023
45.903651,5.179492,building,C15,PA00116464,Q3279984,Maison dite du Cadran Solaire,3,1927-11-14 ,fr:Maison du Cadran Solaire,5.178767,5.180217,45.904081000000005,45.903221
46.125939,5.267408,castle,C19,PA01000018,Q2969309,Château de Genoud,3,2006-08-28 ,fr:Château de Genoud,5.266683,5.268133,46.126369000000004,46.125509
45.951661,4.736159,,C12,PA01000007,Q2969517,Ancien prieuré de La Bruyère dit château de La Bruyère,3,1997-12-30 ,fr:Château de La Bruyère (Saint-Bernard),4.735434,4.736884,45.952091,45.951231
45.760181,5.687361,building,C15,PA00116308,Q3280082,Maison du Vachat ou maison du Gouverneur,3,1973-08-08 ,fr:Maison du Vachat,5.686636,5.688086,45.760611000000004,45.759751
46.065951,5.368214,castle,C13,PA00116443,Q2970786,Château de Thol (restes),3,1927-02-22 ,fr:Château de Thol,5.367489,5.368939,46.066381,46.065521
45.902973,5.180039,building,C15,PA00116475,Q22966712,Maisons jumelées : maison Magnin et maison Gaillard,2,1921-11-24 ,fr:Maisons Magnin et Gaillard,5.179314,5.180764,45.903403000000004,45.902543
45.96598751,5.09884663,,C19,PA01000022,Q2969444,Domaine du château de Joyeux,2,2009-09-03 ,fr:Château de Joyeux,5.09812163,5.09957163,45.96641751,45.96555751
46.285425,4.986106,farm,C17,PA00116615,Q3068909,Ferme dite de la Grange du Clou,2,1994-05-19 ,fr:Ferme de la Grange du Clou,4.985381,4.9868310000000005,46.285855,46.284994999999995
46.204571,5.226791,building,C15,PA00116329,Q22966694,,,,"fr:Immeuble, 10 rue Victor-Basch (Bourg-en-Bresse)",5.226066,5.2275160000000005,46.205001,46.204141
45.850761,5.055063,building,C17,PA00116434,Q22966705,Hôtel de Condé (ancien),3,1981-09-29 ,fr:Hôtel de Condé (Montluel),5.0543379999999996,5.055788,45.851191,45.850331
46.204709,5.223951,building,C15,PA00116339,Q3280308,Maison à pans de bois,,,fr:Maison Gorrevod (Bourg-en-Bresse),5.2232259999999995,5.224676,46.205139,46.204279
45.90301304,5.17989517,building,C15,PA00116511,Q22966727,,2,1941-08-07 ,,5.17917017,5.18062017,45.90344304,45.902583039999996
45.746193,5.534587,place_of_worship,christian,PA00116420,Q3585690,,2,1930-11-24 ,fr:Église de l'Assomption de Lhuis,5.533862,5.535312,45.746623,45.745763
45.903257,5.180596,building,C15,PA00116469,,Maison Gerlier et remparts qui en dépendent,2,1921-11-24 ,fr:Maison Gerlier,5.179871,5.1813210000000005,45.903687000000005,45.902827
46.05519,5.148542,place_of_worship,christian,PA00116561,Q3583435,,3,1926-10-21 ,fr:Église Saint-Nizier de Saint-Nizier-le-Désert,5.147817,5.149267,46.055620000000005,46.05476
45.973611111111,5.4102777777778,castle,C14,PA00116288,Q1012919,Château des Allymes,,,fr:Château des Allymes,5.4095527777778,5.4110027777778,45.974041111111,45.973181111110996
46.205832,5.222449,building,C16,PA00116332,Q13517271,,,,fr:Maison au 17 rue Bourgmayer (Bourg-en-Bresse),5.221724,5.223174,46.206262,46.205402
46.38667,5.025,farm,,PA00116549,Q3068884,Ferme,3,1925-04-30 ,fr:Ferme de Montjouvent,5.024275,5.025725,46.387100000000004,46.38624
45.903384,5.17836,city_gate,C15,PA00116518,Q3399002,Porte du mur d'enceinte dite porte d'En-Haut et substructions de la barbacane,2,1912-05-23 ,fr:Porte d'En-Haut,5.1776349999999995,5.179085,45.903814000000004,45.902954
45.805292,5.277989,yes,C11,PA00116575,Q2957216,Chapelle de Marcilleux,2,1944-03-11 ,fr:Chapelle de Marcilleux,5.277264,5.278714,45.805722,45.804862
45.940418,4.77438,building,,PA00116584,Q3146305,Hôtel du gouverneur des Dombes (ancien),3,1933-06-06 ,fr:Hôtel du gouverneur des Dombes,4.773655,4.775105,45.940848,45.939988
46.20679,5.327232,,C10,PA00116415,Q3125370,Habitat du premier âge féodal (vestiges),3,1984-02-17 ,fr:Habitat du premier âge féodal de Jasseron,5.326507,5.3279570000000005,46.20722,46.20636
46.29591,5.682499,place_of_worship,christian,PA00116293,Q3582251,Église Saint-Laurent,3,1988-06-07 ,fr:Église Saint-Laurent d'Arbent,5.681774,5.683224,46.29634,46.29548
46.118925,4.957033,,C15,PA00116368,Q3126130,Halles,2,1988-11-14 ,fr:Halles de Châtillon-sur-Chalaronne,4.956308,4.957758,46.119355,46.118494999999996
45.9729,4.7964,place_of_worship,christian,PA01000034,Q15954019,Église Sainte-Euphémie,3,2012-06-14 ,fr:Église Sainte-Euphémie de Sainte-Euphémie,4.795675,4.797125,45.973330000000004,45.97247
45.90382,5.179202,building,C15,PA00116472,Q3278795,Maison Janin,3,1925-01-16 ,fr:Maison Janin,5.178477,5.179927,45.904250000000005,45.90339
45.903331,5.180319,,C15,PA00116451,Q3579081,Ecurie Gerlier,3,1929-10-11 ,fr:Écurie Gerlier,5.179594,5.181044,45.903761,45.902901
45.863267,5.482907,,C12,PA00116312,Q2961278,Chartreuse Sainte-Marie-des-Portes,3,1947-02-20 ,fr:Chartreuse de Portes,5.482182,5.483632,45.863697,45.862837
45.903258,5.180221,building,C15,PA00116489,Q3278990,Maison Sambet-Bailly,2,1941-08-07 ,fr:Maison Sambet-Bailly,5.179496,5.1809460000000005,45.903688,45.902828
46.456331,5.064418,farm,C17,PA00116574,Q3068880,Ferme,3,1925-04-24 ,fr:Ferme de Molardoury,5.063693,5.065143,46.456761,46.455901
45.903264,5.179596,building,C16,PA00116505,Q22966722,,3,1965-02-08 ,,5.178871,5.180321,45.903694,45.902834
45.849459,5.648842,building,C15,PA00116599,Q3278910,Maison Mugnier,3,1927-03-09 ,fr:Maison Mugnier,5.648117,5.649567,45.849889000000005,45.849029
46.205657,5.222465,building,C18,PA00116331,Q22966696,,3,1947-09-10 ,"fr:Maison, 15 rue Bourgmayer (Bourg-en-Bresse)",5.22174,5.22319,46.206087000000004,46.205227
46.260665,5.657958,,C20,PA00116445,Q3552683,"Usine électrique la Grande Vapeur, actuellement musée du Peigne",,,fr:Usine électrique la Grande Vapeur,5.657233,5.658683,46.261095000000005,46.260235
46.245833,5.3525,place_of_worship,christian,PA01000008,Q3583454,Église Saint-Oyen,2,2002-11-07 ,fr:Église Saint-Oyen de Meillonnas,5.351775,5.353225,46.246263,46.245402999999996
45.902946,5.18031,building,C15,PA00116478,Q3278920,Maison Pacard,2,1941-08-07 ,fr:Maison Pacard,5.179585,5.1810350000000005,45.903376,45.902516
46.19463,5.518998,yes,C12,PA00116444,Q2957229,Chapelle de Mornay,2,1982-12-21 ,fr:Chapelle de Mornay,5.518273,5.519723,46.19506,46.194199999999995
46.204454,5.225061,,C19,PA01000033,Q15952063,Le Café français,3,2010-01-29 ,fr:Le Café français,5.224336,5.225786,46.204884,46.204024
45.90265599,5.18040293,citywalls,C15,PA00116520,,Rempart attenant à un immeuble,2,1921-11-24 ,fr:Remparts de Pérouges,5.1796779299999995,5.18112793,45.90308599,45.90222599
46.466345,5.118497,farm,C17,PA00116387,Q3068912,Ferme de la Forêt (ensemble),2,1930-10-11 ,fr:Ferme de la Forêt,5.1177719999999995,5.119222,46.466775,46.465914999999995
46.203743,5.224525,building,C18,PA00116341,Q3145587,,3,1942-07-11 ,fr:Hôtel Marron de Meillonnas,5.2238,5.22525,46.204173000000004,46.203313
46.000718,4.752333,place_of_worship,christian,PA01000001,Q3581460,Église Saint-François d'Assise,3,1996-02-01 ,fr:Église Saint-François-d'Assise de Beauregard,4.751608,4.753058,46.001148,46.000288
46.31473,5.041721,farm,,PA00116568,Q3068925,Ferme des Broguets,2,1931-12-16 ,fr:Ferme des Broguets,5.040996,5.042446,46.31516,46.314299999999996
46.253877,6.081039,place_of_worship,christian,PA00116536,Q3585705,,3,1982-11-04 ,fr:Église de l'Assomption de Prévessin-Moëns,6.0803139999999996,6.081764,46.254307000000004,46.253447
46.00667,5.36167,,C13,PA00116291,,Ancienne abbaye dAmbronay,,,fr:Abbaye Notre-Dame d'Ambronay,5.360945,5.362395,46.0071,46.00624
46.360712,5.366676,wayside_cross,C15,PA00116392,Q2934465,Calvaire de Dingier,3,1951-02-13 ,fr:Calvaire de Dingier,5.365951,5.367401,46.361142,46.360282
45.902991,5.178828,building,C15,PA00116473,Q22966711,Maisons Jourdan,2,1937-04-19 ,fr:Maisons Jourdan,5.178103,5.179553,45.903421,45.902561
46.099599,5.129761,place_of_worship,christian,PA00116563,Q3583504,,2,1908-01-29 ,fr:Église Saint-Paul de Saint-Paul-de-Varax,5.129036,5.130486,46.100029,46.099168999999996
46.162883,5.002304,building,C18,PA00116441,Q2968923,Maison dite le chapître ou ancien château de Chevigney,3,1980-12-18 ,fr:Château de Chevigney,5.0015789999999996,5.003029,46.163313,46.162453
45.801382,5.490068,castle,C13,PA00116578,Q2971394,Château de la Serraz,3,1978-05-30 ,fr:Château de la Serraz,5.489343,5.490793,45.801812,45.800951999999995
45.761895,5.684926,,C18,PA00116306,Q3268800,Lycée Lamartine,3,1981-12-22 ,fr:Lycée Lamartine (Belley),5.684201,5.685651,45.762325000000004,45.761465
45.902824,5.179371,building,C15,PA00116497,,Maison Vallet,3,1929-10-11 ,fr:Maison Vallet,5.178646,5.180096,45.903254000000004,45.902394
46.202777777778,4.9536111111111,place_of_worship,christian,PA00116557,Q3582211,,2,1945-06-08 ,fr:Église Saint-Julien de Saint-Julien-sur-Veyle,4.9528861111111,4.9543361111111,46.203207777778005,46.202347777778
45.90324798,5.17828389,citywalls,,PA00116525,,Rempart attenant à un immeuble,2,1921-11-24 ,fr:Maison Berges,5.17755889,5.17900889,45.903677980000005,45.90281798
45.905696,5.663157,place_of_worship,christian,PA00116311,Q3585554,Église de Luthézieu,3,1975-08-11 ,fr:Chapelle Saint-Antoine et Saint-Maurice de Luthézieu,5.662432,5.663882,45.906126,45.905266
45.759847,5.688016,building,C14,PA00116303,Q3146256,Hôtel des Ducs de Savoie (ancien),3,1926-10-21 ,fr:Hôtel des ducs de Savoie (Belley),5.687291,5.688741,45.760277,45.759417
46.312849,5.274296,castle,manor,PA00116616,Q3286234,Manoir dit de Marmont,3,1992-07-23 ,fr:Manoir de Marmont,5.273571,5.275021,46.313279,46.312419
46.095555555556,4.8247222222222,castle,C13,PA00116429,Q2971170,Château de la Batie,3,2006-07-07 ,fr:Château de la Bâtie (Ain),4.8239972222222,4.8254472222222,46.095985555556,46.095125555555995
46.042185,5.409017,,C19,PA01000011,Q3591598,Anciens établissements C.J. Bonnet,3,2003-01-31 ,fr:Établissements C.J. Bonnet,5.408292,5.4097420000000005,46.042615000000005,46.041755
45.7489,5.7255,,,PA00116446,Q3387855,Pierre à bassins,2,1913-05-03 ,fr:Pierre à bassins de Bagneux,5.724775,5.726225,45.74933,45.74847
45.903669,5.179643,building,,PA00116465,Q3278659,Maison Cazin,2,1921-11-24 ,fr:Maison Cazin,5.178918,5.1803680000000005,45.904099,45.903239
45.90318448,5.18064555,building,C15,PA00116488,Q3278989,Maison Salomon,2,1924-03-22 ,fr:Maison Salomon,5.17992055,5.1813705500000005,45.90361448,45.90275448
45.996373,5.17014,building,C15,PA00116358,Q3278637,,3,1927-02-22 ,fr:Maison Bolli,5.169415,5.170865,45.996803,45.995943
45.943347,4.774954,castle,C15,PA00116582,Q2970863,Château (ruines de l'ancien),2,1913-06-13 ,fr:Château de Trévoux,4.774229,4.775679,45.943777000000004,45.942917
46.2023,5.2194,yes,C20,PA01000036,Q17175154,Chapelle Sainte-Madeleine,3,2013-10-22 ,fr:Chapelle Sainte-Madeleine de Bourg-en-Bresse,5.218675,5.220125,46.20273,46.20187
46.264885,5.49884,place_of_worship,christian,PA00116386,Q3583119,Église de Saint-Maurice d'Echazeaux,2,1941-12-09 ,fr:Église Saint-Maurice de Saint-Maurice-d'Échazeaux,5.498115,5.4995650000000005,46.265315,46.264455
46.286869,4.987426,farm,,PA00116546,Q3115330,Grange des Carons,3,1925-04-30 ,fr:Grange des Carrons,4.986701,4.988151,46.287299000000004,46.286439
46.211252,4.848522,place_of_worship,christian,PA00116313,Q3582681,,3,1945-03-07 ,fr:Église Saint-Martin de Bey,4.847797,4.849247,46.211682,46.210822
45.996404,5.169971,building,C15,PA00116359,Q3278901,Maison à pan de bois,3,1927-02-22 ,fr:Maison Mingat,5.169246,5.170696,45.996834,45.995974
46.26169831,4.88791017,building,C17,PA00116534,Q3149047,"Immeuble attenant à la tour de l'Horloge, dit immeuble Dagallier",3,1972-11-22 ,fr:Immeuble Dagallier,4.8871851699999995,4.88863517,46.26212831,46.26126831
46.1519,5.6078,place_of_worship,christian,PA00116440,Q3583212,Église Saint-Michel,2,1907-04-26 ,fr:Église Saint-Michel de Nantua,5.607075,5.608525,46.15233,46.151469999999996
45.90345231,5.18044023,building,C15,PA00116515,,Maisons et remparts qui en dépendent,2,1921-11-24 ,,5.17971523,5.18116523,45.90388231,45.90302231
45.903635,5.179052,,,PA00116458,Q3278714,Immeubles dits Maison Falconnet,2,1941-08-07 ,fr:Maison Falconnet,5.178327,5.1797770000000005,45.904065,45.903205
46.294082,4.97472,farm,,PA00116545,Q3068897,Ferme,3,1925-04-30 ,fr:Ferme de Travernay,4.9739949999999995,4.975445,46.294512000000005,46.293652
45.98869,5.269821,place_of_worship,christian,PA00116618,Q3583029,,3,1992-02-03 ,fr:Église Saint-Martin de Villette-sur-Ain,5.269096,5.270546,45.98912,45.98826
46.346628,5.3501,place_of_worship,christian,PA00116588,Q3581806,,3,1980-08-05 ,fr:Église Saint-Hippolyte de Verjon,5.349375,5.350825,46.347058000000004,46.346198
46.186237,5.019078,castle,C15,PA00116362,Q2968858,,3,1987-02-18 ,fr:Château de Châtenay (Chanoz-Châtenay),5.018353,5.0198030000000005,46.186667,46.185807
46.209581,5.132047,place_of_worship,christian,PA00116353,Q2398035,,3,1926-07-09 ,fr:Église Saint-Martin de Buellas,5.131322,5.132772,46.210011,46.209151
46.459289,5.08278,place_of_worship,christian,PA00116570,Q3584599,,3,1982-12-29 ,fr:Église Saint-Trivier de Saint-Trivier-de-Courtes,5.0820549999999995,5.083505,46.459719,46.458859
46.255574,6.110853,fountain,yes,PA00116397,Q3076131,Fontaine,3,1988-04-19 ,fr:Fontaine de Ferney-Voltaire,6.110128,6.111578,46.256004000000004,46.255144
46.205318,5.227749,building,C16,PA00116338,Q22966701,,3,1947-09-10 ,"fr:Maison, 16 rue Maréchal-Foch (Bourg-en-Bresse)",5.227024,5.228474,46.205748,46.204888
46.28376,4.981886,farm,C14,PA00116544,Q3068929,Ferme des Planons,2,1938-06-25 ,fr:Ferme des Planons,4.981161,4.982611,46.28419,46.28333
46.450846,5.17808,farm,,PA00116560,Q3068830,Ferme Bourbon,2,1944-04-28 ,fr:Ferme Bourbon,5.1773549999999995,5.178805,46.451276,46.450416
45.99306,4.821821,catholic,C18,PA00116295,Q3402367,Presbytère du curé d'Ars (ancien),3,1966-02-03 ,fr:Presbytère du curé d'Ars,4.821096,4.822546,45.99349,45.99263
45.903146,5.178841,building,C15,PA00116498,Q22966715,Maison Valensot ou Vernay,2,1929-12-09 ,fr:Maison Valensot,5.178116,5.179566,45.903576,45.902716
45.924483,4.978475,,C11,PA00116604,Q3325346,Motte castrale,3,1989-09-19 ,fr:Motte castrale de Saint-André-de-Corcy,4.97775,4.9792000000000005,45.924913000000004,45.924053
45.638932,5.628442,,,PA00116350,Q3117138,Abri sous roche dit Grotte préhistorique de Lievrin,,,fr:Grotte de Lievrin,5.627717,5.629167,45.639362,45.638501999999995
49.323638,3.445268,,C13,PA00115928,Q2985956,Ancienne commanderie des Templiers du Mont-de-Soissons,3,1927-06-03 ,fr:Commanderie du Mont-de-Soissons,3.444543,3.445993,49.324068000000004,49.323208
49.045612,3.397607,place_of_worship,christian,PA00115586,Q3581259,Église Saint-Crepin,2,1957-08-20 ,fr:Église Saint-Crépin de Château-Thierry,3.3968819999999997,3.398332,49.046042,49.045182
49.4441,3.6067,,C20,PA00132907,Q2940290,Carrière de Froidmont,2,1998-11-17 ,fr:Carrière de Froidmont,3.605975,3.607425,49.44453,49.44367
49.487843,3.563763,place_of_worship,christian,PA00115961,Q3580484,Église Notre-Dame,2,1880-01-16 ,fr:Église Notre-Dame d'Urcel,3.5630379999999997,3.564488,49.488273,49.487413
49.528673,3.541152,,,PA02000046,Q3555403,Vendangeoir des Frères Le Nain,3,2003-09-23 ,fr:Vendangeoir des Frères Le Nain,3.5404269999999998,3.541877,49.529103,49.528242999999996
49.350635,3.169998,wayside_cross,C16,PA00115779,Q3003497,Croix de cimetière,3,1927-06-15 ,fr:Croix de cimetière de Laversine,3.169273,3.170723,49.351065,49.350204999999995
49.5182,3.6553,place_of_worship,christian,PA00115992,Q3582037,,2,1910-01-22 ,fr:Église Saint-Jean-Baptiste de Vorges,3.654575,3.656025,49.51863,49.51777
49.924186,3.810692,castle,C17,PA00115655,Q2971340,Château de la Plesnoye,3,1985-10-14 ,fr:Château de la Plesnoye,3.809967,3.811417,49.924616,49.923756
49.29288,3.640353,,C15,PA00115989,Q2970992,Ancien château,3,1927-06-03 ,fr:Château de Ville-Savoye,3.639628,3.6410780000000003,49.29331,49.292449999999995
48.956465,3.424231,wayside_cross,C16,PA00115824,Q3003508,Croix de cimetière,2,1934-07-02 ,fr:Croix de cimetière de Montfaucon,3.4235059999999997,3.424956,48.956895,48.956035
49.38101,3.3284,,C12,PA00115943,Q22966467,Ancienne église Saint-Pierre-au-Parvis,2,1846 ,,3.3276749999999997,3.329125,49.381440000000005,49.38058
49.321286,3.184911,place_of_worship,christian,PA00115908,Q3584081,,2,1920-02-20 ,fr:Église Saint-Pierre de Saint-Pierre-Aigle,3.184186,3.185636,49.321716,49.320856
49.045017,3.402843,tower,yes,PA00115592,Q3533021,Tour Balhan,3,1926-12-02 ,fr:Tour Balhan,3.4021179999999998,3.403568,49.045447,49.044587
49.123233,3.319105,place_of_worship,christian,PA00115543,Q3582690,,2,1920-08-31 ,fr:Église Saint-Martin de Bonnesvalyn,3.31838,3.31983,49.123663,49.122803
49.568448,3.630179,,C17,PA00115713,Q22966416,Ancien colombier des Evêques de Laon,2,1928-03-06 ,,3.629454,3.630904,49.568878,49.568017999999995
49.93409,3.999286,place_of_worship,christian,PA00115995,Q3583040,,3,1989-06-14 ,fr:Église Saint-Martin de Wimy,3.998561,4.000011,49.93452,49.933659999999996
49.403874,3.109437,place_of_worship,christian,PA00115975,Q3580699,,2,1920-01-10 ,fr:Église Notre-Dame de Vic-sur-Aisne,3.1087119999999997,3.110162,49.404304,49.403444
49.047329,3.406245,,C13,PA00115591,Q3424614,Anciens remparts,,,fr:Remparts de Château-Thierry,3.40552,3.4069700000000003,49.047759,49.046898999999996
49.807534,4.01936,place_of_worship,christian,PA00115870,Q3580635,,3,1987-07-09 ,fr:Église Notre-Dame de Plomion,4.018635,4.020085,49.807964,49.807103999999995
49.1618,3.422171,place_of_worship,christian,PA00115606,Q3580277,,2,1921-02-19 ,fr:Église Notre-Dame-de-l'Assomption de Coincy,3.421446,3.422896,49.16223,49.16137
49.220172,3.136723,tomb,mausoleum,PA00116003,Q2421229,Mausolée du Général Charpentier,3,1990-04-09 ,fr:Mausolée du Général Charpentier,3.135998,3.137448,49.220602,49.219742
49.401227,3.454,fort,,PA02000032,Q3078168,Fort de Condé,,,fr:Fort de Condé,3.453275,3.4547250000000003,49.401657,49.400797
49.785479,3.548525,castle,C18,PA00115864,Q2970183,,3,1928-02-03 ,fr:Château de Parpeville,3.5478,3.5492500000000002,49.785909000000004,49.785049
49.564545,3.622943,,C13,PA00115732,Q20722017,"Ancienne Hôtellerie du Dauphin, dite Cour du Change",3,1981-10-06 ,fr:Hôtellerie du Dauphin,3.6222179999999997,3.623668,49.564975000000004,49.564115
49.17028,3.26028,place_of_worship,christian,PA00115841,Q3584311,,2,1920-02-05 ,fr:Église Saint-Rémi-et-Saint-Front de Neuilly-Saint-Front,3.2595549999999998,3.261005,49.17071,49.16985
49.252488,3.211294,place_of_worship,christian,PA00115615,Q3580816,,2,1920-02-20 ,fr:Église Saint-Alban de Corcy,3.210569,3.212019,49.252918,49.252058
49.74037,3.770682,place_of_worship,christian,PA00115807,Q3580615,Église Notre-Dame,2,1846 ,fr:Église Notre-Dame de Marle,3.769957,3.771407,49.7408,49.73994
49.254967,3.090722,,C18,PA00125660,Q3146210,"Ancien logis abbatial des Prémontrés, actuel Hôtel de Ville",2,1995-05-10 ,fr:Hôtel de ville de Villers-Cotterêts,3.089997,3.091447,49.255397,49.254537
49.90053,3.823092,place_of_worship,christian,PA00115897,Q3580828,,3,1989-06-14 ,fr:Église Saint-Algis de Saint-Algis,3.822367,3.823817,49.900960000000005,49.9001
49.501792,3.596193,place_of_worship,christian,PA00115777,Q3583384,,2,1921-01-18 ,fr:Église Saint-Nicolas de Laval-en-Laonnois,3.595468,3.596918,49.502222,49.501362
50.011046,3.207715,place_of_worship,christian,PA00132911,Q3583015,Église Saint-Martin,3,1994-11-04 ,fr:Église Saint-Martin de Vendhuile,3.20699,3.20844,50.011476,50.010616
49.353034,3.488642,place_of_worship,christian,PA00115964,Q3584309,,2,1909-10-23 ,fr:Église Saint-Rupert-et-Saint-Druon de Vasseny,3.487917,3.489367,49.353464,49.352604
49.6958908,3.6239682,building,C17,PA00115637,Q22966407,Maison du 17e siècle,,,,3.6232432,3.6246932000000003,49.6963208,49.6954608
49.63505,3.650889,place_of_worship,christian,PA00115517,Q3582666,,2,1921-11-17 ,fr:Église Saint-Martin de Barenton-Bugny,3.6501639999999997,3.651614,49.63548,49.63462
49.047496,3.481711,wayside_cross,C14,PA00115683,Q3003441,Croix de chemin,2,1931-09-24 ,fr:Croix de chemin de Fossoy,3.4809859999999997,3.482436,49.047926000000004,49.047066
49.295375,3.492268,place_of_worship,christian,PA00115644,Q3582754,,2,1920-02-20 ,fr:Église Saint-Martin de Cuiry-Housse,3.491543,3.4929930000000002,49.295805,49.294945
48.995154,3.266618,castle,C18,PA02000073,Q2971027,,3,2007-09-14 ,fr:Château de Villiers-Saint-Denis,3.2658929999999997,3.267343,48.995584,48.994724
49.340521,3.638371,place_of_worship,christian,PA00115965,Q3585805,,2,1924-12-17 ,fr:Église de la Nativité-de-la-Sainte-Vierge de Vauxcéré,3.6376459999999997,3.639096,49.340951000000004,49.340091
49.502165,3.610666,place_of_worship,christian,PA00115849,Q3582916,,2,1862 ,fr:Église Saint-Martin de Nouvion-le-Vineux,3.609941,3.6113910000000002,49.502595,49.501735
49.738248,3.737202,place_of_worship,christian,PA00115801,Q3583281,,3,1966-04-15 ,fr:Église Saint-Médard de Marcy-sous-Marle,3.736477,3.737927,49.738678,49.737818
49.356076,3.38566,place_of_worship,christian,PA00115532,Q2415619,,3,1927-06-15 ,fr:Église Saint-Léger de Billy-sur-Aisne,3.384935,3.386385,49.356506,49.355646
49.5759,3.1469,,C16,PA00115881,Q2226745,Ancien château,3,1928-02-08 ,fr:Château de Quierzy,3.146175,3.147625,49.57633,49.575469999999996
49.876717,3.145904,,,PA00115969,Q940173,Camp Romain,2,1840 ,fr:Camp Romain,3.1451789999999997,3.146629,49.877147,49.876287
49.182545,3.202136,place_of_worship,christian,PA00115804,Q3585061,,2,1920-10-20 ,fr:Église Sainte-Geneviève de Marizy-Sainte-Geneviève,3.201411,3.202861,49.182975,49.182114999999996
49.529321,3.798711,,C17,PA00115810,Q2969842,Ancien château,3,1928-05-30 ,fr:Château de Mauregny-en-Haye,3.797986,3.799436,49.529751000000005,49.528891
49.358502,3.335702,place_of_worship,christian,PA00115524,Q3580881,Église Saint-André,2,1920-03-25 ,fr:Église Saint-André de Belleu,3.334977,3.336427,49.358932,49.358072
49.38582,3.771749,place_of_worship,christian,PA00115645,Q3581690,,2,1922-10-16 ,fr:Église Saint-Gervais-et-Saint-Protais de Cuiry-lès-Chaudardes,3.7710239999999997,3.772474,49.386250000000004,49.38539
49.562227,3.622704,,C13,PA00115705,Q22966411,Ancienne abbaye de Saint-Jean,,,fr:Abbaye Saint-Jean de Laon,3.621979,3.6234290000000002,49.562657,49.561797
49.276513,3.393483,place_of_worship,christian,PA00115654,Q3584371,,3,1927-06-15 ,fr:Église Saint-Rémy de Droizy,3.3927579999999997,3.394208,49.276943,49.276083
49.269954,3.564602,place_of_worship,christian,PA00115563,Q3585787,,2,1920-06-08 ,fr:Église de la Nativité-de-la-Sainte-Vierge de Bruys,3.5638769999999997,3.565327,49.270384,49.269524
49.020299,3.195742,place_of_worship,christian,PA00115831,Q3582900,,2,1921-01-18 ,fr:Église Saint-Martin de Montreuil-aux-Lions,3.195017,3.196467,49.020729,49.019869
49.871071,4.103978,,C18,PA02000080,Q3068903,Ancienne ferme de l'abbaye prémontrée de Bucilly,3,2009-11-02 ,fr:Ferme de l'abbaye de Bucilly,4.103253,4.104703,49.871501,49.870641
49.178664,3.473731,building,C18,PA00115982,Q3280240,Maison natale de Paul Claudel,3,1964-07-07 ,fr:Maison natale de Paul Claudel,3.473006,3.474456,49.179094,49.178233999999996
49.045861,3.404297,building,C17,PA02000063,Q958440,Hôtel Dieu,3,2007-01-26 ,fr:Hôtel-Dieu de Château-Thierry,3.403572,3.405022,49.046291000000004,49.045431
49.179959,3.140156,,C12,PA00115676,Q3584608,Ancienne église Saint-Vaast,,,fr:Église Saint-Vaast de La Ferté-Milon,3.139431,3.1408810000000003,49.180389,49.179528999999995
49.14931,3.428468,place_of_worship,christian,PA00115554,Q3583178,,2,1920-08-10 ,fr:Église Saint-Michel de Brécy,3.427743,3.429193,49.14974,49.14888
49.379528,3.236233,wayside_cross,C14,PA00115866,Q3003680,Croix,2,1937-04-24 ,fr:Croix monumentale de Pernant,3.235508,3.236958,49.379958,49.379098
49.04675,3.399994,building,C16,PA00115588,Q22966405,Maison de Jean de la Fontaine,2,1910-01-08 ,fr:Musée Jean de La Fontaine,3.399269,3.400719,49.047180000000004,49.04632
49.38374,3.32832,building,C18,PA02000064,Q3146191,Hôtel de ville,3,2007-01-26 ,fr:Hôtel de ville de Soissons,3.327595,3.3290450000000003,49.384170000000005,49.38331
48.993543,3.505205,place_of_worship,christian,PA00115625,Q3581946,,2,1920-10-25 ,fr:Église Saint-Jean-Baptiste de Courboin,3.50448,3.50593,48.993973000000004,48.993113
49.499699,3.284132,castle,C19,PA02000040,Q2970267,,3,2002-10-14 ,fr:Château de Pont-Saint-Mard,3.283407,3.284857,49.500129,49.499269
49.175738,3.126163,memorial,statue,PA00115678,Q3497590,Statue de Racine,3,1932-06-03 ,fr:Statue de Racine (La Ferté-Milon),3.125438,3.126888,49.176168000000004,49.175308
48.885734,3.508791,,C19,PA02000082,Q22979597,Colonne commémorative de Montmirail,3,2014-05-23 ,fr:Colonne commémorative de Montmirail,3.508066,3.509516,48.886164,48.885304
49.7967982,3.4608625,building,C18,PA00116004,Q3280227,Maison natale de Condorcet,3,1990-03-23 ,fr:Maison natale de Condorcet,3.4601375,3.4615875000000003,49.7972282,49.796368199999996
49.075795,3.61042,place_of_worship,christian,PA00115959,Q3583295,,2,1920-01-17 ,fr:Église Saint-Médard de Trélou-sur-Marne,3.609695,3.611145,49.076225,49.075365
49.528438,3.305246,,C20,PA00115619,Q3391836,Plate-forme de la pièce allemande,2,1922-09-20 ,fr:Plate-forme de l'obusier de Coucy-le-Château-Auffrique,3.304521,3.305971,49.528868,49.528008
49.030317,3.375345,,,PA00115664,Q22966408,Terrain,2,1928-08-17 ,,3.3746199999999997,3.37607,49.030747,49.029886999999995
49.601527,3.516041,place_of_worship,christian,PA00115638,Q3580554,Église Notre-Dame,2,1921-01-04 ,fr:Église Notre-Dame de Crépy,3.515316,3.516766,49.601957,49.601096999999996
49.235028,3.389376,yes,C15,PA00115689,Q3583050,Ruines de l'église,2,1921-05-17 ,fr:Église Saint-Martin du Grand-Rozoy,3.388651,3.390101,49.235458,49.234598
49.045263,3.396387,building,C18,PA02000002,Q22995437,Hôtel particulier,3,1996-02-02 ,,3.3956619999999997,3.397112,49.045693,49.044833
49.371837,3.09929,place_of_worship,christian,PA00115829,Q3582893,,2,1921-11-10 ,fr:Église Saint-Martin de Montigny-Lengrain,3.098565,3.100015,49.372267,49.371407
49.406961,3.599176,place_of_worship,christian,PA00115954,Q3580672,,2,1920-10-05 ,fr:Église Notre-Dame de Soupir,3.598451,3.599901,49.407391000000004,49.406531
49.8191,3.8227,place_of_worship,christian,PA00115999,Q3584094,,3,1989-06-14 ,fr:Église Saint-Pierre de Saint-Pierre-lès-Franqueville,3.821975,3.8234250000000003,49.81953,49.81867
49.585379,3.734233,wayside_cross,C13,PA00115919,Q3003681,Croix,3,1932-06-03 ,fr:Croix monumentale de Samoussy,3.733508,3.7349580000000002,49.585809000000005,49.584949
49.387108,3.437278,place_of_worship,christian,PA00115815,Q3585260,,2,1919-10-15 ,fr:Église Sainte-Radegonde de Missy-sur-Aisne,3.436553,3.438003,49.387538,49.386677999999996
49.56827,3.634109,place_of_worship,christian,PA00115724,Q18533447,Église de Vaux-sous-Laon,2,1920-02-20 ,fr:Église de Vaux-sous-Laon,3.633384,3.634834,49.5687,49.56784
49.389402,3.402827,,C14,PA00115565,Q2968701,Ancien château,3,1926-01-09 ,fr:Château de Bucy-le-Long,3.4021019999999997,3.403552,49.389832,49.388971999999995
49.25237712,3.08868233,fountain,yes,PA00115986,Q3076174,Fontaine,3,1932-05-11 ,fr:Fontaine de Villers-Cotterêts,3.08795733,3.0894073300000002,49.25280712,49.25194712
49.846936,3.287208,building,C14,PA00115913,Q3146184,Hôtel de ville,2,1984-08-29 ,fr:Hôtel de ville de Saint-Quentin,3.286483,3.287933,49.847366,49.846506
49.564001,3.616042,building,C15,PA00115730,Q20737805,Hôtel du Petit-Saint-Vincent,2,1964-11-30 ,fr:Hôtel du Petit-Saint-Vincent,3.615317,3.6167670000000003,49.564431,49.563570999999996
49.782175,3.895893,place_of_worship,christian,PA00115568,Q3582706,,2,1931-05-16 ,fr:Église Saint-Martin de Burelles,3.895168,3.896618,49.782605000000004,49.781745
49.904282,3.625402,,C19,PA00115695,Q1395337,Familistère Godin,,,fr:Familistère de Guise,3.6246769999999997,3.626127,49.904712,49.903852
49.925836,4.135666,building,C16,PA02000035,Q3280061,Maison du Prévôt,3,2001-08-17 ,fr:Maison du Prévôt (Saint-Michel),4.1349409999999995,4.136391,49.926266,49.925405999999995
49.302359,3.404516,place_of_worship,christian,PA00115578,Q3581928,,2,1922-02-07 ,fr:Église Saint-Jean-Baptiste de Chacrise,3.403791,3.405241,49.302789000000004,49.301929
49.217513,3.300548,place_of_worship,christian,PA00115533,Q3582684,,2,1922-11-21 ,fr:Église Saint-Martin de Billy-sur-Ourcq,3.299823,3.301273,49.217943,49.217082999999995
49.118128,3.43326,castle,C16,PA00116007,Q2970074,Château et ferme de Moucheton,3,1992-04-10 ,fr:Château de Moucheton,3.432535,3.4339850000000003,49.118558,49.117698
49.51495,3.523328,place_of_worship,christian,PA00115892,Q3582204,Église Saint-Julien et Saint-Jean-Baptiste,2,1862 ,fr:Église Saint-Julien de Royaucourt-et-Chailvet,3.5226029999999997,3.524053,49.51538,49.51452
49.639709,3.371665,place_of_worship,christian,PA00115502,Q3581316,,2,1921-08-12 ,fr:Église Saint-Denis d'Andelain,3.37094,3.37239,49.640139000000005,49.639279
49.564514,3.618515,building,C17,PA00115746,Q22966436,,3,1927-07-15 ,,3.61779,3.61924,49.564944000000004,49.564084
49.5131,3.535,,C16,PA00115891,Q2968814,Ancien château,,,fr:Château de Chailvet,3.534275,3.5357250000000002,49.51353,49.51267
49.844881,3.285658,city_gate,C17,PA00115914,Q3399158,Porte dite des Canonniers,3,1930-10-11 ,fr:Porte des Canonniers,3.284933,3.2863830000000003,49.845311,49.844451
49.341094,3.564361,yes,C13,PA00115626,Q2957445,Chapelle dite Le Calvaire,3,1929-01-25 ,fr:Chapelle du Calvaire (Courcelles-sur-Vesle),3.563636,3.565086,49.341524,49.340664
49.424248,3.183503,,C20,PA00116002,Q3323334,Monument de la Croix-Brisée,3,1990-06-28 ,fr:Monument de la Croix-Brisée,3.182778,3.184228,49.424678,49.423818
49.187934,3.288474,place_of_worship,christian,PA00115972,Q3581257,,2,1892-07-12 ,fr:Église Saint-Crépin-et-Saint-Crépinien de Vichel,3.287749,3.289199,49.188364,49.187504
49.707708,4.128401,place_of_worship,christian,PA00115894,Q3582309,Église Saint-Laurent,2,1986-12-02 ,fr:Église Saint-Laurent de Rozoy-sur-Serre,4.127676,4.129126,49.708138,49.707277999999995
49.425658,3.967631,archaeological_site,fortification,PA00116012,Q22966476,Oppidum de Variscourt,,,,3.966906,3.968356,49.426088,49.425228
49.849751,3.404509,dovecote,yes,PA02000041,Q27902458,Pigeonnier,3,2003-02-17 ,fr:Pigeonnier de Marcy,3.403784,3.405234,49.850181,49.849320999999996
49.56401,3.615702,building,C15,PA00115749,Q22966440,,3,1927-11-14 ,,3.614977,3.6164270000000003,49.564440000000005,49.56358
49.562787,3.611552,,C12,PA00115706,Q22966413,Ancienne abbaye de Saint-Martin,3,1926-07-09 ,fr:Abbaye Saint-Martin de Laon,3.610827,3.612277,49.563217,49.562357
49.264815,3.504156,,C16,PA00115504,Q2968653,Ancien château de Branges,3,1928-02-08 ,fr:Château de Branges,3.503431,3.504881,49.265245,49.264385
49.234299,3.04335,castle,manor,PA02000062,Q3286176,Manoir de Coyolles,3,2007-02-06 ,fr:Manoir de Coyolles,3.042625,3.0440750000000003,49.234729,49.233869
49.444594,3.788502,,,PA02000048,Q2845767,Village du Vieux Craonne,3,2003-03-17 ,fr:Ancien Craonne,3.7877769999999997,3.789227,49.445024000000004,49.444164
49.246808,3.535329,place_of_worship,christian,PA00115796,Q3584308,,3,1927-06-15 ,fr:Église Saint-Rufin-et-Sainte-Valère de Loupeigne,3.534604,3.536054,49.247238,49.246378
49.001314,3.366112,place_of_worship,christian,PA00115515,Q3581489,Église Saint-Félix,2,1911-09-23 ,fr:Église Saint-Félix d'Azy-sur-Marne,3.365387,3.3668370000000003,49.001744,49.000884
49.791843,3.527427,place_of_worship,christian,PA00115869,Q3581136,,2,1913-10-22 ,fr:Église Saint-Brice de Pleine-Selve,3.526702,3.528152,49.792273,49.791413
48.871719,3.44669,place_of_worship,christian,PA00115968,Q3582029,,3,1928-06-05 ,fr:Église Saint-Jean-Baptiste de Vendières,3.4459649999999997,3.447415,48.872149,48.871289
49.760399,4.076048,place_of_worship,christian,PA00115832,Q3583396,,3,1989-06-28 ,fr:Église Saint-Nicolas de Morgny-en-Thiérache,4.075323,4.076773,49.760829,49.759969
49.44808,3.409581,,C20,PA02000083,Q477892,Camp fortifié dit  Wolfschlucht 2  ou  W 2 ,3,2014-02-05 ,,3.408856,3.4103060000000003,49.44851,49.447649999999996
49.859612,3.974277,place_of_worship,christian,PA00115548,Q3580583,,3,1927-06-01 ,fr:Église Notre-Dame de La Bouteille,3.9735519999999998,3.975002,49.860042,49.859182
49.1617,3.4225,,C18,PA02000052,Q2911188,Bornes de délimitation,3,2004-10-18 ,fr:Bornes de délimitation de Coincy,3.421775,3.423225,49.162130000000005,49.16127
48.929355,3.553577,place_of_worship,christian,PA00115508,Q3583730,,3,1928-06-05 ,fr:Église Saint-Pierre d'Artonges,3.552852,3.5543020000000003,48.929785,48.928925
49.272052,3.375485,farm,C16,PA00115776,Q3068886,Ferme de Neuville-Saint-Jean,2,1995-02-03 ,fr:Ferme de Neuville-Saint-Jean,3.3747599999999998,3.37621,49.272482000000004,49.271622
49.38082,3.32863,,,PA00115936,Q22966464,Ancienne abbaye Notre-Dame,2,1913-08-20 ,,3.327905,3.329355,49.38125,49.38039
49.174,3.125,,C15,PA00115673,Q2969540,Restes du château,2,1862 ,fr:Château de La Ferté-Milon,3.124275,3.125725,49.17443,49.17357
49.18376201,3.37166038,,,PA02000028,Q3397779,Ponts Bernard (également sur commune de Breny),3,2001-06-11 ,fr:Ponts Bernard,3.3709353799999997,3.37238538,49.184192010000004,49.18333201
49.622312,3.506884,,C20,PA00115640,Q3391835,Plate-forme d'artillerie (emplacement du canon allemand dit la Grosse Bertha),2,1922-04-28 ,fr:Plate-forme du Parisgeschütz de Crépy,3.506159,3.507609,49.622742,49.621882
49.564196,3.622485,building,C16,PA00115735,Q22966422,,3,1927-11-07 ,,3.62176,3.6232100000000003,49.564626000000004,49.563766
49.214032,3.479614,,C13,PA00115920,Q2970629,Restes du château,3,1928-06-05 ,fr:Château de Saponay,3.478889,3.4803390000000003,49.214462000000005,49.213602
49.739206,4.16054,place_of_worship,christian,PA00115863,Q3583283,Église Saint-Médard,2,1995-02-03 ,fr:Église Saint-Médard de Parfondeval,4.159815,4.161265,49.739636000000004,49.738776
49.47816,3.64506,,C20,PA02000008,Q3323316,Monument commémoratif franco-allemand,3,1997-12-22 ,fr:Monument commémoratif franco-allemand de Pancy-Courtecon,3.644335,3.645785,49.478590000000004,49.47773
49.30985,3.144169,castle,C18,PA00115825,Q2970004,,,,fr:Château de Montgobert,3.143444,3.1448940000000003,49.31028,49.309419999999996
49.564711,3.61351,,C17,PA00115727,,Ancien hôpital général,3,1993-08-12 ,fr:Hôpital général de Laon,3.612785,3.6142350000000003,49.565141000000004,49.564281
49.358609,3.653043,place_of_worship,christian,PA00115792,Q3585098,Église de Longueval,2,1921-07-23 ,fr:Église Sainte-Macre de Longueval,3.6523179999999997,3.653768,49.359039,49.358179
49.168896,3.354151,place_of_worship,christian,PA00115641,Q3580585,,2,1920-08-30 ,fr:Église Notre-Dame de La Croix-sur-Ourcq,3.353426,3.354876,49.169326,49.168465999999995
49.518877,3.325274,place_of_worship,christian,PA00115618,Q3584448,,2,1920-10-05 ,fr:Église Saint-Sauveur de Coucy-le-Château-Auffrique,3.3245489999999998,3.325999,49.519307000000005,49.518447
49.896438,4.022498,place_of_worship,christian,PA00115853,Q3581277,,3,1927-10-24 ,fr:Église Saint-Cyr-et-Sainte-Julitte d'Origny-en-Thiérache,4.021773,4.023223,49.896868000000005,49.896008
49.243978,3.1538,place_of_worship,christian,PA00115649,Q3582344,,3,1927-06-15 ,fr:Église Saint-Leu de Dampleux,3.153075,3.154525,49.244408,49.243548
49.25382502,3.09250569,,C17,PA00125661,Q3146315,Hôtellerie du Régent,3,1993-11-19 ,fr:Hôtellerie du Régent,3.0917806899999998,3.09323069,49.25425502,49.25339502
49.918219,3.572694,,C18,PA00115962,Q2820538,Ancienne abbaye de Bohéries,2,1995-01-30 ,fr:Abbaye de Bohéries,3.5719689999999997,3.573419,49.918649,49.917789
49.33209,3.542152,castle,C17,PA00115551,Q2971595,Château du Bas,,,fr:Château du Bas,3.541427,3.5428770000000003,49.33252,49.33166
49.56025,3.610227,tower,yes,PA00115772,Q22966459,Tour Penchée,3,1929-10-24 ,,3.609502,3.610952,49.560680000000005,49.55982
49.440422,3.522921,,C20,PA02000019,Q3002519,La Creute du Caïd,,,fr:Creute du Caïd,3.522196,3.5236460000000003,49.440852,49.439992
49.201746,3.638733,castle,C13,PA00115622,Q2970410,Château de Rognac,3,1928-06-05 ,fr:Château de Rognac (Aisne),3.638008,3.6394580000000003,49.202176,49.201316
49.792524,3.883396,place_of_worship,christian,PA00115691,Q3584597,Église Saint-Thious,2,1995-03-10 ,fr:Église Saint-Théodulphe de Gronard,3.8826709999999998,3.884121,49.792954,49.792094
49.828247,3.872142,,C15,PA00115681,Q2968749,Ancien château de Cambron,3,1928-02-03 ,fr:Château de Cambron,3.871417,3.8728670000000003,49.828677,49.827816999999996
49.677683,3.650393,,,PA00115580,Q2968820,Ancien chateau,3,1927-06-28 ,fr:Château de Chalandry,3.649668,3.6511180000000003,49.678113,49.677253
49.123893,3.182735,place_of_worship,christian,PA00115595,Q3581330,,2,1920-11-20 ,fr:Église Saint-Denis de Chézy-en-Orxois,3.18201,3.18346,49.124323000000004,49.123463
49.202335,3.386638,place_of_worship,christian,PA00115855,Q3583269,Église de Cugny-les-Crouttes,2,1921-10-06 ,fr:Église Saint-Médard de Cugny-les-Crouttes,3.385913,3.387363,49.202765,49.201905
49.632055,3.178546,,C13,PA00115573,Q3583817,Ancienne église Saint-Pierre,3,1975-03-13 ,fr:Église Saint-Pierre de Caumont,3.177821,3.179271,49.632485,49.631625
49.556273,3.616648,,C12,PA00115707,Q334227,Ancienne abbaye Saint-Vincent,,,fr:Abbaye Saint-Vincent de Laon,3.615923,3.617373,49.556703,49.555842999999996
49.338609,3.155941,place_of_worship,christian,PA00115604,Q3583249,Église de Coeuvres,2,1920-06-22 ,fr:Église Saint-Médard-et-Saint-Gildard de Cœuvres-et-Valsery,3.155216,3.156666,49.339039,49.338179
49.423638,3.958967,archaeological_site,fortification,PA00116011,Q22966476,Oppidum de Variscourt (également sur commune de Variscourt),3,1992-07-27 ,,3.958242,3.959692,49.424068,49.423207999999995
49.844044,3.288603,yes,C19,PA02000056,Q2399232,Chapelle de la Charité,3,2005-07-29 ,fr:Chapelle de la Charité,3.287878,3.2893280000000003,49.844474,49.843613999999995
49.564907,3.624799,,C17,PA00115729,Q18922464,Ancien Hôtel-Dieu,2,1928-05-09 ,fr:Hôtel-Dieu de Laon,3.624074,3.625524,49.565337,49.564477
49.560588,3.610618,city_gate,C13,PA00115769,Q20719385,Porte de Soissons ou de Saint-Martin,2,1875 ,fr:Porte de Soissons,3.609893,3.611343,49.561018000000004,49.560158
49.391522,3.791816,place_of_worship,christian,PA00115593,Q3581933,,2,1919-10-15 ,fr:Église Saint-Jean-Baptiste de Chaudardes,3.7910909999999998,3.792541,49.391952,49.391092
49.37988,3.32784,,C13,PA00116000,Q2820327,Ancienne abbaye de Valsery,3,1989-03-30 ,fr:Abbaye de Valsery,3.327115,3.328565,49.38031,49.37945
49.15451,3.425067,castle,C13,PA00115553,Q2971642,Château du Buisson,,,fr:Château du Buisson (Brécy),3.4243419999999998,3.425792,49.15494,49.15408
49.38454,3.32733,,C13,PA00115939,Q2820394,Ancienne abbaye Saint-Léger,,,fr:Abbaye Saint-Léger de Soissons,3.326605,3.328055,49.38497,49.38411
49.472189,3.611369,place_of_worship,christian,PA00115960,Q3585849,,2,1886-07-12 ,fr:Église de la Sainte-Trinité de Trucy,3.6106439999999997,3.612094,49.472619,49.471759
49.839701,3.297163,,C20,PA02000049,Q2031679,Gare,3,2003-09-23 ,fr:Gare de Saint-Quentin,3.2964379999999998,3.297888,49.840131,49.839271
49.322178,3.011828,place_of_worship,christian,PA00115885,Q3580988,,2,1919-10-20 ,fr:Église Saint-Aubin de Retheuil,3.011103,3.012553,49.322608,49.321748
49.307917,3.619367,place_of_worship,christian,PA00115521,Q3583770,,2,1919-12-10 ,fr:Église Saint-Pierre de Bazoches-sur-Vesles,3.618642,3.620092,49.308347000000005,49.307487
49.382329,3.325228,,C18,PA00115942,Q22966466,Collège,2,1908-02-11 ,,3.324503,3.325953,49.382759,49.381899
49.5151255,3.1521467,,,PA00115537,Q3001714,Ancien couvent des Feuillants,3,1928-02-08 ,fr:Couvent des Feuillants de Blérancourt,3.1514216999999998,3.1528717,49.515555500000005,49.5146955
49.33762,3.154428,,C16,PA00115603,Q2410650,Ancien château de Coeuvres,3,1927-06-28 ,fr:Château de Cœuvres,3.1537029999999997,3.155153,49.33805,49.33719
49.37921,3.32937,,C20,PA02000076,Q22995472,Salle des Feuillants,3,2008-07-24 ,,3.328645,3.330095,49.37964,49.37878
49.037718,3.348759,place_of_worship,C18,PA00115663,Q3517588,Temple de Monneaux,3,1986-09-02 ,fr:Temple de Monneaux,3.3480339999999997,3.349484,49.038148,49.037288
49.578929,3.546599,,C15,PA00115575,Q3036707,Ancien donjon,2,2004-08-24 ,fr:Donjon de Cerny-lès-Bucy,3.545874,3.547324,49.579359000000004,49.578499
49.741576,3.773375,,,PA00115808,Q3424008,Relais de poste,3,1933-05-29 ,fr:Relais de poste de Marle,3.77265,3.7741000000000002,49.742006,49.741146
49.612003,3.219627,,C19,PA02000061,Q22995469,Pâtisserie du Marché couvert,3,2006-07-25 ,,3.218902,3.220352,49.612433,49.611573
49.564497,3.627961,,C18,PA02000059,Q20899950,Ancien séminaire,3,2005-07-20 ,fr:Séminaire de Laon,3.627236,3.628686,49.564927000000004,49.564067
49.564248,3.620108,city_gate,C13,PA00115767,Q22966457,Porte de Chenizelles,2,1932-04-22 ,,3.619383,3.620833,49.564678,49.563818
49.16561,3.265242,stone,grooves,PA00115842,Q3394285,Polissoir,2,1970-02-10 ,fr:Polissoir de Neuilly-Saint-Front,3.264517,3.2659670000000003,49.16604,49.16518
49.696121,3.624035,building,C18,PA00115636,Q3146146,Hôtel de ville,3,1928-02-08 ,fr:Hôtel de ville de Crécy-sur-Serre,3.62331,3.62476,49.696551,49.695691
49.85637,3.95299,archaeological_site,megalith,PA00115549,Q3305903,Menhir dit La Haute-Ronde,2,1889 ,fr:Menhir de la Haute-Ronde,3.9522649999999997,3.953715,49.8568,49.85594
49.990712,3.260818,,C18,PA00115688,Q2820791,Ancienne abbaye du Mont-Saint-Martin,,,fr:Abbaye du Mont-Saint-Martin,3.260093,3.261543,49.991142,49.990282
49.38306,3.32698,building,C13,PA00115947,Q22966470,,3,1928-01-10 ,,3.3262549999999997,3.327705,49.38349,49.38263
49.397755,3.4693033333333,place_of_worship,christian,PA00115611,Q3583615,,2,1919-08-05 ,fr:Église Saint-Pierre-et-Saint-Paul de Condé-sur-Aisne,3.4685783333333,3.4700283333333,49.398185,49.397324999999995
48.895548,3.396186,place_of_worship,christian,PA00115977,Q3585006,,3,1928-06-05 ,fr:Église Sainte-Croix de Viels-Maisons,3.395461,3.3969110000000002,48.895978,48.895118
49.300809,3.099679,castle,C16,PA00115991,Q2969854,Château de Mazancourt,3,1982-04-30 ,fr:Château de Mazancourt,3.098954,3.100404,49.301239,49.300379
49.732829,4.182672,place_of_worship,christian,PA00115690,Q3583372,Église Saint-Nicolas,3,1987-07-09 ,fr:Église Saint-Nicolas de Grandrieux,4.181947,4.183397,49.733259000000004,49.732399
49.834945,3.907388,place_of_worship,christian,PA00115970,Q3580696,Église Notre-Dame-de-l'Assomption,2,1975-10-07 ,fr:Église Notre-Dame de Vervins,3.906663,3.908113,49.835375,49.834514999999996
49.185695,3.382606,yes,C12,PA00115506,Q1985816,Ruines du château d'Armentières avec sa poterne,2,1921-01-25 ,fr:Château d'Armentières,3.381881,3.383331,49.186125000000004,49.185265
49.334961,3.36,castle,C13,PA00115922,Q2970676,Château de Septmonts,,,fr:Château de Septmonts,3.359275,3.360725,49.335391,49.334531
49.20393,3.568851,yes,C13,PA00115932,Q2970115,Ruines du château de Nesles,2,1922-05-29 ,fr:Château de Nesles,3.568126,3.569576,49.20436,49.2035
49.928629,3.576063,building,C18,PA02000037,Q3280351,Maisons de Nicolas Grain,3,2001-07-09 ,fr:Maisons de Nicolas Grain,3.575338,3.576788,49.929059,49.928199
49.848579,3.262516,,C20,PA02000025,Q2972643,Monument du cimetière militaire allemand,3,2000-01-13 ,fr:Cimetière militaire allemand de Saint-Quentin,3.261791,3.2632410000000003,49.849009,49.848149
49.223038,3.135293,wayside_cross,C14,PA00115852,Q3003677,Croix,3,1928-02-08 ,fr:Croix monumentale d'Oigny-en-Valois,3.134568,3.136018,49.223468000000004,49.222608
48.873314,3.495275,building,C16,PA02000069,Q3068899,Maison forte dite Ferme de Villefontaine,3,2007-09-14 ,fr:Ferme de Villefontaine,3.49455,3.496,48.873744,48.872884
49.074,3.5426,place_of_worship,christian,PA00115629,Q3581333,,2,1941-04-25 ,fr:Église Saint-Denis de Courtemont-Varennes,3.541875,3.5433250000000003,49.07443,49.07357
49.48215,3.635609,,C20,PA02000021,Q2940289,Carrière de Colligis,3,2000-01-26 ,fr:Carrière de Colligis,3.634884,3.636334,49.48258,49.481719999999996
49.927579,4.134731,,C13,PA00115904,Q2820695,Ancienne abbaye bénédictine,,,fr:Abbaye de Saint-Michel,4.134006,4.1354560000000005,49.928009,49.927149
49.371311,3.168695,place_of_worship,christian,PA00115898,Q3581022,,2,1922-03-13 ,fr:Église Saint-Bandry de Saint-Bandry,3.16797,3.16942,49.371741,49.370881
49.20258,3.537705,place_of_worship,christian,PA00115933,Q3582988,Église de Seringes,3,1929-02-11 ,fr:Église Saint-Martin de Seringes,3.53698,3.53843,49.20301,49.202149999999996
49.045806,3.402117,place_of_worship,C20,PA02000047,Q3586129,Temple protestant dit église évangélique,3,2003-04-09 ,fr:Église réformée américaine de Château-Thierry,3.401392,3.402842,49.046236,49.045376
49.809422,3.472865,,C19,PA00125658,Q3325637,Moulin de Lucy,3,1993-01-14 ,fr:Moulin de Lucy,3.47214,3.47359,49.809852,49.808991999999996
49.329139,3.599964,place_of_worship,christian,PA00115860,Q3583407,,2,1919-10-15 ,fr:Église Saint-Nicolas de Paars,3.599239,3.600689,49.329569,49.328708999999996
49.716742,3.519686,,C12,PA00115846,Q2957421,Ancienne chapelle des Templiers,3,1928-02-08 ,fr:Chapelle des Templiers de Nouvion-et-Catillon,3.518961,3.520411,49.717172000000005,49.716312
49.387377,3.149664,place_of_worship,christian,PA00115884,Q3581585,,2,1921-01-07 ,fr:Église Saint-Georges de Ressons-le-Long,3.148939,3.150389,49.387807,49.386947
49.394483,3.435458,place_of_worship,christian,PA00115597,Q3581559,,2,1919-10-15 ,fr:Église Saint-Georges de Chivres-Val,3.434733,3.436183,49.394913,49.394053
49.182129,3.503783,yes,,PA00115669,Q2957273,Chapelle de Villemoyenne,3,1928-06-25 ,fr:Chapelle de Villemoyenne,3.503058,3.504508,49.182559000000005,49.181699
49.564,3.6157,building,C18,PA00115750,Q22966441,,3,1927-06-13 ,,3.614975,3.616425,49.56443,49.56357
49.333186,3.337449,place_of_worship,christian,PA00115850,Q3580632,,2,1921-10-06 ,fr:Église Notre-Dame de Noyant-et-Aconin,3.336724,3.338174,49.333616,49.332755999999996
49.240819,3.311074,,,PA00115917,Q3409329,Ancienne prévôté de Blanzy,3,1928-02-08 ,fr:Prévôté de Blanzy,3.310349,3.311799,49.241249,49.240389
49.20454,3.435856,,C16,PA00115561,Q2969323,Ancien chateau de Givray,3,1928-06-05 ,fr:Château de Givray,3.4351309999999997,3.436581,49.20497,49.20411
49.2017,3.6371,place_of_worship,christian,PA00115624,Q3584305,Église de Coulonges,2,1920-01-17 ,fr:Église Saint-Rubin-et-Saint-Valère de Coulonges,3.636375,3.6378250000000003,49.202130000000004,49.20127
49.521761,3.31852,castle,C12,PA00115617,Q576534,Château de Coucy,2,1862 ,fr:Château de Coucy,3.317795,3.319245,49.522191,49.521330999999996
49.252463,3.463863,place_of_worship,christian,PA00115505,Q3582604,,2,1920-01-10 ,fr:Église Saint-Martin d'Arcy-Sainte-Restitue,3.463138,3.464588,49.252893,49.252033
49.564093,3.617399,,C12,PA00115718,Q22966418,Ancienne église Saint-Jean-du-Bourg,3,1927-07-22 ,,3.6166739999999997,3.618124,49.564523,49.563663
49.563058,3.627924,,C13,PA00115715,Q22966417,Ancien couvent des Minimes,3,1927-06-24 ,,3.627199,3.6286490000000002,49.563488,49.562628
49.860308,3.306643,castle,C20,PA02000085,Q22995480,Château de la Pilule,3,2014-02-05 ,,3.305918,3.3073680000000003,49.860738000000005,49.859878
49.37163,3.33836,place_of_worship,christian,PA02000057,Q22995465,Église Sainte-Eugénie,3,2005-07-29 ,,3.337635,3.3390850000000003,49.372060000000005,49.3712
49.335038,3.357855,place_of_worship,christian,PA00115924,Q3580929,,2,1933-07-21 ,fr:Église Saint-André de Septmonts,3.3571299999999997,3.35858,49.335468,49.334607999999996
49.411944,3.377222,,C13,PA00115643,Q2400427,Ancienne ferme de la Perrière,3,1928-01-10 ,fr:Ferme de la Perrière,3.376497,3.3779470000000003,49.412374,49.411514
49.484393,3.613539,place_of_worship,christian,PA00115785,Q3585801,,2,1914-05-09 ,fr:Église de la Nativité-de-la-Sainte-Vierge de Lierval,3.6128139999999997,3.614264,49.484823,49.483962999999996
49.32244,3.548484,place_of_worship,christian,PA02000068,Q2364069,,3,2007-09-14 ,fr:Église Saint-Rémi de Limé,3.547759,3.5492090000000003,49.32287,49.32201
49.564174,3.622931,building,C16,PA00115736,Q22966423,,3,1927-07-22 ,,3.622206,3.623656,49.564604,49.563744
49.5645,3.616507,yes,,PA00115711,Q22966415,Chapelle Saint-Genebaud,3,1927-07-22 ,,3.615782,3.617232,49.564930000000004,49.56407
49.61,3.804,place_of_worship,christian,PA00115786,Q2886945,Basilique Notre-Dame,2,1920-12-20 ,fr:Basilique Notre-Dame de Liesse,3.8032749999999997,3.804725,49.61043,49.60957
49.525407,3.134858,place_of_worship,christian,PA00115572,Q3583612,,2,1921-12-16 ,fr:Église Saint-Pierre-et-Saint-Paul de Camelin,3.134133,3.135583,49.525837,49.524977
49.695989,3.623973,,C16,PA00115635,Q3533322,Ancien beffroi dit Tour de Crecy,2,1921-02-04 ,fr:Tour de Crécy,3.623248,3.624698,49.696419,49.695558999999996
49.564412,3.629758,city_gate,C16,PA00115768,Q20754655,Porte de la Citadelle,3,1927-05-02 ,fr:Porte de la Citadelle (Laon),3.6290329999999997,3.630483,49.564842,49.563981999999996
49.904904,3.85516,place_of_worship,christian,PA00115514,Q3581762,,3,1987-07-09 ,fr:Église Saint-Hilaire d'Autreppes,3.854435,3.8558850000000002,49.905334,49.904474
49.804581,3.457676,,C12,PA00115887,Q2820416,Ancienne abbaye Saint-Nicolas-des-Prés,3,1982-10-11 ,fr:Abbaye Saint-Nicolas-des-Prés,3.456951,3.4584010000000003,49.805011,49.804151
49.834972,3.905817,citywalls,,PA02000051,Q3424635,Rempart,3,2003-03-17 ,fr:Remparts de Vervins,3.905092,3.906542,49.835402,49.834542
49.25788,3.248238,place_of_worship,christian,PA00115794,Q3584378,,2,1921-08-12 ,fr:Église Saint-Rémy de Louâtre,3.247513,3.2489630000000003,49.25831,49.25745
49.3808,3.3252,place_of_worship,christian,PA00115941,Q1736223,Cathédrale Saint-Gervais et Saint-Protais,2,1862 ,fr:Cathédrale Saint-Gervais-et-Saint-Protais de Soissons,3.324475,3.3259250000000002,49.38123,49.38037
49.57033,3.602424,,C12,PA00115726,Q22966419,Hospice départemental de Montreuil,3,1965-03-05 ,,3.601699,3.603149,49.57076,49.5699
49.80492,3.435577,yes,C14,PA00115935,Q2957381,Chapelle dite des Dormants,2,1920-12-20 ,fr:Chapelle des Dormants,3.434852,3.436302,49.805350000000004,49.80449
49.331782,3.075437,place_of_worship,christian,PA00115834,Q3581782,,3,1927-06-15 ,fr:Église Saint-Hilaire de Mortefontaine,3.074712,3.076162,49.332212,49.331351999999995
49.38002,3.32465,,C12,PA00115944,Q22966468,Ancien évêché,2,1922-08-16 ,,3.323925,3.325375,49.38045,49.37959
49.381103,3.352818,castle,C20,PA02000060,Q2971011,,3,2006-09-21 ,fr:Château de Villeneuve-Saint-Germain,3.352093,3.353543,49.381533000000005,49.380673
49.283479,3.417048,place_of_worship,christian,PA00115836,Q3581990,,3,1927-06-03 ,fr:Église Saint-Jean-Baptiste de Muret-et-Crouttes,3.4163229999999998,3.417773,49.283909,49.283049
49.074509,3.506125,place_of_worship,christian,PA00115583,Q3581151,,2,1920-10-05 ,fr:Église Saint-Caprais de Chartèves,3.5054,3.50685,49.074939,49.074079
49.390321,3.414007,yes,C12,PA00115564,Q2957108,Chapelle Sainte-Marguerite,2,1920-11-20 ,fr:Chapelle Sainte-Marguerite de Bucy-le-Long,3.4132819999999997,3.414732,49.390751,49.389891
49.061486,3.224651,castle,C18,PA02000042,Q2969804,,3,2003-03-17 ,fr:Château de Marigny-en-Orxois,3.223926,3.2253760000000002,49.061916000000004,49.061056
49.564173,3.62783,,C12,PA00115721,Q20754582,Ancienne église Saint-Pierre-au-Marché,3,1934-03-26 ,fr:Église Saint-Pierre-au-Marché de Laon,3.627105,3.628555,49.564603,49.563742999999995
49.355155,3.244725,place_of_worship,christian,PA00115895,Q3581693,Église de Saconin,2,1921-09-07 ,fr:Église Saint-Gervais-et-Saint-Protais de Saconin,3.2439999999999998,3.24545,49.355585000000005,49.354725
49.5042,3.8241,archaeological_site,fortification,PA02000081,Q22995473,Oppidum,3,2013-05-27 ,,3.823375,3.824825,49.50463,49.503769999999996
49.410341,3.131709,place_of_worship,christian,PA00115526,Q3582678,,3,1927-06-15 ,fr:Église Saint-Martin de Berny-Rivière,3.1309839999999998,3.132434,49.410771000000004,49.409911
49.701927,3.485308,place_of_worship,christian,PA00115847,Q3584264,,2,1927-05-28 ,fr:Église Saint-Rémy de Nouvion-et-Catillon,3.4845829999999998,3.486033,49.702357,49.701496999999996
49.030143,3.375101,place_of_worship,christian,PA00115662,Q2820249,,2,1846 ,fr:Abbaye d'Essômes,3.374376,3.375826,49.030573000000004,49.029713
49.168394,3.600752,place_of_worship,christian,PA00115601,Q3580542,,2,1920-10-12 ,fr:Église Notre-Dame de Cierges,3.600027,3.601477,49.168824,49.167964
49.562941,3.625892,,C12,PA00115717,Q20768428,Ancienne église Saint-Corneille et Saint-Cyprien,3,1927-07-22 ,fr:Église Saint-Corneille-et-Saint-Cyprien de Laon,3.625167,3.626617,49.563371000000004,49.562511
49.394723,3.391668,place_of_worship,christian,PA00115566,Q3582702,Église Saint-Martin,2,1923-04-12 ,fr:Église Saint-Martin de Bucy-le-Long,3.390943,3.392393,49.395153,49.394293
49.666885,4.091962,place_of_worship,christian,PA00115845,Q3583404,Église Notre-Dame-de-l'Espérance,3,1932-05-11 ,fr:Église Saint-Nicolas de Noircourt,4.091237,4.092687,49.667315,49.666455
49.563676,3.624575,building,C12,PA00115744,Q20741345,,2,1928-03-06 ,fr:Maison des chanoines de Laon,3.62385,3.6253,49.564106,49.563246
49.562411,3.626805,,C15,PA00115770,Q20760460,Ancien prieuré du Val-des-Ecoliers,3,1927-07-15 ,fr:Prieuré du Val-des-Écoliers,3.62608,3.62753,49.562841,49.561980999999996
49.25813,3.04107,,C16,PA00115774,Q22966462,Ancien manoir dit Fief Goret,3,1928-02-08 ,,3.040345,3.041795,49.25856,49.2577
49.102583,3.160484,place_of_worship,christian,PA00115558,Q3581258,Église Saint-Crépin,2,1920-01-17 ,fr:Église Saint-Crépin de Brumetz,3.1597589999999998,3.161209,49.103013000000004,49.102153
49.489347,3.679081,place_of_worship,christian,PA00132909,Q3582868,Église Saint-Martin,2,1997-11-03 ,fr:Église Saint-Martin de Martigny-Courpierre,3.678356,3.679806,49.489777000000004,49.488917
49.930861,3.507551,castle,C18,PA02000004,Q2968539,Château de Bernoville,,,fr:Château de Bernoville,3.5068259999999998,3.508276,49.931291,49.930431
49.25627244,3.08766162,,C16,PA02000074,Q3108392,Glacière,3,2008-05-09 ,fr:Glacière de Villers-Cotterêts,3.08693662,3.08838662,49.25670244,49.255842439999995
49.102826,3.298043,place_of_worship,christian,PA00115826,Q3580622,,2,1920-08-31 ,fr:Église Notre-Dame de Monthiers,3.2973179999999997,3.298768,49.103256,49.102396
49.537871,3.553825,place_of_worship,christian,PA00115817,Q3583632,,2,1909-08-12 ,fr:Église Saint-Pierre-et-Saint-Paul de Mons-en-Laonnois,3.5530999999999997,3.55455,49.538301000000004,49.537441
49.371701,3.814605,,C13,PA00115890,Q3403029,Ancien prieuré,3,1932-06-03 ,fr:Prieuré de Roucy,3.8138799999999997,3.81533,49.372131,49.371271
