latitude,longitude,historic,start_date,ref:mhs,wikidata,name,heritage,mhs:inscription_date,wikipedia,left,right,top,bottom
45.90345231,5.18044023,building,C15,PA00116516,,Maison et remparts,3,1929-10-11 ,,5.17971523,5.18116523,45.90388231,45.90302231
45.90337039,5.18051167,building,C15,PA00116514,,Maisons et remparts qui en dépendent,2,1921-11-24 ,fr:Grenier à sel (Pérouges),5.1797866699999995,5.18123667,45.90380039,45.90294039
45.90345231,5.18044023,building,C15,PA00116515,,Maisons et remparts qui en dépendent,2,1921-11-24 ,,5.17971523,5.18116523,45.90388231,45.90302231
49.04675,3.399994,building,C16,PA00115588,Q30557631,Maison de Jean de la Fontaine,2,1910-01-08 ,fr:Musée Jean de La Fontaine,3.399269,3.400719,49.047180000000004,49.04632
49.167388,3.583474,archaeological_site,megalith,PA00115600,Q3033993,Dolmen de Carauda,2,1889 ,fr:Dolmen de Caranda,3.5827489999999997,3.584199,49.167818000000004,49.166958
49.627343,3.455573,monastery,C13,PA00115685,Q3403042,Prieuré de Saint-Lambert,,,fr:Prieuré de Saint-Lambert,3.4548479999999997,3.456298,49.627773000000005,49.626913
49.658343,3.314736,,C20,PA02000018,Q22995453,Place Carnegie de Fargniers,3,1998-12-01 ,,3.314011,3.315461,49.658773000000004,49.657913
49.25558,3.090167,,C16,PA00135571,Q15952945,Pavillon Henri II,3,1995-07-19 ,,3.089442,3.090892,49.25601,49.25515
49.557289,3.604586,,C18,PA00115709,Q20740320,Ancienne caserne des Dragons de la Reine,3,1927-07-23 ,fr:Caserne des Dragons de la Reine,3.6038609999999998,3.605311,49.557719,49.556858999999996
49.3411647,3.5311362,building,C15,PA00115552,Q18578277,"Maison à colombages du 15e siècle, dite espagnole",,,fr:Maison à colombages (Braine),3.5304112,3.5318612000000003,49.3415947,49.3407347
49.25382502,3.09250569,,C17,PA00125661,Q3146315,Hôtellerie du Régent,3,1993-11-19 ,fr:Hôtellerie du Régent,3.0917806899999998,3.09323069,49.25425502,49.25339502
49.274278,3.048094,castle,manor,PA02000045,Q3286375,Manoir des Fossés,3,2003-06-17 ,fr:Manoir des Fossés (Haramont),3.0473689999999998,3.048819,49.274708000000004,49.273848
48.885734,3.508791,,C19,PA02000082,Q22979597,Colonne commémorative de Montmirail,3,2014-05-23 ,fr:Colonne commémorative de Montmirail,3.508066,3.509516,48.886164,48.885304
49.060201,3.226309,,C17,PA00115803,Q3126138,Halles,2,1921-02-07 ,fr:Halle de Marigny-en-Orxois,3.225584,3.227034,49.060631,49.059771
49.834972,3.905817,citywalls,,PA02000051,Q3424635,Rempart,3,2003-03-17 ,fr:Remparts de Vervins,3.905092,3.906542,49.835402,49.834542
49.848579,3.262516,,C20,PA02000025,Q2972643,Monument du cimetière militaire allemand,3,2000-01-13 ,fr:Cimetière militaire allemand de Saint-Quentin,3.261791,3.2632410000000003,49.849009,49.848149
49.333341,3.311691,castle,C13,PA00115528,Q2968542,,2,1926-07-13 ,fr:Château de Berzy-le-Sec,3.310966,3.3124160000000002,49.333771,49.332910999999996
49.266735,3.260662,castle,C15,PA00135572,Q2971017,,3,1995-10-10 ,fr:Château de Villers-Hélon,3.259937,3.261387,49.267165,49.266304999999996
49.151612,3.398622,,C12,PA00115555,Q3437617,Rocher gravé,2,1975-06-13 ,fr:Rocher gravé de Brécy,3.397897,3.399347,49.152042,49.151182
49.185695,3.382606,yes,C12,PA00115506,Q1985816,Ruines du château d'Armentières avec sa poterne,2,1921-01-25 ,fr:Château d'Armentières,3.381881,3.383331,49.186125000000004,49.185265
49.80492,3.435577,yes,C14,PA00115935,Q2957381,Chapelle dite des Dormants,2,1920-12-20 ,fr:Chapelle des Dormants,3.434852,3.436302,49.805350000000004,49.80449
49.847262,3.287479,,C18,PA00115915,Q3410683,Puits,3,1932-05-11 ,,3.2867539999999997,3.288204,49.847692,49.846832
49.924186,3.810692,castle,C17,PA00115655,Q2971340,Château de la Plesnoye,3,1985-10-14 ,fr:Château de la Plesnoye,3.809967,3.811417,49.924616,49.923756
49.424248,3.183503,,C20,PA00116002,Q3323334,Monument de la Croix-Brisée,3,1990-06-28 ,fr:Monument de la Croix-Brisée,3.182778,3.184228,49.424678,49.423818
49.199086,3.452464,monastery,abbey,PA00115560,Q2820804,Abbaye du Val-Chrétien,3,1928-06-05 ,fr:Abbaye du Val-Chrétien,3.451739,3.453189,49.199516,49.198656
49.323638,3.445268,,C13,PA00115928,Q2985956,Ancienne commanderie des Templiers du Mont-de-Soissons,3,1927-06-03 ,fr:Commanderie du Mont-de-Soissons,3.444543,3.445993,49.324068000000004,49.323208
49.876717,3.145904,,,PA00115969,Q940173,Camp Romain,2,1840 ,fr:Camp Romain,3.1451789999999997,3.146629,49.877147,49.876287
49.114849,3.082545,,C13,PA00115827,Q2985888,Ancienne commanderie de templiers de Moisy,,,fr:Commanderie de Moisy-le-Temple,3.08182,3.08327,49.115279,49.114419
49.201746,3.638733,castle,C13,PA00115622,Q2970410,Château de Rognac,3,1928-06-05 ,fr:Château de Rognac (Aisne),3.638008,3.6394580000000003,49.202176,49.201316
49.8986718,3.6243921,building,C16,PA02000015,Q22995449,,3,1998-07-01 ,,3.6236671,3.6251171,49.899101800000004,49.8982418
49.727822,3.860557,castle,C17,PA00115545,Q2968831,Château de Chambly,,,fr:Château de Chambly (Aisne),3.859832,3.861282,49.728252000000005,49.727392
49.5759,3.1469,,C16,PA00115881,Q2226745,Ancien château,3,1928-02-08 ,fr:Château de Quierzy,3.146175,3.147625,49.57633,49.575469999999996
49.22,3.1375,castle,C16,PA00115851,Q2968302,,,,fr:Château d'Oigny-en-Valois,3.136775,3.1382250000000003,49.22043,49.21957
49.222145,3.532072,yes,C13,PA00115670,Q2969290,Vestiges du château,,,fr:Château de Fère-en-Tardenois,3.531347,3.532797,49.222575,49.221714999999996
49.499699,3.284132,castle,C19,PA02000040,Q2970267,,3,2002-10-14 ,fr:Château de Pont-Saint-Mard,3.283407,3.284857,49.500129,49.499269
49.005556,3.559167,castle,C12,PA00115608,Q639057,Château de Condé,2,1979-10-18 ,fr:Château de Condé,3.558442,3.559892,49.005986,49.005126
49.282095,3.639699,,C17,PA00115819,Q2969928,Ancien château,3,1927-06-15 ,fr:Château de Mont-Saint-Martin,3.6389739999999997,3.640424,49.282525,49.281665
49.037718,3.348759,place_of_worship,C18,PA00115663,Q3517588,Temple de Monneaux,3,1986-09-02 ,fr:Temple de Monneaux,3.3480339999999997,3.349484,49.038148,49.037288
49.952579,4.059191,archaeological_site,fortification,PA02000084,Q22995477,Oppidum,3,2014-05-23 ,,4.058466,4.059916,49.953009,49.952149
49.839701,3.297163,,C20,PA02000049,Q2031679,Gare,3,2003-09-23 ,fr:Gare de Saint-Quentin,3.2964379999999998,3.297888,49.840131,49.839271
49.696121,3.624035,building,C18,PA00115636,Q3146146,Hôtel de ville,3,1928-02-08 ,fr:Hôtel de ville de Crécy-sur-Serre,3.62331,3.62476,49.696551,49.695691
49.240819,3.311074,,,PA00115917,Q3409329,Ancienne prévôté de Blanzy,3,1928-02-08 ,fr:Prévôté de Blanzy,3.310349,3.311799,49.241249,49.240389
49.925836,4.135666,building,C16,PA02000035,Q3280061,Maison du Prévôt,3,2001-08-17 ,fr:Maison du Prévôt (Saint-Michel),4.1349409999999995,4.136391,49.926266,49.925405999999995
49.0689,3.5057,wayside_cross,C13,PA00115812,Q3003510,Croix de cimetière,2,1906-02-10 ,fr:Croix de cimetière de Mézy-Moulins,3.504975,3.506425,49.06933,49.06847
49.339616,3.490726,castle,C17,PA00115630,Q2969071,,3,1927-06-15 ,fr:Château de Couvrelles,3.490001,3.491451,49.340046,49.339186
49.421167,3.686154,,C16,PA00115835,Q3403017,Ancien prieuré,3,1928-02-08 ,fr:Prieuré de Moulins,3.685429,3.6868790000000002,49.421597,49.420736999999995
49.990712,3.260818,,C18,PA00115688,Q2820791,Ancienne abbaye du Mont-Saint-Martin,,,fr:Abbaye du Mont-Saint-Martin,3.260093,3.261543,49.991142,49.990282
49.041205,3.401392,,C17,PA00115585,Q3001675,Ancien couvent des Capucins,3,1988-12-27 ,fr:Couvent des Capucins de Château-Thierry,3.400667,3.402117,49.041635,49.040775
49.497012,3.820592,,C13,PA00115918,Q3403053,Ancien prieuré de Saint-Thomas,,,fr:Prieuré de Saint-Thomas,3.819867,3.821317,49.497442,49.496582
49.662322,3.36931,,C18,PA00132908,Q3413050,Quartier Drouot,3,1994-01-19 ,fr:Quartier Drouot,3.368585,3.370035,49.662752000000005,49.661892
49.061486,3.224651,castle,C18,PA02000042,Q2969804,,3,2003-03-17 ,fr:Château de Marigny-en-Orxois,3.223926,3.2253760000000002,49.061916000000004,49.061056
49.047329,3.406245,,C13,PA00115591,Q3424614,Anciens remparts,,,fr:Remparts de Château-Thierry,3.40552,3.4069700000000003,49.047759,49.046898999999996
49.179689,3.224104,,C13,PA00115805,Q2969809,Ancien château,,,fr:Château de Marizy-Saint-Mard,3.223379,3.224829,49.180119000000005,49.179259
49.33209,3.542152,castle,C17,PA00115551,Q2971595,Château du Bas,,,fr:Château du Bas,3.541427,3.5428770000000003,49.33252,49.33166
49.846223,3.286999,,C19,PA00135570,Q3527868,Théâtre municipal,3,1995-10-10 ,fr:Théâtre municipal de Saint-Quentin,3.2862739999999997,3.287724,49.846653,49.845793
49.411944,3.377222,,C13,PA00115643,Q2400427,Ancienne ferme de la Perrière,3,1928-01-10 ,fr:Ferme de la Perrière,3.376497,3.3779470000000003,49.412374,49.411514
49.844881,3.285658,city_gate,C17,PA00115914,Q3399158,Porte dite des Canonniers,3,1930-10-11 ,fr:Porte des Canonniers,3.284933,3.2863830000000003,49.845311,49.844451
49.565084,3.61646,building,C17,PA00115733,Q22966420,,3,1927-06-24 ,,3.615735,3.617185,49.565514,49.564654
49.607764,3.439528,,C14,PA00115906,Q2820803,Ancienne abbaye du Tortoir,2,1912-08-01 ,fr:Le Tortoir,3.438803,3.4402530000000002,49.608194000000005,49.607334
49.305759,3.503598,,C14,PA00115783,Q18736748,"Ancienne maison prévôtale, puis ferme",3,1927-06-15 ,fr:Maison prévôtale de Lesges,3.502873,3.5043230000000003,49.306189,49.305329
49.992674,3.301858,,C14,PA00115522,Q2968501,Ancien château,,,fr:Château de Beaurevoir,3.301133,3.3025830000000003,49.993104,49.992244
49.47816,3.64506,,C20,PA02000008,Q3323316,Monument commémoratif franco-allemand,3,1997-12-22 ,fr:Monument commémoratif franco-allemand de Pancy-Courtecon,3.644335,3.645785,49.478590000000004,49.47773
49.846936,3.287208,building,C14,PA00115913,Q3146184,Hôtel de ville,2,1984-08-29 ,fr:Hôtel de ville de Saint-Quentin,3.286483,3.287933,49.847366,49.846506
49.38306,3.32698,building,C13,PA00115947,Q22966470,,3,1928-01-10 ,,3.3262549999999997,3.327705,49.38349,49.38263
49.5151255,3.1521467,,,PA00115537,Q3001714,Ancien couvent des Feuillants,3,1928-02-08 ,fr:Couvent des Feuillants de Blérancourt,3.1514216999999998,3.1528717,49.515555500000005,49.5146955
49.5150072,3.1494288,building,C18,PA00115539,Q3279553,Maison du conventionnel Saint-Just,3,1987-01-19 ,fr:Maison de Saint-Just,3.1487038,3.1501538,49.5154372,49.5145772
49.44808,3.409581,,C20,PA02000083,Q477892,Camp fortifié dit  Wolfschlucht 2  ou  W 2 ,3,2014-02-05 ,,3.408856,3.4103060000000003,49.44851,49.447649999999996
49.214032,3.479614,,C13,PA00115920,Q2970629,Restes du château,3,1928-06-05 ,fr:Château de Saponay,3.478889,3.4803390000000003,49.214462000000005,49.213602
49.326944,3.493889,farm,C13,PA00115632,Q3068875,Ferme de La Siège,3,1927-06-15 ,fr:Ferme de La Siège,3.4931639999999997,3.494614,49.327374,49.326513999999996
49.677683,3.650393,,,PA00115580,Q2968820,Ancien chateau,3,1927-06-28 ,fr:Château de Chalandry,3.649668,3.6511180000000003,49.678113,49.677253
49.949338,3.411698,,C19,PA02000006,Q3552677,Usine textile La Filandière,,,fr:Usine textile La Filandière,3.410973,3.412423,49.949768,49.948907999999996
49.3281,3.5978,,C18,PA00115859,Q2970160,Domaine du château,,,fr:Château de Paars,3.597075,3.598525,49.32853,49.32767
49.182129,3.503783,yes,,PA00115669,Q2957273,Chapelle de Villemoyenne,3,1928-06-25 ,fr:Chapelle de Villemoyenne,3.503058,3.504508,49.182559000000005,49.181699
49.29288,3.640353,,C15,PA00115989,Q2970992,Ancien château,3,1927-06-03 ,fr:Château de Ville-Savoye,3.639628,3.6410780000000003,49.29331,49.292449999999995
49.845206,3.286323,building,C17,PA00115912,Q3145530,Hôtel Joly de Bammeville,2,1930-08-25 ,fr:Hôtel Joly de Bammeville,3.285598,3.287048,49.845636,49.844775999999996
49.04625,3.402944,yes,C13,PA00115584,Q2968957,Ruines de l'ancien château et la butte sur laquelle elles sont situées,2,1932-08-02 ,fr:Château de Château-Thierry,3.402219,3.4036690000000003,49.04668,49.04582
49.927719,4.131683,tomb,mausoleum,PA02000036,Q3301812,Mausolée Savart,2,2004-08-24 ,fr:Mausolée Savart,4.130958,4.132408,49.928149000000005,49.927289
49.25242447,3.6439273,farm,C13,PA02000033,Q3115322,Grange de Montaon,3,2001-07-09 ,fr:Grange de Montaon,3.6432023,3.6446523,49.25285447,49.25199447
49.5131,3.535,,C16,PA00115891,Q2968814,Ancien château,,,fr:Château de Chailvet,3.534275,3.5357250000000002,49.51353,49.51267
49.85637,3.95299,archaeological_site,megalith,PA00115549,Q3305903,Menhir dit La Haute-Ronde,2,1889 ,fr:Menhir de la Haute-Ronde,3.9522649999999997,3.953715,49.8568,49.85594
49.4182,3.1728,,C20,PA00116001,Q2940312,Carrières dites de l'Infirmerie et du Premier Zouave,3,1990-06-28 ,fr:Carrières de Confrécourt,3.172075,3.173525,49.41863,49.41777
49.72564,3.85435,,C20,PA00115544,Q2821915,Ancien abri allemand dit du Kaiser,2,1921-12-22 ,fr:Abri du Kaiser,3.853625,3.8550750000000003,49.72607,49.72521
49.047496,3.481711,wayside_cross,C14,PA00115683,Q3003441,Croix de chemin,2,1931-09-24 ,fr:Croix de chemin de Fossoy,3.4809859999999997,3.482436,49.047926000000004,49.047066
49.320833,3.161944,,C12,PA00115602,Q2820327,Ancienne abbaye Notre-Dame de Valsery,2,1986-08-21 ,fr:Abbaye Notre-Dame de Valsery,3.161219,3.162669,49.321263,49.320403
49.306287,3.617372,,C13,PA00115520,Q2968456,Ancien château,3,1927-06-28 ,fr:Château de Bazoches-sur-Vesles,3.616647,3.618097,49.306717,49.305856999999996
49.515128,3.152057,,C17,PA00115536,Q22966402,Ancien château,3,1927-10-24 ,fr:Ancien château de Blérancourt,3.151332,3.152782,49.515558,49.514697999999996
49.781707,3.274301,farm,C20,PA02000054,Q3068859,Ferme,3,2004-06-07 ,fr:Ferme d'Essigny-le-Grand,3.273576,3.275026,49.782137,49.781276999999996
49.517931,3.154697,castle,C17,PA00115535,Q2056655,"Château de Blérancourt, ancien château des Ducs de Gesvres, actuellement Musée national de la coopération franco-américaine ou Musée national des Deux-Guerres",,,fr:Château de Blérancourt,3.153972,3.155422,49.518361,49.517500999999996
49.405778,3.11449,castle,C12,PA00115974,Q2970968,,,,fr:Château de Vic-sur-Aisne,3.113765,3.115215,49.406208,49.405348
49.896,3.623,,C10,PA00115693,Q1869481,Ancien château fort de Guise,,,fr:Château de Guise,3.622275,3.6237250000000003,49.89643,49.89557
49.439599,3.392018,farm,C20,PA02000038,Q3068883,Ferme de Montgarny,,,fr:Ferme de Montgarny,3.391293,3.3927430000000003,49.440029,49.439169
49.256506,3.245486,,C15,PA00115795,Q3286232,Ancien manoir,3,1928-02-08 ,fr:Manoir de Louâtre,3.244761,3.246211,49.256936,49.256076
49.215442,3.21356,wayside_cross,C16,PA00115501,Q3003676,Croix,3,1927-06-15 ,fr:Croix monumentale d'Ancienville,3.212835,3.2142850000000003,49.215872000000005,49.215012
49.046121,3.402452,building,C19,PA02000058,Q3146143,Hôtel de ville,3,2005-08-17 ,fr:Hôtel de ville de Château-Thierry,3.4017269999999997,3.403177,49.046551,49.045691
49.800118,3.774619,castle,C16,PA02000016,Q2969800,Château de Marfontaine,3,1998-10-13 ,fr:Château de Marfontaine,3.773894,3.775344,49.800548,49.799687999999996
49.276898,3.394223,,C14,PA00115653,Q2969159,Ancien château,,,fr:Château de Droizy,3.393498,3.3949480000000003,49.277328000000004,49.276468
49.406629,3.602545,yes,C16,PA02000072,Q2970716,Vestiges du château de Soupir,3,2007-09-14 ,fr:Château de Soupir,3.60182,3.60327,49.407059000000004,49.406199
49.767739,3.396202,,C19,PA00132910,Q3325668,Moulin de Sénercy,3,1994-10-21 ,fr:Moulin de Sénercy,3.395477,3.3969270000000003,49.768169,49.767309
49.4441,3.6067,,C20,PA00132907,Q2940290,Carrière de Froidmont,2,1998-11-17 ,fr:Carrière de Froidmont,3.605975,3.607425,49.44453,49.44367
49.5279358,3.13567355,wayside_cross,C12,PA00115571,Q3003279,Croix dite Croix aux Héros,2,1925-01-05 ,fr:Croix aux Héros,3.13494855,3.13639855,49.5283658,49.5275058
49.804581,3.457676,,C12,PA00115887,Q2820416,Ancienne abbaye Saint-Nicolas-des-Prés,3,1982-10-11 ,fr:Abbaye Saint-Nicolas-des-Prés,3.456951,3.4584010000000003,49.805011,49.804151
49.874096,3.657872,castle,C16,PA00115511,Q2971120,Château de l'Etang,3,1927-06-28 ,fr:Château de l'Étang,3.6571469999999997,3.658597,49.874526,49.873666
49.24996389,3.074644444,castle,C13,PA00115985,Q2970154,Château de Noue,3,1927-06-03 ,fr:Château de Noue,3.073919444,3.075369444,49.25039389,49.249533889999995
49.571841,3.142117,,,PA02000070,Q3403028,Vestiges du site du prieuré,3,2007-05-07 ,fr:Prieuré de Quierzy,3.1413919999999997,3.142842,49.572271,49.571411
49.229029,3.451815,castle,C13,PA00115633,Q2969073,,3,1927-05-16 ,fr:Château de Cramaille,3.4510899999999998,3.45254,49.229459,49.228598999999996
49.35356,3.696607,yes,C12,PA00115701,Q3584315,Ruines de l'église,2,1921-11-08 ,fr:Église Saint-Rémi d'Hautevesnes,3.695882,3.6973320000000003,49.35399,49.35313
48.895206,3.397479,,C18,PA02000011,Q2970971,Parc du château,3,1997-11-28 ,fr:Château de Viels-Maisons,3.396754,3.3982040000000002,48.895636,48.894776
49.5287053,3.5405795,,C17,PA02000001,Q3555407,Vendangeoirs Hédouville et Cuzey,,,fr:Vendangeoirs Hédouville et Cuzey,3.5398545,3.5413045000000003,49.5291353,49.5282753
49.849751,3.404509,dovecote,yes,PA02000041,Q27902458,Pigeonnier,3,2003-02-17 ,fr:Pigeonnier de Marcy,3.403784,3.405234,49.850181,49.849320999999996
49.809422,3.472865,,C19,PA00125658,Q3325637,Moulin de Lucy,3,1993-01-14 ,fr:Moulin de Lucy,3.47214,3.47359,49.809852,49.808991999999996
49.398662,3.909647,,C20,PA00115527,Q3010624,Cote 108,2,1937-01-11 ,fr:Côte 108,3.908922,3.910372,49.399092,49.398232
49.928629,3.576063,building,C18,PA02000037,Q3280351,Maisons de Nicolas Grain,3,2001-07-09 ,fr:Maisons de Nicolas Grain,3.575338,3.576788,49.929059,49.928199
49.164532,3.551014,,C13,PA00115930,Q3409332,Prévôté de Favières,3,1998-03-31 ,fr:Prévôté de Favières,3.550289,3.551739,49.164962,49.164102
49.904282,3.625402,,C19,PA00115695,Q1395337,Familistère Godin,,,fr:Familistère de Guise,3.6246769999999997,3.626127,49.904712,49.903852
49.18561159,3.37136802,,,PA02000029,Q3397779,Ponts Bernard,,,fr:Ponts Bernard,3.3706430199999997,3.37209302,49.18604159,49.18518159
49.045263,3.396387,building,C18,PA02000002,Q22995437,Hôtel particulier,3,1996-02-02 ,,3.3956619999999997,3.397112,49.045693,49.044833
49.83621,4.20524,castle,manor,PA00115510,Q3286137,Manoir,3,1978-12-29 ,fr:Manoir d'Aubenton,4.204515,4.205965,49.83664,49.83578
49.8654089,3.1071491,castle,C19,PA00116006,Q2968790,Château de Caulaincourt,,,fr:Château de Caulaincourt,3.1064241,3.1078741,49.8658389,49.8649789
48.956465,3.424231,wayside_cross,C16,PA00115824,Q3003508,Croix de cimetière,2,1934-07-02 ,fr:Croix de cimetière de Montfaucon,3.4235059999999997,3.424956,48.956895,48.956035
49.205181,3.369906,,C16,PA00115858,Q3402963,Ancien prieuré,,,fr:Prieuré d'Oulchy-le-Château,3.3691809999999998,3.370631,49.205611000000005,49.204751
49.440422,3.522921,,C20,PA02000019,Q3002519,La Creute du Caïd,,,fr:Creute du Caïd,3.522196,3.5236460000000003,49.440852,49.439992
49.5073116,3.7029058000001,,C18,PA02000043,Q3555404,Vendangeoir,3,2003-06-17 ,fr:Vendangeoir d'Orgeval,3.7021808000000997,3.7036308000001,49.5077416,49.5068816
49.381103,3.352818,castle,C20,PA02000060,Q2971011,,3,2006-09-21 ,fr:Château de Villeneuve-Saint-Germain,3.352093,3.353543,49.381533000000005,49.380673
49.29274663,3.28353341,,C15,PA00115978,Q2970974,Ancien château,3,1928-02-08 ,fr:Château de Vierzy,3.28280841,3.28425841,49.293176630000005,49.29231663
49.300701,3.537903,castle,C18,PA00115703,Q2969434,,3,1982-12-21 ,fr:Château de Jouaignes,3.537178,3.538628,49.301131,49.300270999999995
49.272052,3.375485,farm,C16,PA00115776,Q3068886,Ferme de Neuville-Saint-Jean,2,1995-02-03 ,fr:Ferme de Neuville-Saint-Jean,3.3747599999999998,3.37621,49.272482000000004,49.271622
49.255954,3.092195,castle,C16,PA00115984,Q2971015,,2,1997-02-13 ,fr:Château de Villers-Cotterêts,3.0914699999999997,3.09292,49.256384000000004,49.255524
49.910596,4.073305,tower,yes,PA00116005,Q3533086,Tour Florentine,2,1995-11-06 ,fr:Tour Florentine de Buire,4.07258,4.0740300000000005,49.911026,49.910166
49.401227,3.454,fort,,PA02000032,Q3078168,Fort de Condé,,,fr:Fort de Condé,3.453275,3.4547250000000003,49.401657,49.400797
49.057373,3.530021,stone,grooves,PA00115814,Q3394284,Polissoir,2,1969-02-20 ,fr:Polissoir de Mézy-Moulins,3.529296,3.530746,49.057803,49.056943
49.21,3.084722,,C14,PA00115983,Q2961262,Ancienne chartreuse de Bourgfontaine,,,fr:Chartreuse de Bourgfontaine,3.083997,3.0854470000000003,49.21043,49.20957
49.425658,3.967631,archaeological_site,fortification,PA00116012,Q22966476,Oppidum de Variscourt,,,,3.966906,3.968356,49.426088,49.425228
49.4031,3.7147,,C17,PA00115647,Q2820573,Ancienne abbaye de Cuissy,3,1928-02-08 ,fr:Abbaye de Cuissy,3.713975,3.715425,49.40353,49.40267
49.584106,3.434359,,C15,PA00115905,Q2820698,Ancienne abbaye bénédictine de Saint-Nicolas,3,1927-10-24 ,fr:Abbaye de Saint-Nicolas-aux-Bois,3.433634,3.4350840000000002,49.584536,49.583676
49.580908,3.4176145,,C17,PA00115902,Q3556074,Ancienne verrerie de Charles-Fontaine,3,1928-05-30 ,fr:Verrerie de Charles-Fontaine,3.4168895,3.4183395,49.581338,49.580478
49.045861,3.404297,building,C17,PA02000063,Q958440,Hôtel Dieu,3,2007-01-26 ,fr:Hôtel-Dieu de Château-Thierry,3.403572,3.405022,49.046291000000004,49.045431
49.259212,3.035308,,C19,PA02000078,Q3407583,"Domaine des Charmettes, dit propriété Castellant",3,2008-09-11 ,fr:Propriété Castellant,3.034583,3.036033,49.259642,49.258782
49.741576,3.773375,,,PA00115808,Q3424008,Relais de poste,3,1933-05-29 ,fr:Relais de poste de Marle,3.77265,3.7741000000000002,49.742006,49.741146
49.234299,3.04335,castle,manor,PA02000062,Q3286176,Manoir de Coyolles,3,2007-02-06 ,fr:Manoir de Coyolles,3.042625,3.0440750000000003,49.234729,49.233869
49.0044,3.5626,,C16,PA00115610,Q3126132,Halles et mairie,3,1979-12-05 ,fr:Halles de Condé-en-Brie,3.561875,3.5633250000000003,49.00483,49.003969999999995
49.178664,3.473731,building,C18,PA00115982,Q3280240,Maison natale de Paul Claudel,3,1964-07-07 ,fr:Maison natale de Paul Claudel,3.473006,3.474456,49.179094,49.178233999999996
49.1617,3.4225,,C18,PA02000052,Q2911188,Bornes de délimitation,3,2004-10-18 ,fr:Bornes de délimitation de Coincy,3.421775,3.423225,49.162130000000005,49.16127
49.860308,3.306643,castle,C20,PA02000085,Q22995480,Château de la Pilule,3,2014-02-05 ,,3.305918,3.3073680000000003,49.860738000000005,49.859878
49.423638,3.958967,archaeological_site,fortification,PA00116011,Q22966476,Oppidum de Variscourt (également sur commune de Variscourt),3,1992-07-27 ,,3.958242,3.959692,49.424068,49.423207999999995
49.322783,3.549474,,C15,PA00115788,Q3068860,Ancien manoir dit ferme d'Applincourt,3,1927-06-15 ,fr:Ferme d'Applincourt,3.548749,3.550199,49.323213,49.322353
49.161772,3.422086,,C11,PA00115605,Q2820561,Ancienne abbaye,3,1928-06-05 ,fr:Abbaye de Coincy,3.421361,3.4228110000000003,49.162202,49.161342
49.785479,3.548525,castle,C18,PA00115864,Q2970183,,3,1928-02-03 ,fr:Château de Parpeville,3.5478,3.5492500000000002,49.785909000000004,49.785049
49.547222,3.410556,,C18,PA00115875,Q334110,Ancienne abbaye,2,1862 ,fr:Abbaye de Prémontré,3.409831,3.4112810000000002,49.547652,49.546791999999996
49.918219,3.572694,,C18,PA00115962,Q2820538,Ancienne abbaye de Bohéries,2,1995-01-30 ,fr:Abbaye de Bohéries,3.5719689999999997,3.573419,49.918649,49.917789
49.214205,3.409069,,C20,PA00115857,Q3232521,Monument dit des Fantômes commémorant la deuxième victoire de la Marne,2,1934-07-31 ,fr:Les Fantômes (Landowski),3.408344,3.409794,49.214635,49.213775
49.692455,4.018657,,C17,PA00115823,Q3056751,Ermitage,3,1928-02-08 ,fr:Ermitage de Montcornet,4.017932,4.019382,49.692885000000004,49.692025
49.843974,3.291333,building,C18,PA00115911,Q22966463,,3,1930-10-11 ,,3.2906079999999998,3.292058,49.844404000000004,49.843544
49.3638,3.34734,building,C13,PA02000071,Q22995470,Maisons de source et aqueduc (également sur commune de Belleu),3,2007-05-07 ,fr:Belleu,3.346615,3.348065,49.36423,49.363369999999996
49.828247,3.872142,,C15,PA00115681,Q2968749,Ancien château de Cambron,3,1928-02-03 ,fr:Château de Cambron,3.871417,3.8728670000000003,49.828677,49.827816999999996
49.7967982,3.4608625,building,C18,PA00116004,Q3280227,Maison natale de Condorcet,3,1990-03-23 ,fr:Maison natale de Condorcet,3.4601375,3.4615875000000003,49.7972282,49.796368199999996
49.371701,3.814605,,C13,PA00115890,Q3403029,Ancien prieuré,3,1932-06-03 ,fr:Prieuré de Roucy,3.8138799999999997,3.81533,49.372131,49.371271
49.5645,3.616507,yes,,PA00115711,Q22966415,Chapelle Saint-Genebaud,3,1927-07-22 ,,3.615782,3.617232,49.564930000000004,49.56407
49.854491,3.29302,,C19,PA00116009,Q3552635,Usine Sidoux,3,1992-02-24 ,fr:Usine Sidoux,3.2922949999999997,3.293745,49.854921000000004,49.854061
49.56446,3.615862,building,,PA00115763,Q20728760,"Maison dite le Petit-Saint-Nicolas, actuellement Direction départementale des Contributions indirectes",3,1927-06-13 ,fr:Petit-Saint-Nicolas,3.615137,3.616587,49.56489,49.564029999999995
49.612003,3.219627,,C19,PA02000061,Q22995469,Pâtisserie du Marché couvert,3,2006-07-25 ,,3.218902,3.220352,49.612433,49.611573
49.48215,3.635609,,C20,PA02000021,Q2940289,Carrière de Colligis,3,2000-01-26 ,fr:Carrière de Colligis,3.634884,3.636334,49.48258,49.481719999999996
49.264815,3.504156,,C16,PA00115504,Q2968653,Ancien château de Branges,3,1928-02-08 ,fr:Château de Branges,3.503431,3.504881,49.265245,49.264385
49.0353,3.5305,wayside_cross,C13,PA00115613,Q3003479,Croix de cimetière,2,1922-02-07 ,fr:Croix de cimetière de Connigis,3.529775,3.531225,49.03573,49.03487
49.6103958,3.8032309,building,C15,PA02000003,Q22995443,Maison en pan de bois,3,1996-03-14 ,,3.8025059,3.8039559,49.6108258,49.6099658
49.350635,3.169998,wayside_cross,C16,PA00115779,Q3003497,Croix de cimetière,3,1927-06-15 ,fr:Croix de cimetière de Laversine,3.169273,3.170723,49.351065,49.350204999999995
48.873314,3.495275,building,C16,PA02000069,Q3068899,Maison forte dite Ferme de Villefontaine,3,2007-09-14 ,fr:Ferme de Villefontaine,3.49455,3.496,48.873744,48.872884
49.871071,4.103978,,C18,PA02000080,Q3068903,Ancienne ferme de l'abbaye prémontrée de Bucilly,3,2009-11-02 ,fr:Ferme de l'abbaye de Bucilly,4.103253,4.104703,49.871501,49.870641
49.35631,3.3243,,C15,PA00115525,Q22966401,Ancien manoir dit Fief des Tournelles,3,1928-02-08 ,,3.323575,3.325025,49.35674,49.35588
49.856082,3.676469,castle,C18,PA02000075,Q2970305,,3,2008-07-11 ,fr:Château de Puisieux-et-Clanlieu,3.675744,3.677194,49.856512,49.855652
49.25237712,3.08868233,fountain,yes,PA00115986,Q3076174,Fontaine,3,1932-05-11 ,fr:Fontaine de Villers-Cotterêts,3.08795733,3.0894073300000002,49.25280712,49.25194712
49.38399,3.3258,building,C17,PA02000050,Q22995461,Hôtel de la Paix,3,2003-09-23 ,,3.325075,3.326525,49.38442,49.383559999999996
49.030317,3.375345,,,PA00115664,Q22966408,Terrain,2,1928-08-17 ,,3.3746199999999997,3.37607,49.030747,49.029886999999995
49.927579,4.134731,,C13,PA00115904,Q2820695,Ancienne abbaye bénédictine,,,fr:Abbaye de Saint-Michel,4.134006,4.1354560000000005,49.928009,49.927149
49.7403801,3.7691983,building,C20,PA02000079,Q2376860,Maison des Frères Ignorantins,3,2009-07-16 ,fr:Maison des Frères Ignorantins,3.7684732999999997,3.7699233,49.740810100000004,49.7399501
49.33762,3.154428,,C16,PA00115603,Q2410650,Ancien château de Coeuvres,3,1927-06-28 ,fr:Château de Cœuvres,3.1537029999999997,3.155153,49.33805,49.33719
49.044082,3.39367,building,C18,PA00115587,Q22966404,,3,1943-06-11 ,,3.392945,3.3943950000000003,49.044512000000005,49.043652
49.20393,3.568851,yes,C13,PA00115932,Q2970115,Ruines du château de Nesles,2,1922-05-29 ,fr:Château de Nesles,3.568126,3.569576,49.20436,49.2035
49.528342,3.539979,castle,C19,PA02000055,Q2968627,,3,2004-06-07 ,fr:Château de Bourguignon-sous-Montbavin,3.539254,3.5407040000000003,49.528772000000004,49.527912
49.397211,3.468719,,C12,PA00115612,Q3403050,Ancien Prieuré de Saint-Ouen,2,1921-10-24 ,fr:Prieuré de Saint-Ouen,3.467994,3.469444,49.397641,49.396781
49.18376201,3.37166038,,,PA02000028,Q3397779,Ponts Bernard (également sur commune de Breny),3,2001-06-11 ,fr:Ponts Bernard,3.3709353799999997,3.37238538,49.184192010000004,49.18333201
49.585379,3.734233,wayside_cross,C13,PA00115919,Q3003681,Croix,3,1932-06-03 ,fr:Croix monumentale de Samoussy,3.733508,3.7349580000000002,49.585809000000005,49.584949
49.15451,3.425067,castle,C13,PA00115553,Q2971642,Château du Buisson,,,fr:Château du Buisson (Brécy),3.4243419999999998,3.425792,49.15494,49.15408
49.25627244,3.08766162,,C16,PA02000074,Q3108392,Glacière,3,2008-05-09 ,fr:Glacière de Villers-Cotterêts,3.08693662,3.08838662,49.25670244,49.255842439999995
49.306598,3.553128,,C16,PA00115882,Q2970329,Ancien château,3,1927-06-03 ,fr:Château de Quincy-sous-le-Mont,3.552403,3.553853,49.307028,49.306168
49.987028,3.454868,building,C19,PA02000066,Q3146132,Hôtel de ville,3,2007-01-26 ,fr:Hôtel de ville de Bohain-en-Vermandois,3.4541429999999997,3.455593,49.987458000000004,49.986598
48.884693,3.448127,place_of_worship,christian,PA00115659,Q3581279,,3,1928-06-05 ,fr:Église Saint-Cyr-et-Sainte-Julitte de L'Épine-aux-Bois,3.447402,3.448852,48.885123,48.884263
49.716742,3.519686,,C12,PA00115846,Q2957421,Ancienne chapelle des Templiers,3,1928-02-08 ,fr:Chapelle des Templiers de Nouvion-et-Catillon,3.518961,3.520411,49.717172000000005,49.716312
49.200936,3.513565,,,PA00115672,Q3126134,Halles,2,1921-04-19 ,fr:Halles de Fère-en-Tardenois,3.5128399999999997,3.51429,49.201366,49.200506
49.30273495,3.38132307,,C15,PA00115577,Q2970993,Ancien chateau de Villeblain,3,1928-04-19 ,fr:Château de Villeblain,3.38059807,3.38204807,49.30316495,49.30230495
49.2575,3.247222,,C16,PA00115793,Q2969744,Ancien château,3,1928-02-08 ,fr:Château de Louâtre,3.2464969999999997,3.247947,49.25793,49.25707
49.25813,3.04107,,C16,PA00115774,Q22966462,Ancien manoir dit Fief Goret,3,1928-02-08 ,,3.040345,3.041795,49.25856,49.2577
49.807314,4.0201029,marketplace,yes,PA02000013,Q3126094,Halle,3,1998-02-13 ,fr:Halle de Plomion,4.0193779,4.0208279000000005,49.807744,49.806884
49.984742,3.932149,,C20,PA02000005,Q3323337,Monument de la Pierre d'Haudroy,3,1997-12-22 ,fr:Monument de la Pierre d'Haudroy,3.931424,3.932874,49.985172,49.984311999999996
49.723862,3.866871,farm,C13,PA00115909,Q3068894,Ferme de Saint-Antoine,3,1988-12-30 ,fr:Ferme de Saint-Antoine,3.866146,3.8675960000000003,49.724292,49.723431999999995
49.4151,3.1361,,C20,PA02000026,Q2940287,Carrière de Chapeaumont,3,2000-07-17 ,fr:Carrière de Chapeaumont,3.135375,3.136825,49.415530000000004,49.41467
49.047679,3.405499,city_gate,C13,PA00115589,Q3398954,Porte Saint-Jean,2,1921-10-22 ,fr:Porte Saint-Jean (Château-Thierry),3.4047739999999997,3.406224,49.048109000000004,49.047249
49.37837,3.32476,,C18,PA00115950,Q22966473,Ancien Grand séminaire,2,1922-05-09 ,,3.324035,3.325485,49.3788,49.377939999999995
49.4309,3.2896,archaeological_site,megalith,PA00115966,Q3034095,Dolmen dit la Pierre Laye,2,1944-03-17 ,fr:Dolmen de la Pierre Laye,3.288875,3.290325,49.43133,49.43047
49.118128,3.43326,castle,C16,PA00116007,Q2970074,Château et ferme de Moucheton,3,1992-04-10 ,fr:Château de Moucheton,3.432535,3.4339850000000003,49.118558,49.117698
49.663489,3.366226,castle,C15,PA00115666,Q2969550,,,,fr:Château de La Fère,3.365501,3.3669510000000002,49.663919,49.663059
49.598548,3.37501,,C17,PA00135569,Q3287074,Ancienne manufacture royale des glaces,3,1995-03-15 ,fr:Manufacture royale de glaces de miroirs,3.374285,3.375735,49.598978,49.598118
49.844044,3.288603,yes,C19,PA02000056,Q2399232,Chapelle de la Charité,3,2005-07-29 ,fr:Chapelle de la Charité,3.287878,3.2893280000000003,49.844474,49.843613999999995
49.9005799,3.626976,building,C17,PA02000039,Q3145695,Hôtel Warnet,,,fr:Hôtel Warnet,3.626251,3.627701,49.9010099,49.900149899999995
48.995154,3.266618,castle,C18,PA02000073,Q2971027,,3,2007-09-14 ,fr:Château de Villiers-Saint-Denis,3.2658929999999997,3.267343,48.995584,48.994724
49.254967,3.090722,,C18,PA00125660,Q3146210,"Ancien logis abbatial des Prémontrés, actuel Hôtel de Ville",2,1995-05-10 ,fr:Hôtel de ville de Villers-Cotterêts,3.089997,3.091447,49.255397,49.254537
49.374899,3.227237,castle,C14,PA00115867,Q2970197,Château de Pernant,,,fr:Château de Pernant,3.226512,3.227962,49.375329,49.374469
49.264948,3.598645,,C12,PA00115594,Q2957302,Ancienne chapelle de la Ferme des Dames,3,1927-06-28 ,fr:Chapelle de la Ferme des Dames,3.59792,3.59937,49.265378,49.264517999999995
49.074,3.5426,place_of_worship,christian,PA00115629,Q3581333,,2,1941-04-25 ,fr:Église Saint-Denis de Courtemont-Varennes,3.541875,3.5433250000000003,49.07443,49.07357
49.045017,3.402843,tower,yes,PA00115592,Q3533021,Tour Balhan,3,1926-12-02 ,fr:Tour Balhan,3.4021179999999998,3.403568,49.045447,49.044587
49.16561,3.265242,stone,grooves,PA00115842,Q3394285,Polissoir,2,1970-02-10 ,fr:Polissoir de Neuilly-Saint-Front,3.264517,3.2659670000000003,49.16604,49.16518
49.048217,3.406094,city_gate,C13,PA00115590,Q3398966,Porte Saint-Pierre,2,1886-07-12 ,fr:Porte Saint-Pierre (Château-Thierry),3.405369,3.406819,49.048647,49.047787
49.6607056,3.3676342,building,C19,PA00115668,Q22966409,,3,1987-07-16 ,,3.3669092,3.3683592,49.6611356,49.6602756
49.20454,3.435856,,C16,PA00115561,Q2969323,Ancien chateau de Givray,3,1928-06-05 ,fr:Château de Givray,3.4351309999999997,3.436581,49.20497,49.20411
49.365923,3.699818,,C16,PA00115886,Q3286271,Ancien manoir,3,1927-06-28 ,fr:Manoir de Révillon,3.699093,3.700543,49.366353000000004,49.365493
49.5042,3.8241,archaeological_site,fortification,PA02000081,Q22995473,Oppidum,3,2013-05-27 ,,3.823375,3.824825,49.50463,49.503769999999996
49.38297,3.32343,,C13,PA00115937,Q22966465,Ancienne abbaye de Longpont,3,1988-05-27 ,,3.322705,3.324155,49.3834,49.38254
49.6958908,3.6239682,building,C17,PA00115637,Q22966407,Maison du 17e siècle,,,,3.6232432,3.6246932000000003,49.6963208,49.6954608
49.341094,3.564361,yes,C13,PA00115626,Q2957445,Chapelle dite Le Calvaire,3,1929-01-25 ,fr:Chapelle du Calvaire (Courcelles-sur-Vesle),3.563636,3.565086,49.341524,49.340664
49.379528,3.236233,wayside_cross,C14,PA00115866,Q3003680,Croix,2,1937-04-24 ,fr:Croix monumentale de Pernant,3.235508,3.236958,49.379958,49.379098
49.42847,3.173209,,C20,PA02000007,Q3323343,Monument des Fusillés,3,1997-04-30 ,fr:Monument des Fusillés,3.172484,3.173934,49.4289,49.428039999999996
49.314655,3.341587,,C20,PA00115570,Q3323353,Monument des Ecossais au Brisquet,2,1922-06-26 ,fr:Monument des Écossais,3.340862,3.342312,49.315085,49.314225
49.528673,3.541152,,,PA02000046,Q3555403,Vendangeoir des Frères Le Nain,3,2003-09-23 ,fr:Vendangeoir des Frères Le Nain,3.5404269999999998,3.541877,49.529103,49.528242999999996
43.84797,6.514158,tower,yes,PA00080362,Q3533851,Tour pentagonale du 14s sur une hauteur dominant la ville,2,1921-08-12 ,fr:Tour pentagonale de Castellane,6.513433,6.514883,43.8484,43.847539999999995
44.092727,6.237724,building,C16,PA00080381,Q3145687,Hôtel Thoron de la Robine,2,1982-02-02 ,fr:Hôtel Thoron de la Robine,6.236999,6.238449,44.093157,44.092296999999995
43.959933,5.780712,building,C15,PA04000018,Q22995531,,3,1999-01-19 ,,5.779987,5.781437,43.960363,43.959503
44.0041,6.6401,,C18,PA00080401,Q3355121,Oratoire Saint-Joseph,3,1966-02-03 ,fr:Oratoire Saint-Joseph du Fugeret,6.639375,6.640825,44.00453,44.00367
43.8267763,6.1289781,building,C15,PA00080456,Q22998314,,2,1986-05-22 ,fr:Hôtel Ferrier,6.1282531,6.1297031,43.8272063,43.8263463
43.817687,6.0929493,building,C17,PA04000020,Q22995535,,3,1999-01-19 ,,6.0922243,6.0936743,43.818117,43.817257
43.9585478,5.7805737,building,C17,PA00080398,Q3145398,Hôtel Arnaud (ancien),3,1980-12-24 ,fr:Hôtel Arnaud,5.7798487,5.7812987,43.9589778,43.9581178
44.028332642842,5.9767234325409,building,C17,PA00080432,,Hôtel de Crose et portail Saint-Félix,3,1989-02-21 ,fr:Hôtel de Crose,5.9759984325409,5.9774484325409,44.028762642842004,44.027902642842
43.9375,5.7676,building,C17,PA00080415,Q3145901,Hôtel de Miravail (ancien),,,fr:Hôtel de Miravail,5.766875,5.768325,43.93793,43.93707
44.202611,5.9471667,place_of_worship,christian,PA00080495,Q3585912,Église des Dominicains de la Baume,2,1963-04-04 ,fr:Église des Dominicains de la Baume,5.9464417,5.9478917000000004,44.203041,44.202180999999996
43.812258,5.7496,city_gate,,PA00080446,Q3398958,Porte de l'enceinte (ancienne),3,1937-10-27 ,fr:Porte Saint-Joseph de Pierrevert,5.748875,5.750325,43.812688,43.811828
43.9811,5.5628,building,C17,PA00080489,Q22998315,,3,1932-06-03 ,,5.562075,5.563525,43.98153,43.980669999999996
43.952444,6.8135278,citywalls,C14,PA00080387,Q2974378,Fortifications et citadelle,,,fr:Citadelle d'Entrevaux,6.8128028,6.8142528,43.952874,43.952014
43.958683,5.781608,building,C16,PA00080400,Q3278805,Maison Jean Rey,3,1943-09-17 ,fr:Maison Jean Rey,5.780883,5.782333,43.959113,43.958253
44.0728,5.98918,building,C20,PA04000022,Q22995536,Maison en bois à portique appelée aussi chalet,3,2001-04-26 ,,5.988455,5.989905,44.07323,44.07237
43.956944,5.8336,yes,C12,PA00080444,Q2956966,Chapelle Saint-Pierre (ruines),3,1984-07-11 ,fr:Chapelle Saint-Pierre de Pierrerue,5.832875,5.834325,43.957374,43.956514
43.895222,6.5066667,archaeological_site,megalith,PA00132925,Q3034128,Dolmen des Pierres Blanches,3,1994-07-25 ,fr:Dolmen des Pierres Blanches,6.5059417,6.5073917,43.895652,43.894791999999995
44.166035,6.603585,building,C17,PA00080506,Q2932744,Maison communale,3,1948-11-29 ,,6.60286,6.60431,44.166465,44.165605
43.948889,6.811111,,C12,PA04000005,Q2942250,"Ancienne cathédrale de Glandèves, Notre-Dame de la Sed, dite aussi chapelle de l'Hôpital",3,1996-06-27 ,fr:Cathédrale Notre-Dame-de-la-Sed d'Entrevaux,6.810386,6.8118360000000004,43.949319,43.948459
44.386391,6.646431,,C20,PA04000029,Q3323302,"Monument aux morts de la guerre de 1914-1918, dit aussi Monument aux morts de la Vallée",3,2010-02-22 ,fr:Monument aux morts de la Vallée,6.645706,6.647156,44.386821000000005,44.385961
43.82671,6.1289999000001,building,C15,PA04000019,Q22995533,Maison à encorbellement,3,1999-01-19 ,,6.1282749000001,6.1297249000001,43.82714,43.82628
43.9585232,5.7805092999999,building,C14,PA00080399,Q3145719,Hôtel d'Autane,3,1988-09-13 ,fr:Hôtel d'Autane,5.7797842999999,5.7812342999999,43.9589532,43.9580932
44.100098698062,5.6158590316772,,C19,PA04000007,Q3325623,"Ferme, dite Le Moulin de Giono, située au Contadour",3,1996-06-17 ,fr:Moulin de Giono,5.6151340316772,5.6165840316772,44.100528698062,44.099668698062
43.961444,6.6708056,wayside_cross,C10,PA00080351,Q3003285,Croix couverte,2,1928-09-15 ,fr:Croix couverte d'Annot,6.6700805999999995,6.6715306,43.961874,43.961014
43.8866,5.6969,,C19,PA04000015,Q3325572,Moulin Delestic dit aussi moulin Agnelier ou de l'Agnelet,3,1993-05-28 ,fr:Moulin Delestic,5.696175,5.697625,43.88703,43.88617
44.115086,6.23149,,C19,PA04000003,Q3552682,Usine à plâtre de Champourcin,3,1996-06-17 ,fr:Usine à plâtre de Champourcin,6.230765,6.232215,44.115516,44.114656
43.959994,5.780836,,C17,PA00080394,Q3001764,Collège (ancien),3,1927-03-09 ,fr:Collège de Forcalquier,5.780111,5.781561,43.960424,43.959564
44.038478,5.627492,,C17,PA00080352,Q3398776,Portail féodal (ancien),3,1927-10-26 ,fr:Portail féodal de Banon,5.626767,5.628217,44.038908,44.038047999999996
44.023850643807,6.3850522041321,tower,yes,PA00080371,Q3533521,"Tour de l'Annonciade, dite aussi Tour de Poriane",3,1989-02-21 ,fr:Tour de l'Annonciade,6.3843272041320995,6.3857772041321,44.024280643807,44.023420643807
43.9542,5.7847,monastery,C16,PA04000010,Q3402929,Prieuré et chapelle Saint-Pancrace,3,1997-10-14 ,fr:Prieuré Saint-Pancrace,5.783975,5.785425,43.95463,43.95377
44.124917,6.00425,,,PA00080513,Q3402913,Ancien prieuré Saint-Jean-de-Taravon,3,1992-01-30 ,fr:Prieuré Saint-Jean-de-Taravon,6.003525,6.004975,44.125347000000005,44.124487
43.87776919883,5.6613492965698,city_gate,C13,PA00080449,Q3398971,Porte Saint-Pierre,3,1984-12-28 ,fr:Porte Saint-Pierre de Reillanne,5.6606242965698,5.6620742965698,43.87819919883,43.87733919883
44.3702777778,6.06055555556,,C19,PA04000002,Q3063970,Ancienne fabrique Rolland de plâtre et de chaux,3,1996-06-17 ,fr:Fabrique Rolland,6.05983055556,6.06128055556,44.3707077778,44.3698477778
43.9668,6.4377,,C17,PA04000016,Q3491890,Source salée,3,1993-04-01 ,fr:Source salée de Moriez,6.436975,6.4384250000000005,43.96723,43.96637
44.0642,6.4084,,,PA04000021,Q3491889,Source salée,3,1993-04-01 ,fr:Source salée de Tartonne,6.407675,6.409125,44.06463,44.06377
43.694,6.033,,,PA00080514,Q2821900,Abri Donner,3,1992-04-07 ,fr:Abri Donner,6.032275,6.0337250000000004,43.694430000000004,43.69357
43.832079,5.7837208,building,C17,PA00080426,Q22998311,,3,1987-03-10 ,,5.7829958,5.7844458,43.832509,43.831649
43.910761,5.714885,yes,C12,PA00080469,Q2956669,Chapelle avec son clocher,2,1942-11-13 ,fr:Église Saint-Michel de Saint-Michel-l'Observatoire,5.71416,5.71561,43.911191,43.910331
44.193639,5.9438056,,C18,PA00080497,Q3145293,Hôpital,3,1989-02-21 ,fr:Hôpital de Sisteron,5.9430806,5.9445306,44.194069,44.193208999999996
44.195333,5.9431111,,,PA00080496,Q3053740,Enceinte (restes de l'ancienne),2,1875 ,fr:Enceinte de Sisteron,5.9423861,5.9438361,44.195763,44.194903
43.825455784665,6.1297166347504,,,PA00080458,Q3556380,Vestiges antiques correspondant à trois états d'occupation,2,1983-05-06 ,fr:Vestiges antiques de Riez,6.1289916347504,6.1304416347504,43.825885784665005,43.825025784665
43.959111,5.78325,monastery,convent,PA00080395,Q1450288,Couvent des Cordeliers (restes de l'ancien),3,1968-09-12 ,fr:Couvent des Cordeliers de Forcalquier,5.782525,5.783975,43.959541,43.958681
44.0729,5.9891,building,C20,PA04000023,Q22995537,Maison en bois à portique appelée aussi chalet,3,2001-03-19 ,,5.988375,5.989825,44.07333,44.072469999999996
44.2389,6.0169,,C 5,PA00080464,Q3151503,Roche ornée avec inscription gallo-romaine dite la Pierre Ecrite,2,1909-03-10 ,fr:Inscription de la Pierre Écrite,6.016175,6.017625,44.23933,44.23847
43.833728,5.783069,wayside_cross,C16,PA00080421,Q3003357,Croix en pierre située autrefois dans le cimetière Notre-Dame,3,1927-03-19 ,fr:Croix de Manosque,5.782344,5.783794,43.834158,43.833298
44.1971953,5.9448416,building,C16,PA00080499,Q22998317,,3,1948-11-29 ,,5.9441166,5.9455666,44.1976253,44.196765299999996
44.092197,6.237281,building,C18,PA00080382,Q22998309,,3,1976-02-04 ,,6.236556,6.238006,44.092627,44.091767
44.182028,6.62725,,C17,PA00080373,Q3053728,Enceinte fortifiée de la ville,2,1923-02-12 ,fr:Enceinte de Colmars,6.626525,6.627975,44.182458000000004,44.181598
44.0932873983,5.6128978729248,,C20,PA04000008,Q3068928,"Ferme, dite Les Graves, située au Contadour",3,1996-06-17 ,fr:Ferme des Graves,5.6121728729248,5.6136228729248,44.0937173983,44.0928573983
44.0899,6.01223,monastery,C11,PA00080368,Q3402930,Prieuré Saint-Pierre-ès-Liens (restes),3,1978-05-30 ,fr:Prieuré Saint-Pierre-ès-Liens,6.011505,6.012955,44.09033,44.08947
43.857190508383,5.5894982814789,building,C13,PA00080511,Q22998322,Maison médiévale,,,,5.5887732814788995,5.5902232814789,43.857620508383,43.856760508383
43.837336,5.983177,place_of_worship,christian,PA00135600,Q3581361,Église paroissiale Saint-Blaise et vestiges de l'ancien prieuré Saint-Mayeul,,,fr:Église Saint-Denis de Valensole,5.982452,5.9839020000000005,43.837766,43.836906
44.081566,6.224066,building,C20,PA04000004,Q3279145,Maison d'Alexandra David-Neel du nom tibétain de Samten Dzong (maison de la réflexion),3,1996-06-17 ,fr:Maison d'Alexandra David-Neel,6.223341,6.224791,44.081996000000004,44.081136
43.955861719545,6.1736726760864,place_of_worship,christian,PA00080390,Q3580474,Église (ancienne),3,1926-12-02 ,fr:Église Notre-Dame d'Estoublon,6.1729476760864,6.1743976760864,43.956291719545,43.955431719545
43.9252778,5.7205555555556,yes,C12,PA00080470,Q2956876,Chapelle Saint-Jean,3,1979-04-23 ,fr:Chapelle Saint-Jean de Saint-Michel-l'Observatoire,5.7198305555556,5.7212805555556,43.925707800000005,43.9248478
43.972086,5.672126,citywalls,C15,PA00080450,Q2405491,Rempart,3,1943-07-09 ,fr:Remparts de Revest-des-Brousses,5.6714009999999995,5.672851,43.972516,43.971655999999996
44.1857,6.0122,farm,C10,PA00080383,Q3068949,Ferme du prieuré de Vilhosc,2,1934-07-12 ,fr:Ferme du prieuré de Vilhosc,6.011475,6.012925,44.18613,44.185269999999996
44.389068,6.654697,archaeological_site,roman_villa,PA00080355,Q3558496,"Villa Costebelle, dans le quartier de l'Adroit",3,1986-02-21 ,fr:Villa Costebelle,6.6539719999999996,6.655422,44.389498,44.388638
43.97119922,6.76019844,bridge,,PA00080460,Q3396986,Pont de Gueydan sur le Colomp,2,1944-02-28 ,fr:Pont de Gueydan,6.75947344,6.76092344,43.971629220000004,43.97076922
44.786,6.534,,,PA00132926,Q22975780,Village minier du Fournel,3,1994-10-01 ,,6.533275,6.534725,44.78643,44.78557
44.556,6.0769,building,C19,PA00080642,Q22998547,,3,1989-09-19 ,,6.076175,6.077625,44.55643,44.555569999999996
44.6697,6.6243,,,PA00080588,Q22998466,Mesure banale de grains en pierre,3,1944-02-09 ,,6.623575,6.625025,44.67013,44.66927
44.8259,6.1446,,C19,PA00080638,Q22998535,Moulin à eau (ancien),3,1983-03-21 ,,6.1438749999999995,6.145325,44.82633,44.825469999999996
44.7658,6.8046,building,,PA00135603,Q22995035,"Maison Thier, sise aux Meyriès",3,1995-05-05 ,,6.803875,6.805325,44.76623,44.76537
44.562779,6.493584,fountain,yes,PA00080560,Q22998434,Fontaine,3,1927-03-19 ,,6.492859,6.494309,44.563209,44.562349
44.7569,6.7902,,C19,PA00135601,Q22995025,"Maison, sise à Château-Queyras",3,1995-02-20 ,,6.7894749999999995,6.790925,44.75733,44.75647
44.5645,6.4957,building,C14,PA05000002,Q22995542,,3,1996-02-16 ,,6.494975,6.496425,44.564930000000004,44.56407
44.4285,5.7147,,C19,PA05000005,Q3333286,Ecole primaire,3,1996-10-03 ,,5.713975,5.715425,44.42893,44.42807
44.8906,6.6252,,,PA00135605,Q22995047,"Maison, au Pinet",3,1995-03-21 ,fr:Giovanni Francesco Zarbula,6.624475,6.6259250000000005,44.89103,44.89017
44.6719,6.2318,castle,manor,PA00080611,Q22998496,Manoir de Prégentil,3,1988-09-13 ,,6.231075,6.232525,44.67233,44.67147
44.794666,6.928049,,C17,PA05000019,Q22995558,Ensemble paroissial d'Abriès,3,2014-02-07 ,,6.927324,6.928774,44.795096,44.794236
44.7868,6.5541,building,C17,PA00132713,Q22969366,maison Giraud,3,1994-03-25 ,,6.553375,6.554825,44.78723,44.78637
44.5636,6.4949,building,C12,PA00080561,Q22998435,Hôtel des Gouverneurs (ancien),,,,6.494175,6.495625,44.56403,44.56317
45.0459,6.3047,,C12,PA00080573,Q22998452,Ensemble religieux,2,1959-07-10 ,,6.303975,6.3054250000000005,45.046330000000005,45.04547
44.9371,6.5955,,,PA00135607,Q22995066,"Maison, à Villard-Late",3,1995-05-31 ,fr:Giovanni Francesco Zarbula,6.594775,6.5962250000000004,44.93753,44.93667
44.5652,6.4966,fountain,yes,PA00080557,Q22998431,Fontaine,3,1930-10-11 ,,6.495875,6.497325,44.56563,44.564769999999996
44.7854,6.5537,,C17,PA00080646,Q22916155,Ensemble domanial dit Château Saint-Jean,3,1992-05-13 ,,6.552975,6.554425,44.785830000000004,44.78497
44.7987,6.5646,,,PA05000012,Q14627616,Ancien cellier dit de la maison Planche,3,1993-02-04 ,fr:Cellier de la maison Planche,6.563875,6.5653250000000005,44.79913,44.798269999999995
44.8696182,6.7212812,,C18,PA05000018,Q22995556,Maison-ferme dite maison Faure-Vincent,3,2011-05-11 ,,6.7205562,6.7220062,44.8700482,44.869188199999996
45.0029,6.6619,,,PA00135604,Q22995039,"Immeuble, sis à Plampinet",3,1995-09-01 ,,6.661175,6.662625,45.00333,45.002469999999995
44.6697,6.6241,,C17,PA00080589,Q22998467,Place-forte,2,1966-10-18 ,,6.623375,6.624825,44.67013,44.66927
44.7658,6.7789,,,PA00135602,Q22995029,"Maison, sise Clot du Riou à Souliers",3,1995-08-02 ,fr:Giovanni Francesco Zarbula,6.778175,6.779625,44.76623,44.76537
44.8069,6.5612,,C13,PA00080637,Q22998533,Mur dit des Vaudois,2,1988-10-13 ,,6.560475,6.5619250000000005,44.80733,44.80647
44.7339,6.8352,,C15,PA00135710,Q22995413,"Maison, au hameau de la Rua",2,1995-10-12 ,,6.834475,6.8359250000000005,44.73433,44.73347
44.5635,6.4937,fountain,yes,PA00080559,Q22998433,Fontaine,3,1948-11-29 ,,6.4929749999999995,6.494425,44.56393,44.563069999999996
44.3179,5.8748,building,C17,PA00080631,Q22998520,Immeuble dit ancien château,,,,5.8740749999999995,5.875525,44.31833,44.31747
44.5643,6.496,fountain,yes,PA00080558,Q22998432,Fontaine,3,1948-11-29 ,,6.495275,6.4967250000000005,44.564730000000004,44.56387
44.9776,6.5067,yes,C15,PA00080582,Q22998441,"Chapelle Saint-Martin, puis garage",2,1989-12-18 ,,6.505975,6.5074250000000005,44.978030000000004,44.97717
44.3322,6.0437,,C18,PA00080568,Q3034419,Domaine de Charance,3,1987-09-08 ,fr:Domaine de Charance,6.042975,6.044425,44.33263,44.33177
44.3147,5.8227,,C17,PA05000003,Q22995543,Ancien château de Laragne,3,1996-08-02 ,,5.821975,5.823425,44.31513,44.31427
44.9517,6.6755,,,PA00135609,Q22995074,"Maison, sise au hameau de Pra-Premier",3,1995-08-02 ,fr:Giovanni Francesco Zarbula,6.674775,6.6762250000000005,44.952130000000004,44.95127
44.5627,6.4946,building,C13,PA00080562,Q1798885,"Maison des Chanonges ou du Chapître, anciennement collège des Chanoines de la cathédrale",2,1988-10-24 ,,6.493875,6.495325,44.56313,44.56227
44.703,6.8649,,C19,PA05000004,Q22995544,"Maison, sise aux Forannes",3,1996-08-02 ,fr:Giovanni Francesco Zarbula,6.8641749999999995,6.865625,44.703430000000004,44.70257
44.3774,5.5133,tower,yes,PA00080606,Q22998491,Tour carrée et immeuble qui la jouxte,3,1988-02-29 ,,5.512575,5.514025,44.37783,44.37697
44.8119,6.559,yes,C14,PA00080635,Q22998527,Chapelle Saint-Claude,3,1983-06-27 ,,6.558275,6.559725,44.81233,44.81147
44.7305,6.843,building,C16,PA00080580,Q22998444,,3,1930-10-11 ,,6.842275,6.843725,44.73093,44.73007
44.6576,6.6527,yes,C18,PA00080575,Q22998447,Chapelle Notre-Dame-des-Neiges et Saint-Ours,3,1986-10-21 ,,6.651975,6.653425,44.658030000000004,44.65717
44.8774,6.6855,,,PA05000011,Q18380153,Téléphérique militaire de Terre Rouge ou des Gondrans,,,,6.684775,6.686225,44.87783,44.87697
44.3914,5.4711,tower,defensive,PA00080603,Q22998488,Donjon,3,1932-06-03 ,,5.470375,5.471825,44.39183,44.390969999999996
44.8697,6.7222,building,C19,PA05000001,Q22995541,,3,1996-06-27 ,fr:Giovanni Francesco Zarbula,6.721475,6.722925,44.87013,44.86927
44.4291,5.716,building,C16,PA00080627,Q22998517,Maison dite de Lesdiguières,2,2000-12-06 ,,5.715275,5.716725,44.42953,44.42867
44.6634,6.5795,yes,C18,PA00135606,Q22995056,"Chapelle Notre-Dame-des-Neiges, au hameau des Casses",3,1995-02-20 ,,6.578775,6.580225,44.663830000000004,44.66297
44.794,6.9276,,C17,PA00080516,,Vieille Halle,,,,6.926875,6.928325,44.79443,44.793569999999995
44.7062,6.6075,place_of_worship,christian,PA00080609,Q22998494,,2,1931-08-18 ,,6.606775,6.608225,44.706630000000004,44.70577
44.5526,6.0803,castle,manor,PA00080570,Q22998456,Manoir de Kapados,,,,6.079575,6.081025,44.55303,44.55217
44.4284,5.7146,building,,PA00080626,Q22998516,"Maison dite hôtel de Perrinet, actuellement mairie, ancien hôtel de Lesdiguières",2,1927-05-16 ,,5.713875,5.715325,44.428830000000005,44.42797
44.9439,6.5531,,C17,PA00080624,Q22998514,Maison-Ferme,3,1987-06-29 ,,6.552375,6.553825,44.94433,44.94347
44.5451,6.2766,fountain,yes,PA00080551,Q22998428,Fontaine sur la place,3,1930-10-11 ,,6.275875,6.277325,44.54553,44.544669999999996
43.67324922,6.80808463,archaeological_site,megalith,PA00080947,,Dolmen et tombe en blocs de Mauvans Sud,3,1989-04-26 ,fr:Dolmen de Mauvans Sud,6.80735963,6.80880963,43.673679220000004,43.67281922
43.8164444,7.21755556,,C19,PA06000019,Q2310539,"Siphon de Saint-Blaise, ouvrage technique remarquable du canal de la Vésubie (également sur commune de Saint-Blaise)",3,2001-11-28 ,fr:Canal de la Vésubie,7.21683056,7.21828056,43.8168744,43.8160144
43.8645,6.75733333,yes,C12,PA00080678,Q15945253,Chapelle Saint-Martin,3,1936-12-12 ,fr:Chapelle Saint-Martin de Briançonnet,6.75660833,6.75805833,43.86493,43.86407
43.758278,7.473493,tomb,C1,PA00080823,Q15952739,Tombeau romain,2,1951-06-12 ,fr:Mausolée de Lumone,7.472768,7.4742180000000005,43.758708,43.757847999999996
43.5773286,7.1260875,citywalls,,PA00080660,Q15945158,Remparts et demi-bastion 17 dit Fort Saint-André,3,1930-01-23 ,fr:Bastion Saint-André (Antibes),7.1253625,7.1268125,43.5777586,43.5768986
43.6677222,7.15683333,,C19,PA06000001,Q30291857,Domaine des Collettes,2,2001-10-25 ,fr:Musée Renoir de Cagnes-sur-Mer,7.15610833,7.1575583300000005,43.6681522,43.6672922
44.25639,6.924924,building,,PA00135613,Q22995090,Maison de Sébastien Fabri,3,1995-07-26 ,,6.924199,6.925649,44.256820000000005,44.25596
43.93735,7.514117,yes,C18,PA00080673,Q13518513,Chapelle Sainte-Catherinne (ancienne chapelle des Pénitents Blancs),2,1979-06-18 ,fr:Chapelle Sainte-Catherine de Breil-sur-Roya,7.513392,7.514842,43.937780000000004,43.93692
43.65786,6.92472,place_of_worship,christian,PA00080727,Q1329745,Cathédrale (ancienne),2,1920-06-30 ,fr:Cathédrale Notre-Dame-du-Puy de Grasse,6.923995,6.925445,43.65829,43.65743
43.559799,7.041158,archaeological_site,roman_villa,PA00080954,Q3558514,Villa Domergue,3,1990-09-19 ,fr:Villa Domergue,7.040433,7.041883,43.560229,43.559369
43.7309818,7.1061774,,,PA00080915,Q22999284,Commanderie de Saint-Martin (restes de l'ancienne),3,1927-08-14 ,,7.1054524,7.1069024,43.731411800000004,43.7305518
43.8519444,7.23802778,,C11,PA00080749,Q15945070,Ancienne abbaye de la Madone-des-Prés,2,1965-10-05 ,fr:Abbaye de la Madone-des-Prés,7.23730278,7.23875278,43.8523744,43.8515144
43.8844167,7.36188889,,C12,PA00080756,Q5118800,Chateau (restes),3,1927-02-28 ,fr:Rempart de Lucéram,7.36116389,7.36261389,43.884846700000004,43.8839867
44.0535833,7.25302778,yes,C15,PA00080950,Q2957007,"Chapelle Saint-Sébastien, dite Sainte-Claire",2,2000-05-26 ,fr:Chapelle Saint-Sébastien de Venanson,7.25230278,7.25375278,44.0540133,44.0531533
43.72269794,7.1142162,,,PA00080914,Q22999283,Colonnes romaines,2,1886-07-12 ,,7.1134912,7.1149412000000005,43.723127940000005,43.72226794
44.227177,6.934792,,,PA00080836,Q22916205,Edicule dit Pilon d'Auron,3,1928-01-27 ,,6.934067,6.935517,44.227607,44.226746999999996
43.8600278,7.22569444,,,PA00080751,Q22916192,Passage voûté,3,1942-07-04 ,,7.22496944,7.22641944,43.8604578,43.859597799999996
43.8133056,7.31011111,,C19,PA00080714,Q15948831,Site de l'ancienne forge,,,fr:Forge de Contes,7.30938611,7.31083611,43.8137356,43.8128756
44.076111,7.438333,,,PA00080881,Q22999258,Gravures rupestres de la vallée des Merveilles et de la région du Mont Bégo,,,fr:Vallée des Merveilles,7.437608,7.439058,44.076541,44.075680999999996
43.7217045,7.29717837,archaeological_site,roman_villa,PA06000045,Q17355614,Villa Schmitz,3,2013-10-01 ,fr:Villa Schmitz,7.29645337,7.29790337,43.7221345,43.7212745
43.699008,7.278419,,C17,PA00080776,Q3360951,Bourse du Travail,3,1949-12-10 ,fr:Palais communal de Nice,7.277694,7.2791440000000005,43.699438,43.698578
44.06807806,7.25559635,castle,C17,PA00080842,Q15952117,Château Gubernatis ou palais Gubernatis,3,1933-06-06 ,fr:Maison Gubernatis (Saint-Martin-Vésubie),7.25487135,7.25632135,44.06850806,44.067648059999996
43.696853,7.273499,,,PA00080777,Q2879075,Caserne Lympia (ancienne),3,1943-09-16 ,fr:Bagne de Nice,7.272774,7.274224,43.697283,43.696422999999996
43.8773,7.4475,building,C12,PA00080873,Q22999250,Maison Romane,3,1939-05-19 ,,7.446775,7.448225,43.87773,43.87687
43.656889,6.8315556,archaeological_site,megalith,PA00080946,Q3034004,Dolmen de Colbas I,3,1989-04-26 ,fr:Dolmen de Colbas 1,6.8308306,6.8322806,43.657319,43.656459
43.577541,7.1261,,,PA00080658,Q13518447,Monument romain provenant de Biot,2,1945-04-19 ,fr:Monument romain provenant de Biot,7.125375,7.126825,43.577971,43.577110999999995
43.80281368,7.40279354,,C12,PA00080813,Q15953011,Place Lascaris,3,1942-09-30 ,fr:Place Lascaris,7.40206854,7.40351854,43.80324368,43.80238368
43.69510438,7.12334685,citywalls,C13,PA00080847,Q15953236,Remparts et cimetière avoisinant,2,1945-02-20 ,fr:Remparts de Saint-Paul-de-Vence,7.12262185,7.12407185,43.69553438,43.694674379999995
43.7536,7.381764,,C16,PA00080888,Q3216163,Sanctuaire de Laghet,3,1931-01-12 ,fr:Laghet,7.381039,7.3824890000000005,43.75403,43.75317
43.759875,7.463186,archaeological_site,roman_villa,PA00080824,Q627266,Villa E 1027 d'Eileen Gray,2,2000-03-27 ,fr:Villa E-1027,7.462461,7.463911,43.760305,43.759445
44.0620833,7.61480556,,C12,PA00080683,Q15944475,Chateau des Seigneurs (restes),3,1949-02-02 ,fr:Château des Seigneurs de la Brigue,7.61408056,7.61553056,44.0625133,44.061653299999996
43.87747737,7.44651936,,C16,PA00080869,Q22999242,Hospice (ancien),3,1931-02-02 ,,7.44579436,7.44724436,43.87790737,43.87704737
43.79490274,6.68917259,yes,C12,PA00080905,Q15945252,Chapelle Saint-Léonce (vestiges),3,1947-09-10 ,fr:Chapelle Saint-Léonce de Valderoure,6.68844759,6.68989759,43.79533274,43.794472739999996
43.699519,7.278405,,C15,PA00125704,Q3001619,Ancien couvent Saint-François,3,1993-06-23 ,fr:Couvent Saint-François de Nice,7.27768,7.27913,43.699949000000004,43.699089
43.9018611,7.51441667,yes,C19,PA00080963,Q13518197,Chapelle Notre-Dame de la Visitation ou chapelle des Pénitents,3,1992-04-07 ,fr:Chapelle Notre-Dame-de-la-Visitation de Piène-Haute,7.51369167,7.51514167,43.9022911,43.901431099999996
43.7652,7.45970753,castle,C12,PA00080819,Q1013727,Château des Grimaldi,3,1927-02-28 ,fr:Château de Roquebrune-Cap-Martin,7.45898253,7.46043253,43.76563,43.76477
43.81311787,7.50624308,,,PA06000028,Q13518297,"Abri Pendimoun, gisement préhistorique",3,2007-05-21 ,fr:Abri Pendimoun,7.50551808,7.50696808,43.81354787,43.81268787
43.678083,6.8025556,archaeological_site,megalith,PA00080945,Q3034129,Dolmen des Puades,3,1989-04-26 ,fr:Dolmen des Puades,6.8018306,6.8032806,43.678513,43.677653
43.580556,7.128333,castle,C15,PA00080651,Q13398054,"Château des Grimaldi, actuellement musée Picasso",2,1928-04-29 ,fr:Musée Picasso (Antibes),7.1276079999999995,7.129058,43.580986,43.580126
43.6139296,7.1068883,,C18,PA00080650,Q22916159,Bastide du Roy,,,,7.1061632999999995,7.1076133,43.6143596,43.6134996
43.745007,7.400885,building,C12,PA00080894,Q22999271,,3,1953-03-05 ,,7.40016,7.40161,43.745437,43.744577
44.1880468,7.05585679,building,,PA00080748,Q22916190,Maison Gibert,3,1942-11-19 ,,7.05513179,7.05658179,44.188476800000004,44.1876168
43.658827,6.925891,city_gate,,PA00080741,Q22916188,Porte Neuve,3,1925-10-21 ,,6.925166,6.926616,43.659257000000004,43.658397
43.72274887,7.11254665,citywalls,,PA00080918,Q15953242,Remparts (vestiges des anciens),,,fr:Remparts de Vence,7.1118216499999996,7.11327165,43.72317887,43.722318869999995
43.745433,7.4007340000001,building,C16,PA00080895,Q22999273,,3,1953-03-05 ,,7.4000090000001,7.4014590000001,43.745863,43.745003
43.69770373,7.12149898,city_gate,,PA00080846,Q22916210,Porte de la ville,3,1926-05-15 ,,7.12077398,7.12222398,43.69813373,43.69727373
43.696383,7.275092,castle,palace,PA00132718,Q3361109,"Palais de la Préfecture, ancien palais des rois de Sardaigne",,,fr:Palais des ducs de Savoie,7.274367,7.275817,43.696813,43.695952999999996
43.766654,7.487977,,C18,PA00080767,Q3360841,Propriété dite Le Palais Carnoles,3,1969-09-12 ,fr:Palais Carnolès,7.487252,7.488702,43.767084000000004,43.766224
43.60661153,7.06692164,,,PA06000042,Q15948713,Domaine des Trois Moulins de la Valmasque,,,fr:Domaine des Trois Moulins de la Valmasque,7.06619664,7.06764664,43.607041530000004,43.60618153
43.74560754,7.28825228,castle,C18,PA00080830,Q15944482,,,,fr:Château de Saint-André (Alpes-Maritimes),7.28752728,7.28897728,43.74603754,43.74517754
43.87629023,7.44743946,,,PA00080863,Q15714091,Chateau (ancien),3,1933-06-06 ,fr:Château de Sospel,7.44671446,7.44816446,43.876720230000004,43.87586023
43.718823,7.278099,,,PA00080803,Q3558109,Mur présumé ligure (vieux),3,1929-03-28 ,fr:Vieux mur ligure,7.277374,7.278824,43.719253,43.718393
43.70383003,7.32792833,archaeological_site,roman_villa,PA00080663,Q32228632,"Villa de May, actuellement musée d'Histoire et d'Archéologie",3,1980-01-25 ,fr:Villa de May (Beaulieu-sur-Mer),7.32720333,7.32865333,43.70426003,43.70340003
43.8104,7.2207,,C19,PA06000021,Q2310539,"Section des vallons de la Garde et de Costa Rasta, section représentative du canal de la Vésubie",3,2001-11-28 ,fr:Canal de la Vésubie,7.219975,7.221425,43.81083,43.80997
43.75229638,7.480652,monastery,monastery,PA00080822,Q15952772,Monastère Saint-Martin (ruines de l'ancien),3,1970-08-04 ,fr:Monastère Saint-Martin,7.479927,7.481377,43.75272638,43.751866379999996
43.877075,7.448884,castle,palace,PA00080875,Q22999255,Palais de la Gabelle (ancien),3,1949-12-10 ,,7.4481589999999995,7.449609,43.877505,43.876644999999996
44.08389,7.59194,place_of_worship,christian,PA00080880,Q2983911,Cathédrale (ancienne),2,1949-03-03 ,fr:Collégiale Notre-Dame-de-l'Assomption de Tende,7.591215,7.592665,44.08432,44.083459999999995
43.687703,7.234733,,,PA00125705,Q3360981,"Ancienne villa les Palmiers, actuellement Archives municipales, et son parc, actuellement parc des Grands Cèdres",3,1993-06-23 ,fr:Palais de Marbre (Nice),7.234008,7.235458,43.688133,43.687273
43.70598624,7.31123093,citywalls,C13,PA00080923,Q22999286,Remparts (vestige dit Le Bastionnet),3,1959-10-07 ,,7.31050593,7.31195593,43.70641624,43.70555624
43.5805036,7.121678,building,C17,PA00080657,Q22916166,Immeuble dit Porte de France,3,1928-03-31 ,,7.120953,7.122403,43.5809336,43.5800736
43.94604889,7.18423342,building,,PA00080885,Q22999261,,3,1927-05-02 ,,7.18350842,7.18495842,43.94647889,43.94561889
43.69073,7.294788,,,PA00080796,Q1547643,Grotte préhistorique du Lazaret,2,1963-03-21 ,fr:Grotte du Lazaret,7.2940629999999995,7.295513,43.69116,43.6903
43.6996977695,7.3094701766968,,C17,PA00080960,Q3016578,Port de la Darse (bâtiments et éléments d'infrastructure),3,1991-02-11 ,fr:Darse de Villefranche-sur-Mer,7.3087451766968,7.3101951766968005,43.7001277695,43.6992677695
43.6935002,7.3288951,building,C20,PA06000016,Q13518776,maison dite Villa La Ligne Droite,2,2001-12-10 ,fr:Villa La Ligne Droite,7.3281701,7.3296201000000005,43.693930200000004,43.6930702
43.7643,7.4698,,,PA00080821,Q3117247,Grotte du Vallonet,2,2004-04-28 ,fr:Grotte du Vallonnet,7.469075,7.470525,43.76473,43.76387
43.5812186,7.1282279,place_of_worship,christian,PA00080653,,"Église paroissiale, chapelle Saint-Esprit et tour Grimaldi",2,1945-10-16 ,fr:Cathédrale Notre-Dame-de-la-Platea d'Antibes,7.1275029,7.1289529,43.5816486,43.5807886
43.99026877,7.54706194,,C18,PA00080857,Q22999239,Plaques commémoratives inscrites dans le roc et les parois rocheuses,2,1947-09-15 ,fr:Route Royale Nice-Turin,7.54633694,7.54778694,43.99069877,43.98983877
43.87706953,7.44728356,,C13,PA00080870,Q15953013,Immeubles et place Saint-Michel,3,1947-03-18 ,fr:Place Saint-Michel (Sospel),7.44655856,7.44800856,43.87749953,43.87663953
43.760323972541,7.4579787254333,,C20,PA00132719,Q1809766,Site corbuséen du Cap Martin,,,fr:Site corbuséen du Cap Martin,7.4572537254333,7.4587037254333,43.760753972541,43.759893972541
43.7262982,7.1338531,,C20,PA06000017,Q273463,Ecole Freinet,3,2001-11-06 ,fr:École Freinet,7.1331280999999995,7.1345781,43.726728200000004,43.7258682
43.657913,6.923616,yes,C17,PA00080728,Q22916169,Chapelle Saint-Thomas,3,1931-04-17 ,,6.922891,6.924341,43.658343,43.657483
43.944231,7.513868,tower,bell_tower,PA00080674,Q13516856,Clocher Saint-Jean,3,1935-10-18 ,fr:Clocher Saint-Jean de Breil-sur-Roya,7.513143,7.5145930000000005,43.944661,43.943801
43.776755,7.5032893,building,C20,PA00080937,Q15952611,,3,1990-04-03 ,fr:Maison de la rue Loredan-Larchey,7.5025642999999995,7.5040143,43.777185,43.776325
43.87834067,7.44936532,building,C16,PA00080874,Q22999253,Maisons à arcades,3,1949-12-10 ,,7.44864032,7.45009032,43.87877067,43.87791067
43.700485,7.278842,citywalls,,PA06000038,Q15948841,Fortifications de la porte Pairolière,2,2012-03-13 ,fr:Fortifications de la porte Pairolière,7.278117,7.279567,43.700915,43.700055
43.8503056,7.16119444,castle,C13,PA00080724,Q15944477,Château (ruines),3,1933-06-28 ,fr:Château de Gilette,7.16046944,7.16191944,43.8507356,43.8498756
43.744421,7.422912,,C19,PA00080928,Q13518172,Riviera Palace,3,1989-12-14 ,fr:Riviera Palace (Beausoleil),7.422187,7.423637,43.744851000000004,43.743991
43.725833,7.300833,,,PA00080971,Q508362,Observatoire d'astronomie du Montgros,,,fr:Observatoire de Nice,7.300108,7.301558,43.726263,43.725403
43.722778,7.113889,,C11,PA00080910,Q912245,Ancienne cathédrale de la Nativité-de-Notre-Dame,2,1944-01-03 ,fr:Cathédrale de la Nativité-de-Marie de Vence,7.113164,7.114614,43.723208,43.722348
43.8164444,7.21755556,,,PA06000020,Q2310539,"Siphon de Saint-Blaise, ouvrage technique remarquable du canal de la Vésubie",,,fr:Canal de la Vésubie,7.21683056,7.21828056,43.8168744,43.8160144
43.698395,7.285116,,C19,PA00080957,Q3580416,Ensemble concerté constitué au fond du port Lympia,3,1991-02-11 ,fr:Port Lympia,7.284391,7.2858410000000005,43.698825,43.697964999999996
43.937056,7.517347,city_gate,,PA00080677,Q15953109,Porte d'Italie,3,1986-10-21 ,fr:Porte de Gênes (Breil-sur-Roya),7.516622,7.518072,43.937486,43.936626
43.69582182,7.12251082,,C15,PA00080843,Q22916209,Arceau avec fenêtre du 15s dit Le Pontail,3,1932-10-21 ,,7.1217858199999995,7.12323582,43.69625182,43.69539182
43.65975,7.12394444,,,PA00080925,Q2971010,Chateau de Villeneuve et son parc,3,1986-12-30 ,fr:Château de Villeneuve-Loubet,7.12321944,7.12466944,43.660180000000004,43.65932
43.719906,7.279078,monastery,monastery,PA00080802,Q3320265,Monastère franciscain de Cimiez,,,fr:Monastère de Cimiez,7.278353,7.279803,43.720336,43.719476
43.746344,7.422445,,,PA00080665,Q13518437,Camp ligure sis au Mont des Mules,2,1939-01-28 ,fr:Camp ligure du Mont des Mules,7.42172,7.42317,43.746774,43.745914
43.7016944,7.31094444,,C16,PA00080920,Q2974372,Citadelle (ancienne),2,1968-03-11 ,fr:Citadelle Saint-Elme,7.31021944,7.31166944,43.7021244,43.7012644
43.632194,6.8033611,archaeological_site,megalith,PA00080833,Q3034022,Dolmen de Lou Serre Dinguille,2,1889 ,fr:Dolmen de Lou Serre Dinguille,6.8026361,6.8040861,43.632624,43.631764
43.721846626727,7.1038815379143,wayside_cross,C17,PA00080951,Q22999292,Calvaire,3,1989-12-14 ,,7.1031565379143,7.1046065379143,43.722276626727,43.721416626727
43.7448,7.40181,yes,C1,PA00080897,Q747588,"Ruines du Trophée d'Auguste, actuellement Musée du Trophée d'Auguste",2,1865-05-13 ,fr:Trophée des Alpes,7.401085,7.402535,43.74523,43.744369999999996
43.6596689,6.9257655,building,C14,PA00080739,Q22916185,Maison Tournaire,3,1932-10-21 ,,6.9250405,6.9264905,43.6600989,43.6592389
43.8781,7.4507,building,C15,PA00080871,Q22999244,,3,1931-01-12 ,,7.449975,7.451425,43.878530000000005,43.87767
43.674493,6.945725,archaeological_site,roman_villa,PA00125703,Q22969133,"Villa d'Andon, située quartier Magagnosc",2,1995-10-12 ,,6.945,6.9464500000000005,43.674923,43.674063
43.719078,7.276725,,C1,PA00080808,Q3523863,"Thermes romains de Cimiez, dans le domaine de la villa Garin de Cacconata",,,fr:Thermes romains de Cimiez,7.276,7.27745,43.719508000000005,43.718648
43.7769389,7.5030586,building,C20,PA00080955,Q22999293,,3,1990-09-19 ,,7.5023336,7.5037836,43.7773689,43.776508899999996
43.7303151,7.3500359,archaeological_site,fortification,PA06000002,Q22995560,Oppidum du Castellar,3,1996-09-05 ,fr:Oppidum du Castellar,7.3493109,7.3507609,43.7307451,43.7298851
43.630282,6.953489,,C18,PA00080933,Q22999290,Domaine de Saint-Donat,3,1990-04-03 ,,6.952764,6.954214,43.630712,43.629852
43.678949,7.109736,castle,C16,PA00080711,Q15944481,Château de Montfort dit Le Gaudelet,3,1969-12-26 ,fr:Château de Montfort (La Colle-sur-Loup),7.109011,7.110461,43.679379000000004,43.678519
43.658028,6.924639,castle,palace,PA00080740,Q22916187,Palais épiscopal (ancien),2,1937-12-23 ,,6.923914,6.925364,43.658458,43.657598
43.7874667,7.5167003,,C20,PA00080761,Q22916194,Domaine des Colombières,2,1991-10-03 ,fr:Domaine des Colombières (Menton),7.5159753,7.5174253,43.787896700000005,43.7870367
43.7769699,7.5071356,place_of_worship,christian,PA00080762,,"Église Saint-Michel, chapelle de la Conception et leurs abords",,,fr:Basilique Saint-Michel-Archange,7.5064106,7.5078606,43.7773999,43.776539899999996
43.704138,7.312234,building,C13,PA00080922,Q3449335,,3,1932-10-04 ,fr:Rue Obscure de Villefranche-sur-Mer,7.311509,7.312959,43.704568,43.703708
43.60567384,7.06765783,,C1,PA00080649,Q2859215,Aqueduc de Clausonnes (restes) (également sur commune de Valbonne),3,1936-07-25 ,fr:Aqueduc de Clausonnes,7.06693283,7.06838283,43.60610384,43.60524384
43.6574625,6.9233405,,C20,PA06000032,Q22995569,Monument à Léon Chiris,3,2009-07-23 ,,6.9226155,6.9240655,43.6578925,43.6570325
43.7767278,7.5045365,,C20,PA00080956,Q14627572,Ancienne villa les Mouettes,3,1990-09-19 ,fr:Villa Les Mouettes,7.5038115,7.5052615000000005,43.777157800000005,43.7762978
43.9201389,7.26388889,,C19,PA06000022,Q2310539,"Prise d'eau de Saint-Jean-la-Rivière, ouvrage de tête du canal de la Vésubie",3,2001-11-28 ,fr:Canal de la Vésubie,7.2631638899999995,7.26461389,43.9205689,43.919708899999996
43.8835,7.3613,building,C13,PA00080758,Q22916193,,3,1932-10-21 ,,7.360575,7.362025,43.88393,43.88307
43.685655,7.1031027,monastery,abbey,PA00080710,Q13516817,Abbaye du Canadel,3,1927-01-24 ,fr:Abbaye du Canadel,7.1023777,7.1038277,43.686085,43.685224999999996
44.093973,6.990612,yes,C18,PA00080666,Q15945298,Chapelle des Pénitents Blancs,3,1984-12-06 ,fr:Chapelle des Pénitents blancs de Beuil,6.9898869999999995,6.991337,44.094403,44.093543
43.692849,7.0053276,castle,C17,PA00080965,Q15944485,Château du Rouret,,,fr:Château du Rouret,7.0046026,7.0060526,43.693279000000004,43.692419
43.8594444,7.22566667,citywalls,,PA00080752,Q13516879,Rempart,3,1942-07-04 ,fr:Rempart de Levens,7.22494167,7.22639167,43.8598744,43.8590144
43.696832,7.273641,,C18,PA00080778,Q13517189,Caserne Rusca (ancienne),3,1976-04-27 ,fr:Caserne Rusca (Nice),7.2729159999999995,7.274366,43.697262,43.696402
43.5681,7.0616,lighthouse,yes,PA06000044,Q13518338,Phare de Vallauris,3,2012-09-19 ,fr:Phare de Vallauris,7.060875,7.062325,43.56853,43.56767
43.5801091,7.1274152,,,PA00080654,Q15948785,Enceinte gréco-romaine (restes),3,1939-02-16 ,fr:Enceinte gréco-romaine d'Antibes,7.1266902,7.1281402,43.5805391,43.5796791
43.7454,7.4007,building,C13,PA00080896,Q22999275,,3,1928-02-03 ,,7.3999749999999995,7.401425,43.74583,43.744969999999995
43.689794,7.229538,,C20,PA00132715,Q13518764,"Demeure dite abbaye de Roseland, quartier de Fabron",2,1996-09-03 ,fr:Abbaye de Roseland,7.228813,7.230263,43.690224,43.689364
43.70016024,7.11910334,yes,C17,PA00125707,Q13518213,Chapelle Notre-Dame de la Gardette ou Saint-Georges,3,1993-06-10 ,fr:Chapelle Notre-Dame de la Gardette,7.11837834,7.11982834,43.700590240000004,43.69973024
43.5511797,7.0458551,,C20,PA00080931,Q13518185,Parc et jardins de Champfleuri,3,1990-04-03 ,fr:Villa Champfleuri,7.0451301,7.0465801,43.5516097,43.5507497
43.87819786,7.45007111,building,C18,PA00080872,Q22999247,Maison Gallis,3,1949-12-10 ,,7.44934611,7.45079611,43.87862786,43.87776786
44.0937448,7.0517124,castle,C12,PA00080827,Q15944484,Château (restes),3,1941-12-22 ,fr:Château de Roubion,7.0509874,7.0524374000000005,44.094174800000005,44.0933148
43.6671389,7.14547222,castle,C14,PA00080687,Q2241293,Château Grimaldi ou château de Cagnes,,,fr:Château Grimaldi,7.14474722,7.14619722,43.6675689,43.666708899999996
43.98489129,7.55508545,,C17,PA00080855,Q15952778,Ancien couvent des Franciscains,2,1917-04-14 ,fr:Monastère de Saorge,7.55436045,7.55581045,43.98532129,43.98446129
44.6356,4.3127,,C17,PA07000008,Q2970054,Ancienne maison forte de Montseveny dite château de Montseveny,3,2001-08-02 ,fr:Château de Montseveny,4.311975,4.3134250000000005,44.63603,44.635169999999995
44.8007,4.206,farm,C17,PA00116767,Q3068843,Ferme dite La Grangeasse,3,1987-09-22 ,fr:Ferme La Grangeasse,4.205275,4.2067250000000005,44.80113,44.80027
44.4115,4.1682,castle,C16,PA07000014,Q2968882,Château de Chassagnes,3,2007-12-17 ,fr:Château de Chassagnes,4.167475,4.168925,44.41193,44.411069999999995
44.37230556,4.646666667,building,,PA00116668,Q22966747,Hôtel de Digoine,3,1946-11-23 ,,4.645941667,4.647391667,44.37273556,44.37187556
44.5878,4.7015,yes,C16,PA00116756,Q2956626,Chapelle Notre-Dame-des-Anges,3,1971-10-27 ,fr:Chapelle Notre-Dame-des-Anges de Rochemaure,4.700775,4.702225,44.58823,44.58737
44.4797,4.2397,,C17,PA00116714,Q2983820,Collège des Oratoriens (ancien),3,1988-04-19 ,fr:Collège des Oratoriens de Joyeuse,4.238975,4.240425,44.48013,44.47927
44.6745,4.2692,castle,C16,PA00116730,Q2969393,Château de Hautségur,3,1937-01-13 ,fr:Château de Hautségur,4.268475,4.269925,44.67493,44.67407
44.7903,4.2256,farm,C15,PA00116766,Q2364130,Ferme dite Ferme-Auberge,2,1986-02-18 ,fr:Ferme-auberge de Sagnes-et-Goudoulet,4.224875,4.226325,44.79073,44.78987
44.5233,4.2022,castle,,PA00116813,Q2970955,Château de Versas,3,1927-05-31 ,fr:Château de Versas,4.201475,4.2029250000000005,44.52373,44.52287
44.71,3.8724,,,PA00116725,Q2992100,Village de Concoules (ancien),3,1982-11-04 ,fr:Concoules (Lespéron),3.8716749999999998,3.873125,44.71043,44.70957
44.480263815973,4.6643829345703,yes,C12,PA00116858,Q2956949,Chapelle Saint-Ostian,2,1983-03-21 ,fr:Chapelle Saint-Ostian de Viviers,4.6636579345703,4.6651079345703,44.480693815973,44.479833815972995
44.4821,4.6916,monastery,convent,PA00116859,Q3001621,Couvent Saint-Roch,3,1985-09-19 ,fr:Couvent Saint-Roch de Viviers,4.690875,4.692325,44.482530000000004,44.48167
45.0688,4.8353,,C19,PA00116837,Q2055975,"Passerelle Seguin sur le Rhône (également sur commune de Tain-l'Hermitage, dans la Drôme)",3,1985-12-30 ,fr:Passerelle Marc Seguin,4.834575,4.836025,45.069230000000005,45.06837
44.36402778,4.58375,archaeological_site,megalith,PA00116663,Q22966742,Dolmen,2,1900 ,,4.583025,4.584475,44.36445778,44.36359778
44.4693,4.2809,building,C20,PA07000017,Q3279039,"Maison Unal, au hameau de Chapias",3,2010-04-22 ,fr:Maison Unal,4.280175,4.281625,44.46973,44.468869999999995
44.48210851,4.69010716,building,,PA00116864,Q3149056,"Immeuble dit Lacombe, à la base du clocher de la cathédrale",2,1920-12-20 ,fr:Maison de Sampzon,4.68938216,4.69083216,44.482538510000005,44.48167851
44.8231,4.1777,farm,,PA00116782,Q3068853,ferme Rudel,3,1984-12-06 ,fr:Ferme Rudel,4.176975,4.178425,44.82353,44.822669999999995
44.3732,4.646,building,C17,PA00116666,Q22966744,Hôtel Balzagette du Charneve,3,1946-06-13 ,,4.645275,4.646725,44.37363,44.372769999999996
44.5012,4.6234,castle,C18,PA07000011,Q2970583,,3,2006-04-12 ,fr:Château de Saint-Thomé,4.622675,4.624125,44.50163,44.500769999999996
44.4877,4.024,farm,C17,PA00116737,Q3068901,Ferme dite de l'Espinas,2,1988-10-24 ,fr:Ferme de l'Espinas,4.023275,4.024725,44.48813,44.487269999999995
44.5572,4.5007,city_gate,,PA00116853,Q3399118,Porte dite de l'Hôpital,3,1941-07-05 ,fr:Porte de l'Hôpital,4.499975,4.501425,44.55763,44.55677
44.3939288,4.4116115,,,PA00135636,Q2403244,Grotte du Déroc,,,fr:Grotte du Déroc,4.4108865,4.4123365,44.3943588,44.393498799999996
44.7156,4.5582,castle,C17,PA00116802,Q22966762,Château d'Entrevaux,3,1970-04-28 ,fr:Château d'Entrevaux (Ardèche),4.557475,4.558925,44.71603,44.71517
44.48300838,4.68931811,building,,PA00125736,Q3278905,Maison Mompar,3,1993-01-04 ,fr:Maison de Lestrade,4.68859311,4.69004311,44.48343838,44.48257838
44.3513,4.3649,milestone,C,PA00116840,Q2911172,Borne milliaire romaine,3,1974-09-03 ,fr:Borne milliaire de Vagnas,4.3641749999999995,4.365625,44.35173,44.35087
44.8963,4.6449,building,C19,PA00116846,Q3149046,Immeuble Cornu,3,1967-10-03 ,fr:Immeuble Cornu,4.644175,4.645625,44.89673,44.895869999999995
45.2108,4.7033,bridge,C19,PA00116844,Q3397070,Pont suspendu sur la Cance dit Pont du Moulin (ancien) (également sur commune de Quintenas),2,1981-04-06 ,fr:Pont de Moulin sur Cance,4.7025749999999995,4.704025,45.21123,45.21037
44.551,4.281,castle,C13,PA00116719,Q2970759,Château de Tauriers,3,1926-09-28 ,fr:Château de Tauriers,4.280275,4.281725,44.55143,44.55057
44.7677,4.7498,monastery,abbey,PA00116745,Q2820432,Abbaye de Rompon (restes),3,1927-05-31 ,fr:Abbaye Saint-Pierre de Rompon,4.7490749999999995,4.750525,44.76813,44.767269999999996
44.36991667,4.641222222,,,PA00116653,Q22966730,Bas-relief mithriaque,2,1927-02-03 ,,4.640497222,4.641947222,44.37034667,44.36948667
44.3942,4.376,,,PA00116811,Q3485443,Site médiéval,3,1981-05-14 ,fr:Site médiéval de Salavas,4.375275,4.376725,44.39463,44.393769999999996
44.5565,4.5027,,C18,PA00116848,Q3100388,Gendarmerie,,,fr:Gendarmerie de Villeneuve-de-Berg,4.501975,4.503425,44.55693,44.55607
44.3713,4.6468,catholic,C12,PA00116677,Q22966755,,,,,4.646075,4.647525,44.37173,44.37087
44.483610841174,4.6883404254913,building,C14,PA00116865,Q3279839,maison des Chevaliers,2,1984-07-16 ,fr:Maison des Chevaliers (Viviers),4.6876154254913,4.6890654254913,44.484040841174,44.483180841174
44.86,4.6031,castle,C16,PA00116820,Q2406585,Château de Hautvillars,3,1952-04-17 ,fr:Château de Hautvillars,4.602375,4.6038250000000005,44.86043,44.85957
44.48044486,4.69090322,place_of_worship,christian,PA00132970,Q3580418,Église paléochrétienne,2,1994-02-21 ,,4.69017822,4.69162822,44.48087486,44.48001486
44.37166667,4.646805556,building,C15,PA00116671,Q22966749,Hôtel Nicolai,3,1926-07-09 ,,4.646080556,4.647530556,44.372096670000005,44.37123667
44.48105742,4.69156832,yes,C18,PA00116857,Q2957378,"Chapelle des Dominicains, dite aussi chapelle Notre-Dame-du-Rhône",2,1967-11-21 ,fr:Chapelle des Dominicains de Viviers,4.69084332,4.69229332,44.48148742,44.48062742
44.4806962,4.69084208,building,C18,PA00116862,Q3145954,Hôtel de Roqueplane,2,1947-04-14 ,fr:Hôtel de Roqueplane,4.69011708,4.6915670800000004,44.4811262,44.480266199999996
44.9058,4.6164,castle,C15,PA00116845,Q2970926,Château de Vaussèche,,,fr:Château de Vaussèche,4.6156749999999995,4.617125,44.90623,44.90537
44.3404,4.447,,,PA00135633,Q3117191,Grotte dite de la Combe d'Oulen,3,1995-08-25 ,fr:Grotte de la Combe d'Oulen,4.446275,4.447725,44.340830000000004,44.33997
44.5675,4.6872,,,PA00116871,Q2969441,Domaine de Joviac,,,fr:Château de Joviac,4.686475,4.687925,44.567930000000004,44.56707
44.4793,4.239,building,C18,PA00116716,Q3145920,Hôtel de Montrevel,3,1988-04-19 ,fr:Hôtel de Montravel,4.238275,4.239725,44.47973,44.47887
44.801,4.2011,farm,C18,PA00116768,Q3068844,Ferme dite la Petite Grangeasse,3,1987-09-22 ,fr:Ferme La Petite Grangeasse,4.200375,4.201825,44.80143,44.80057
45.0675963,4.8336325,building,,PA00116833,Q22966765,Maison Louis XV,3,1927-05-31 ,,4.8329075,4.8343575,45.0680263,45.0671663
44.5571,4.5018,building,,PA00116852,Q22966768,Maison ancienne,3,1941-12-08 ,,4.501075,4.502525,44.55753,44.55667
44.581,4.4995,,C16,PA07000005,Q2971796,"Domaine du Pradel, ancien domaine d'Olivier de Serres",3,1997-04-16 ,fr:Château du Pradel,4.498775,4.500225,44.581430000000005,44.58057
44.481381426073,4.6978139877319,bridge,,PA00116866,Q3397584,Pont romain franchissant l'Escoutay,2,1986-08-13 ,fr:Pont romain de Viviers,4.6970889877319,4.6985389877319,44.481811426073,44.480951426073
44.620581904687,4.3903255462646,building,C16,PA00116635,Q18215225,,3,1927-04-12 ,fr:Maison Delichères,4.3896005462645995,4.3910505462646,44.621011904687,44.620151904687
44.5292,4.2929,castle,C16,PA07000007,Q2970049,Château dit de Montréal et tour dite de Joyeuse,3,2000-12-28 ,fr:Château de Montréal (Ardèche),4.292175,4.2936250000000005,44.529630000000004,44.52877
45.2711,4.6676,building,C16,PA00116652,Q22966729,Maison du 16e siècle,3,1978-09-07 ,,4.666875,4.668325,45.27153,45.270669999999996
44.556653,4.50157,building,C16,PA00116849,Q3145738,Hôtel de Barruel,3,1981-04-10 ,fr:Hôtel de Barruel,4.500845,4.502295,44.557083,44.556222999999996
44.4538,4.3412,yes,,PA00116761,Q2956663,Chapelle des Pommiers,2,1908-05-07 ,,4.340475,4.341925,44.45423,44.45337
44.3485,4.4816,,,PA00116803,Q3034169,Groupe de dolmens de la forêt de Malbosc,2,1889-12-27 ,fr:Dolmens de la forêt de Malbosc,4.480875,4.482325,44.34893,44.34807
44.7207,4.578,,C19,PA00135634,Q3314927,Anciennes mines de fer,3,1995-07-17 ,fr:Mines de fer de Saint-Priest,4.577275,4.578725,44.72113,44.72027
44.7844,4.5862,building,C16,PA00116747,Q3279524,Maison de Pierre et Marie Durand,2,1969-09-23 ,fr:Maison de Pierre et Marie Durand,4.585475,4.586925,44.78483,44.78397
44.5556,4.598,milestone,C,PA00116823,Q2911162,Borne milliaire de Mélas,2,1932-08-10 ,fr:Borne milliaire de Mélas,4.597275,4.598725,44.55603,44.55517
44.306,4.5712,building,C18,PA00116795,Q3279465,Maison dite de Max Ernst,3,1991-11-19 ,fr:Maison de Max Ernst,4.570475,4.571925,44.30643,44.305569999999996
44.3246,4.5804,yes,C11,PA00116793,Q2956987,Chapelle Saint-Sulpice,2,1932-08-06 ,fr:Chapelle Saint-Sulpice de Saint-Marcel-d'Ardèche,4.579675,4.581125,44.32503,44.324169999999995
44.4802,4.6914,,C18,PA00116860,Q3361236,Evêché (ancien),2,1989-06-12 ,fr:Palais épiscopal de Viviers,4.690675,4.692125,44.480630000000005,44.47977
44.3712,4.6458,building,C16,PA00116675,Q22966754,,3,1927-04-12 ,,4.645075,4.6465250000000005,44.37163,44.37077
44.2986,4.5833,castle,C16,PA00116794,Q2971623,Château du Bosquet,3,2003-09-02 ,fr:Château du Bosquet,4.582575,4.5840250000000005,44.29903,44.29817
45.2758,4.6994,castle,C18,PA00116779,Q2969335,Château de Gourdan,3,1967-08-30 ,fr:Château de Gourdan,4.698675,4.700125,45.27623,45.275369999999995
44.372371,4.647018,,C16,PA00116676,Q3361159,Ancien Palais des Evêques,2,1946-09-16 ,fr:Palais des évêques de Bourg-Saint-Andéol,4.646293,4.647743,44.372801,44.371941
44.372,4.646694444,building,C18,PA00116670,Q15950617,Hôtel de Gabriac,3,1947-09-15 ,fr:Hôtel de Gabriac,4.645969444,4.6474194440000005,44.37243,44.37157
44.36952778,4.578166667,archaeological_site,megalith,PA00116662,Q891063,Dolmen,2,1900 ,,4.5774416669999995,4.578891667,44.36995778,44.36909778
44.6023,4.4273,archaeological_site,fortification,PA00116723,Q3354369,Oppidum de Jastres-Sud,3,1986-07-31 ,fr:Oppidum de Jastres-Sud,4.426575,4.428025,44.60273,44.60187
44.8778,4.5742,city_gate,,PA00116680,Q3399150,Porte de ville (ancienne),3,1927-05-31 ,fr:Porte de ville de Chalencon,4.573475,4.574925,44.87823,44.87737
44.5152,4.6895,,C19,PA00135641,Q3552651,"Usine de chaux - cimenterie Lafarge, chapelle Saint-Victor de la cité Blanche",3,1995-09-25 ,,4.688775,4.690225,44.51563,44.51477
44.556884904214,4.5010323822498,building,C16,PA00116851,Q3279208,Maison d'Olivier de Serres,2,1927-10-10 ,fr:Maison d'Olivier de Serres,4.5003073822498,4.5017573822498,44.557314904214,44.556454904214
44.3752,4.2001,,C12,PA00116646,Q2985862,Commanderie de Jalès (ancienne),3,1981-12-23 ,fr:Commanderie de Jalès,4.199375,4.200825,44.37563,44.37477
44.482540732564,4.6893315017223,building,C18,PA00116861,Q3145836,Hôtel de Fontanes dit de Beaulieu,3,1986-08-01 ,fr:Hôtel de Fontanès,4.6886065017223,4.6900565017223,44.482970732564,44.482110732563996
44.509,4.3727,castle,,PA00116641,Q2968410,,3,1927-05-31 ,fr:Château de Balazuc,4.371975,4.373425,44.50943,44.50857
44.8276,4.677,bridge,C19,PA00116785,Q3397599,Pont suspendu sur l'Eyrieux (ancien),2,1982-05-07 ,fr:Pont sur l'Eyrieux,4.6762749999999995,4.677725,44.82803,44.827169999999995
44.3705,4.645611111,building,C18,PA00116667,Q22966745,Hôtel Bonnot de Villeurain,3,1961-10-10 ,,4.644886111,4.646336111,44.37093,44.37007
44.557408,4.5020559,building,C18,PA00116850,Q3146301,Hôtel du Sénéchal,,,fr:Hôtel du Sénéchal,4.5013309,4.5027809,44.557838000000004,44.556978
44.8335,4.1727,farm,C18,PA00116780,Q3068827,Ferme dite Andeol,3,1985-10-07 ,fr:Ferme Andeol,4.171975,4.173425,44.83393,44.83307
44.4821,4.6893,building,C18,PA00116863,Q3145988,Hôtel de Tourville,3,1953-04-24 ,fr:Hôtel de Tourville,4.688575,4.690025,44.482530000000004,44.48167
44.4795,4.24,castle,C16,PA00116713,Q2969442,,3,1988-04-19 ,fr:Château de Joyeuse,4.239275,4.240725,44.47993,44.47907
44.7925,4.2364,farm,,PA00116769,Q3068850,Ferme dite Peyronnet,3,1985-10-07 ,fr:Ferme Peyronnet,4.235675,4.237125,44.79293,44.792069999999995
44.657,4.7627,,,PA00116699,Q2911198,Deux bornes milliaires gallo-romaines,2,1903-09-26 ,fr:Bornes milliaires de Cruas,4.761975,4.763425,44.65743,44.656569999999995
44.5432,4.2916,castle,C13,PA00116718,Q2969655,Château (ancien),3,1927-05-31 ,fr:Château de Largentière,4.290875,4.292325,44.54363,44.54277
44.5424,4.1906,bridge,,PA00116814,Q22966764,Pont du Gua sur la Baume (également sur commune de Beaumont),2,1984-12-05 ,fr:Pont du Gua,4.189875,4.191325,44.54283,44.54197
44.8263,4.764,castle,C16,PA00116792,Q2971629,Château du Bousquet,3,1975-02-18 ,fr:Château du Bousquet (Ardèche),4.763275,4.764725,44.826730000000005,44.82587
44.6329,4.2923,,C19,PA07000018,Q3314839,Mine de Champgontier,3,2010-12-07 ,fr:Mine de Champgontier,4.291575,4.293025,44.63333,44.63247
44.4533,4.1528,yes,C19,PA00116739,Q2957448,Chapelle funéraire,3,1982-04-30 ,fr:Chapelle du Calvaire de Payzac,4.152075,4.153525,44.45373,44.45287
44.5004,4.6263,yes,C13,PA00116808,Q2957004,Chapelle Saint-Sébastien (ancienne),3,1974-06-28 ,fr:Chapelle Saint-Sébastien de Saint-Thomé,4.6255749999999995,4.627025,44.50083,44.49997
44.313953608354,4.2158854007721,wayside_cross,C16,PA00116774,Q3003520,Croix de cimetière,2,1910-11-19 ,,4.2151604007721,4.2166104007721,44.314383608354,44.313523608354
44.7123,4.2079,,,PA00116734,Q2985941,Commanderie de l'Hôpital (ancienne),3,1963-07-19 ,fr:Commanderie de l'Hôpital,4.207175,4.2086250000000005,44.71273,44.71187
44.5675,4.6872,,C16,PA00116758,Q2969441,Domaine de Joviac (également sur commune de Le Teil),,,fr:Château de Joviac,4.686475,4.687925,44.567930000000004,44.56707
44.4964,4.206,building,C14,PA00116754,Q22966760,,3,1980-12-24 ,,4.205275,4.2067250000000005,44.49683,44.49597
44.371278,4.645537,building,C18,PA00116673,Q22966751,,3,1946-02-19 ,,4.644812,4.646262,44.371708,44.370847999999995
44.8739,4.6547,castle,C14,PA07000002,Q2969593,Château de la Tourrette,3,1996-11-07 ,fr:Château de La Tourette,4.653975,4.655425,44.87433,44.87347
44.4288,4.2924,archaeological_site,megalith,PA00116771,Q1235875,Dolmen du Calvaire,2,1889 ,fr:Dolmen du Calvaire,4.291675,4.293125,44.429230000000004,44.42837
44.6766,4.2215,building,,PA00116826,Q3149055,Immeuble dit Jardet,3,1988-04-19 ,fr:Immeuble Jardet,4.220775,4.222225,44.67703,44.67617
44.5,4.6276,,,PA00116809,Q2961512,Vieux château dit Chatelas (vestiges),3,1927-08-27 ,fr:Chatelas de Saint-Thomé,4.626875,4.628325,44.50043,44.49957
44.918213752632,4.8302882909775,,,PA00116827,Q3328021,Murailles romaines (ruines),3,1933-06-06 ,,4.8295632909775,4.8310132909775,44.918643752632,44.917783752632
44.6569,4.7627,,,PA00116702,Q22966759,Terrain dit dégagement de l'église,2,1954-01-26 ,,4.761975,4.763425,44.65733,44.65647
44.7929,4.2468,farm,,PA00116741,Q3068851,Ferme dite Pra-Plot,3,1985-10-07 ,fr:Ferme Pra-Plot,4.246075,4.247525,44.793330000000005,44.79247
44.5416,4.2921,building,C16,PA00116721,Q3278605,Maison Bastide (annexe de la mairie),2,1928-06-08 ,fr:Maison Bastide,4.2913749999999995,4.292825,44.542030000000004,44.54117
45.0683,4.832,milestone,,PA00116628,Q2911145,Borne milliaire,3,1926-11-15 ,fr:Borne milliaire d'Arras-sur-Rhône,4.831275,4.832725,45.06873,45.06787
44.454,4.3401,building,C16,PA00116763,Q22966761,,3,1927-04-12 ,,4.3393749999999995,4.340825,44.45443,44.45357
45.2411111,4.6688888888889,monastery,convent,PA00116626,Q3001626,Couvent Sainte-Marie (ancien),3,1981-03-02 ,fr:Couvent Sainte-Marie d'Annonay,4.6681638888889,4.6696138888889,45.2415411,45.240681099999996
44.7439,4.243,monastery,C13,PA00116679,Q3402968,Prieuré de Belvezet (ancien),3,1981-02-23 ,fr:Prieuré de Belvezet,4.242275,4.243725,44.74433,44.743469999999995
44.7288,4.0887,monastery,abbey,PA00116728,Q1775650,Abbaye,2,1946-06-26 ,fr:Abbaye de Mazan,4.087975,4.089425,44.72923,44.72837
44.4256,4.2945,castle,C18,PA07000016,Q2968482,Château de Baumefort,3,2009-06-02 ,fr:Château de Beaumefort,4.293775,4.295225,44.426030000000004,44.42517
44.8099,4.189,farm,C15,PA00116781,Q3068869,ferme de Clastres,2,1984-05-30 ,fr:Ferme de Clastres,4.188275,4.189725,44.81033,44.80947
44.37230556,4.646666667,building,C18,PA00116669,Q22966748,Hôtel Doyse,,,,4.645941667,4.647391667,44.37273556,44.37187556
44.6654,4.289,milestone,,PA00116742,Q2911164,Borne milliaire,2,1932-07-11 ,fr:Borne milliaire de Pont-de-Labeaume,4.288275,4.289725,44.66583,44.66497
49.6036,4.7878,,C19,PA00078538,Q3128433,Ancien haut-fourneau,3,1972-03-23 ,fr:Haut-fourneau de Vendresse,4.787075,4.788525,49.60403,49.60317
49.7023,4.9475,,C16,PA00078517,Q2967807,"Château-Bas, à l'entrée de la citadelle",,,fr:Château-bas de Sedan,4.946775,4.948225,49.70273,49.70187
49.605,5.0767,building,C15,PA00078473,Q3280365,Maisons dites Maisons Espagnoles (quatre),3,1942-07-04 ,fr:Maisons espagnoles de Mouzon,5.075975,5.077425,49.60543,49.604569999999995
49.5387,5.0575,building,C15,PA00078344,Q22915431,Maison à arcades,3,1927-02-28 ,,5.056775,5.058225,49.53913,49.53827
49.7417,4.859,,C19,PA00078562,Q3077245,Ancienne usine,3,1991-10-18 ,fr:Forge de Vrigne-aux-Bois,4.858275,4.859725,49.74213,49.74127
49.5386,5.0576,building,C15,PA00078343,Q22915430,Maison à arcades,3,1927-02-28 ,,5.056875,5.058325,49.539030000000004,49.53817
49.5387,5.0575,building,C15,PA00078342,Q22915429,Maison à arcades,3,1927-02-28 ,,5.056775,5.058225,49.53913,49.53827
49.9252,4.5205,citywalls,C16,PA00078491,Q3078502,Fortifications (anciennes),,,fr:Fortifications de Rocroi,4.519775,4.521225,49.92563,49.924769999999995
49.5387,5.0575,building,C15,PA00078345,Q22915432,Maison à arcades,3,1927-02-28 ,,5.056775,5.058225,49.53913,49.53827
49.7051,4.9446,monastery,convent,PA00078519,Q3001680,"Couvent des Capucins Irlandais (ancien), puis hôpital militaire",2,1962-06-25 ,fr:Couvent des Capucins irlandais,4.943875,4.945325,49.70553,49.70467
50.01,4.7268,,C17,PA00078555,Q3128434,Haut-fourneau,2,1991-03-14 ,fr:Haut-fourneau d'Haybes,4.726075,4.727525,50.01043,50.00957
49.8483,4.4916,,,PA00078536,Q2911190,Bornes de Saint-Rémi (également sur commune de Chilly),2,1931-03-17 ,fr:Bornes de Saint-Rémi,4.490875,4.492325,49.84873,49.84787
49.634,5.1714,,C16,PA00078357,Q3078493,Anciennes fortifications,,,fr:Fortifications de Carignan,5.170675,5.172125,49.63443,49.63357
49.761997,4.714175,,C15,PA00078363,Q22893721,Enceinte (ancienne),3,1926-07-19 ,,4.71345,4.7149,49.762427,49.761567
49.9387,4.6306,,C20,PA08000015,Q15948419,"Cité ouvrière Biard, dite cité Paris-Campagne",3,2012-12-31 ,fr:Cité Paris-Campagne,4.629875,4.631325,49.93913,49.938269999999996
49.4864,4.9369,building,C17,PA00078508,Q3280229,Maison natale de Dom Mabillon,3,1927-02-28 ,fr:Maison natale de Dom Mabillon,4.9361749999999995,4.937625,49.486830000000005,49.48597
49.8527,4.464,,,PA00078427,Q2911190,Bornes de Saint-Rémi (également sur commune de Tremblois-les-Rocroi),2,1931-03-17 ,fr:Bornes de Saint-Rémi,4.463275,4.4647250000000005,49.85313,49.85227
49.7626,4.713,,C19,PA08000014,Q15953433,Ancienne usine métallurgique  La Macérienne ,,,fr:Usine La Macérienne,4.712275,4.713725,49.76303,49.76217
49.5808,5.1055,,,PA00078476,Q3066670,Temple antique du type «fanum»,2,1980-08-07 ,fr:Fanum de Mouzon,5.104775,5.106225,49.581230000000005,49.58037
49.6539,4.5388,,C18,PA00132580,Q3424007,Ancien relais de poste,3,1994-05-03 ,fr:Relais de poste à chevaux de Launois-sur-Vence,4.538075,4.539525,49.65433,49.65347
49.4764,4.5334,,,PA00078352,Q2967809,Château-ferme,3,1945-07-11 ,fr:Château-ferme de Brieulles-sur-Bar,4.532675,4.534125,49.47683,49.47597
49.3343,4.5951,,C20,PA00078525,Q3391823,Plate-forme d'artillerie,2,1922-09-12 ,fr:Plate-forme d'artillerie de Semide,4.594375,4.5958250000000005,49.33473,49.33387
49.759782,4.720092,citywalls,C18,PA00078418,Q22915515,Remparts (anciens),3,1948-09-27 ,,4.719367,4.720817,49.760212,49.759352
43.0883,1.1939,place_of_worship,christian,PA00093823,Q22936941,,3,1950-04-17 ,,1.1931749999999999,1.194625,43.08873,43.087869999999995
42.9311,1.8418,yes,C12,PA00093803,Q22936917,Chapelle du cimetière de Bensa,3,1950-04-17 ,,1.841075,1.8425250000000002,42.93153,42.93067
42.8637,1.2006,,C16,PA00132657,Q22969313,Maison-forte,3,1994-03-16 ,,1.1998749999999998,1.201325,42.86413,42.86327
43.0459,1.6278,building,C16,PA00093935,Q22937399,Maison en pans de bois,3,1944-10-18 ,,1.6270749999999998,1.628525,43.046330000000005,43.04547
43.0603,1.3373,archaeological_site,megalith,PA00093814,Q22936929,Dolmen de Bidot,2,1889 ,,1.3365749999999998,1.338025,43.06073,43.05987
43.0219,1.9662,building,C17,PA09000018,Q22976235,Immeuble dit maison haute,3,2007-02-16 ,,1.9654749999999999,1.966925,43.022330000000004,43.02147
43.0873,1.6194,yes,C12,PA00093908,Q22937205,Chapelle du cimetière,3,1986-11-07 ,,1.6186749999999999,1.620125,43.08773,43.08687
42.8446,1.2122,castle,,PA00135435,Q5118808,Château de Mirabat,,,,1.2114749999999999,1.212925,42.84503,42.84417
43.09981,1.87981,,,PA00093827,Q22936945,Ruines du château dit de Terride,2,1875 ,,1.879085,1.880535,43.10024,43.09938
43.0264,1.6955,building,C16,PA00093934,Q22937385,Maison en pans de bois,3,1944-10-18 ,,1.694775,1.696225,43.026830000000004,43.02597
42.7356,2.0874,castle,C11,PA00093902,Q2968350,Château d'Usson-les-Bains,,,,2.086675,2.0881250000000002,42.73603,42.73517
43.0109,1.1245,building,,PA09000021,Q22976239,Maison natale d'Aristide Bergès et ancienne papeterie de Prat du Ritou,,,,1.123775,1.1252250000000001,43.01133,43.01047
43.0222,1.9677,,C14,PA00093781,Q22936859,Ancien prieuré et remparts,,,,1.966975,1.968425,43.02263,43.02177
43.08825,1.87381,building,,PA00093830,Q22936948,Hôtel de ville,3,1929-06-25 ,,1.8730849999999999,1.874535,43.088680000000004,43.08782
43.0264,1.6955,,,PA00093811,Q15950310,Grotte ornée du Portel,2,1969-02-24 ,fr:Grotte du Portel,1.694775,1.696225,43.026830000000004,43.02597
42.8888,1.7928,wayside_cross,C17,PA00093887,Q22937143,Croix de carrefour en fer forgé,2,1979-06-08 ,,1.7920749999999999,1.793525,42.889230000000005,42.88837
43.1258,1.1744,marketplace,yes,PA00093904,Q22937183,Halle,3,1973-09-17 ,,1.173675,1.1751250000000002,43.12623,43.12537
42.8357,1.2029,castle,,PA09000003,Q22976216,Château de la Garde,,,,1.202175,1.2036250000000002,42.836130000000004,42.83527
42.8653,1.2014,castle,,PA00135439,Q5118808,Château de Mirabat (également sur communes d'Oust et d'Ustou),3,1995-12-11 ,fr:Château de Mirabat,1.200675,1.202125,42.86573,42.864869999999996
48.2991,4.0802,building,C16,PA00078269,Q18292638,Hôtel du Petit Louvre,3,1986-09-10 ,fr:Hôtel du Petit Louvre,4.0794749999999995,4.080925,48.299530000000004,48.29867
48.434778,4.455333,,,PA00078052,Q22915375,"Tronçons de voies romaines de Langres à Remps, et de Troyes à Naix",3,1982-08-05 ,fr:Tronçons de voies romaines de Langres à Remps et de Troyes à Naix,4.454608,4.4560580000000005,48.435208,48.434348
48.146933,4.785978,,C12,PA00078313,Q647070,Ancienne abbaye de Clairvaux,,,fr:Abbaye de Clairvaux,4.785253,4.786703,48.147363,48.146502999999996
47.9767,4.5005,tower,yes,PA00078168,Q3533666,Tour du Boulevard,3,1984-11-09 ,fr:Tour du Boulevard,4.499775,4.501225,47.97713,47.97627
48.321528,4.579833,,,PA00078127,Q22915383,Tronçons de voies romaines de Langres à Remps et de Troyes à Naix,3,1982-08-05 ,fr:Tronçons de voies romaines de Langres à Remps et de Troyes à Naix,4.579108,4.580558,48.321958,48.321098
48.434778,4.45533333,,,PA00078217,Q22915403,Tronçons de voies romaines de Langres à Remps et de Troyes à Naix,3,1982-08-05 ,fr:Tronçons de voies romaines de Langres à Remps et de Troyes à Naix,4.45460833,4.45605833,48.435208,48.434348
48.228096,4.30597,,C17,PA10000016,Q639245,Ancienne abbaye,3,2001-11-12 ,fr:Abbaye Saint-Pierre de Montiéramey,4.305245,4.306695,48.228526,48.227666
47.959832,4.020964,,,PA00078093,Q2956856,Autel et croix,3,1925-05-15 ,fr:Chapelle Saint-Jacques de Coussegrey,4.020239,4.021689,47.960262,47.959402
48.335944,4.567694,,,PA00078284,Q22915428,Tronçons de voies romaines de Langres à Remps et de Troyes à Naix,3,1982-08-05 ,fr:Tronçons de voies romaines de Langres à Remps et de Troyes à Naix,4.566969,4.5684190000000005,48.336374,48.335513999999996
48.585877,3.490557,,C12,PA00078160,Q2985852,Ancienne commanderie de templiers de Fresnoy,2,1994-01-04 ,fr:Commanderie de Fresnoy,3.489832,3.491282,48.586307000000005,48.585447
48.532024,3.687887,monastery,abbey,PA00078206,Q1259463,Abbaye de Sellières (ancienne),3,1988-08-26 ,fr:Abbaye de Sellières,3.687162,3.688612,48.532454,48.531594
48.027634,4.016608,wayside_cross,C16,PA00078292,Q3003534,Croix de cimetière,2,1912-11-30 ,fr:Croix de cimetière de Vanlay,4.015883,4.017333,48.028064,48.027204
48.628643,4.239537,wayside_cross,C14,PA00078246,Q3003533,Croix de cimetière,2,1909-04-14 ,fr:Croix de cimetière de Trouans,4.238812,4.240262,48.629073,48.628212999999995
48.4274,4.4134,building,C18,PA00078134,Q22915385,Maison du 18s,3,1954-01-26 ,,4.412675,4.414125,48.42783,48.42697
48.591536,3.555257,building,C17,PA10000009,Q22976256,,3,1996-12-23 ,,3.554532,3.555982,48.591966,48.591105999999996
48.434778,4.455333,,,PA00078193,Q22915399,Tronçons de voies romaines de Langres à Remps et de Troyes à Naix,3,1982-08-05 ,fr:Tronçons de voies romaines de Langres à Remps et de Troyes à Naix,4.454608,4.4560580000000005,48.435208,48.434348
48.375532,4.733917,bridge,C17,PA10000007,Q3396564,Pont d'une arche dit Henri IV,3,1996-12-03 ,fr:Pont de Henri IV (Soulaines-Dhuys),4.733192,4.734642,48.375962,48.375102
48.041351,3.912479,city_gate,,PA00078107,Q3398964,Porte Saint-Nicolas,3,1926-06-16 ,fr:Porte Saint-Nicolas (Ervy-le-Châtel),3.9117539999999997,3.913204,48.041781,48.040921
48.2912,4.0159,archaeological_site,tumulus,PA00078233,Q5187529,Tumulus,2,1965-10-29 ,fr:Croix La Beigne,4.015175,4.016625,48.291630000000005,48.29077
48.339139,4.564667,,,PA00078061,Q22915377,Tronçons de voies romaines de Langres à Remps et de Troyes à Naix,3,1982-08-05 ,fr:Tronçons de voies romaines de Langres à Remps et de Troyes à Naix,4.563942,4.565392,48.339569000000004,48.338709
48.041659,3.911363,marketplace,yes,PA00078106,Q3126080,Halle,3,1947-05-30 ,fr:Halle d'Ervy-le-Châtel,3.910638,3.9120880000000002,48.042089000000004,48.041229
48.299035,4.080257,building,C16,PA00078281,Q22915425,,3,1926-06-16 ,,4.0795319999999995,4.080982,48.299465000000005,48.298605
47.988615,4.362023,marketplace,yes,PA00078202,Q3126096,Halle de Ricey-Haut,3,1980-05-14 ,fr:Halle de Ricey-Haut,4.361298,4.362748,47.989045000000004,47.988185
47.977839,4.496423,yes,C15,PA00078167,Q2382905,Grenier à sel (ancien),3,1984-10-11 ,fr:Grenier à sel de Mussy-sur-Seine,4.495698,4.497148,47.978269000000004,47.977409
48.298124,4.071652,building,C16,PA00078263,Q22915414,Hôtel d'Autruy,3,1925-12-21 ,fr:Hôtel d'Autruy,4.070927,4.072377,48.298554,48.297694
48.375291,4.735703,building,C17,PA00078241,Q2364281,Maison communale,3,1926-06-19 ,fr:Maison communale de Soulaines-Dhuys,4.734978,4.736428,48.375721,48.374860999999996
48.387095,3.525673,archaeological_site,megalith,PA00078237,Q3305910,Menhir dit la Pierre au Coq,2,1959-04-03 ,fr:Menhir de la Pierre-au-Coq (Soligny-les-Étangs),3.5249479999999997,3.526398,48.387525000000004,48.386665
48.4267,4.4141,building,C16,PA00078135,Q22915389,Maison à pans de bois,3,1982-12-29 ,,4.413375,4.414825,48.42713,48.426269999999995
48.350203,4.536227,,C18,PA00078098,Q2972517,,2,1980-12-15 ,fr:Cimetière de Dienville,4.535502,4.536952,48.350633,48.349773
48.4591,3.941,,,PA00135307,Q3485403,Site archéologique des Hardillères,3,1995-10-10 ,fr:Site archéologique des Hardillères,3.9402749999999997,3.941725,48.45953,48.45867
48.304607,4.554729,farm,C16,PA00125379,Q3068931,Ferme du Breuil (ancienne grange de l'abbaye de Clairvaux),3,1993-02-25 ,fr:Ferme du Breuil,4.554004,4.555454,48.305037,48.304176999999996
48.2248,4.2948,building,C16,PA10000004,Q22976251,Maison du 16e siècle,2,1997-03-24 ,,4.294075,4.2955250000000005,48.22523,48.22437
48.1448354,4.798177,,C17,PA10000010,Q3115316,Ancienne grange d'Outre-Aube,3,1998-04-08 ,fr:Grange d'Outre-Aube,4.797452,4.798902,48.1452654,48.1444054
48.375548,4.734061,building,,PA00078240,Q22915404,,3,1970-01-21 ,,4.7333359999999995,4.734786,48.375978,48.375118
48.146271,4.218471,castle,manor,PA00078213,Q3286386,Manoir des Tourelles,2,1903-05-22 ,fr:Manoir des Tourelles,4.217746,4.219196,48.146701,48.145841
48.309028,4.586306,,,PA00078244,Q22915405,Tronçons de voies romaines de Langres à Remps et de Troyes à Naix,3,1982-08-05 ,fr:Tronçons de voies romaines de Langres à Remps et de Troyes à Naix,4.585581,4.5870310000000005,48.309458,48.308597999999996
