latitude,longitude,historic,start_date,ref:mhs,wikidata,name,heritage,mhs:inscription_date,wikipedia,left,right,top,bottom
45.90337039,5.18051167,building,C15,PA00116514,,Maisons et remparts qui en dépendent,2,1921-11-24 ,fr:Grenier à sel (Pérouges),5.1797866699999995,5.18123667,45.90380039,45.90294039
45.90345231,5.18044023,building,C15,PA00116515,,Maisons et remparts qui en dépendent,2,1921-11-24 ,,5.17971523,5.18116523,45.90388231,45.90302231
45.90345231,5.18044023,building,C15,PA00116516,,Maison et remparts,3,1929-10-11 ,,5.17971523,5.18116523,45.90388231,45.90302231
49.0689,3.5057,wayside_cross,C13,PA00115812,Q3003510,Croix de cimetière,2,1906-02-10 ,fr:Croix de cimetière de Mézy-Moulins,3.504975,3.506425,49.06933,49.06847
49.497012,3.820592,,C13,PA00115918,Q3403053,Ancien prieuré de Saint-Thomas,,,fr:Prieuré de Saint-Thomas,3.819867,3.821317,49.497442,49.496582
49.5287053,3.5405795,,C17,PA02000001,Q3555407,Vendangeoirs Hédouville et Cuzey,,,fr:Vendangeoirs Hédouville et Cuzey,3.5398545,3.5413045000000003,49.5291353,49.5282753
49.398662,3.909647,,C20,PA00115527,Q3010624,Cote 108,2,1937-01-11 ,fr:Côte 108,3.908922,3.910372,49.399092,49.398232
49.528673,3.541152,,,PA02000046,Q3555403,Vendangeoir des Frères Le Nain,3,2003-09-23 ,fr:Vendangeoir des Frères Le Nain,3.5404269999999998,3.541877,49.529103,49.528242999999996
49.44808,3.409581,,C20,PA02000083,Q477892,Camp fortifié dit  Wolfschlucht 2  ou  W 2 ,3,2014-02-05 ,,3.408856,3.4103060000000003,49.44851,49.447649999999996
49.25237712,3.08868233,fountain,yes,PA00115986,Q3076174,Fontaine,3,1932-05-11 ,fr:Fontaine de Villers-Cotterêts,3.08795733,3.0894073300000002,49.25280712,49.25194712
49.440422,3.522921,,C20,PA02000019,Q3002519,La Creute du Caïd,,,fr:Creute du Caïd,3.522196,3.5236460000000003,49.440852,49.439992
49.6958908,3.6239682,building,C17,PA00115637,Q22966407,Maison du 17e siècle,,,,3.6232432,3.6246932000000003,49.6963208,49.6954608
49.215442,3.21356,wayside_cross,C16,PA00115501,Q3003676,Croix,3,1927-06-15 ,fr:Croix monumentale d'Ancienville,3.212835,3.2142850000000003,49.215872000000005,49.215012
49.662322,3.36931,,C18,PA00132908,Q3413050,Quartier Drouot,3,1994-01-19 ,fr:Quartier Drouot,3.368585,3.370035,49.662752000000005,49.661892
49.423638,3.958967,archaeological_site,fortification,PA00116011,Q22966476,Oppidum de Variscourt (également sur commune de Variscourt),3,1992-07-27 ,,3.958242,3.959692,49.424068,49.423207999999995
49.48215,3.635609,,C20,PA02000021,Q2940289,Carrière de Colligis,3,2000-01-26 ,fr:Carrière de Colligis,3.634884,3.636334,49.48258,49.481719999999996
49.5645,3.616507,yes,,PA00115711,Q22966415,Chapelle Saint-Genebaud,3,1927-07-22 ,,3.615782,3.617232,49.564930000000004,49.56407
49.952579,4.059191,archaeological_site,fortification,PA02000084,Q22995477,Oppidum,3,2014-05-23 ,,4.058466,4.059916,49.953009,49.952149
49.057373,3.530021,stone,grooves,PA00115814,Q3394284,Polissoir,2,1969-02-20 ,fr:Polissoir de Mézy-Moulins,3.529296,3.530746,49.057803,49.056943
49.240819,3.311074,,,PA00115917,Q3409329,Ancienne prévôté de Blanzy,3,1928-02-08 ,fr:Prévôté de Blanzy,3.310349,3.311799,49.241249,49.240389
49.0353,3.5305,wayside_cross,C13,PA00115613,Q3003479,Croix de cimetière,2,1922-02-07 ,fr:Croix de cimetière de Connigis,3.529775,3.531225,49.03573,49.03487
49.18561159,3.37136802,,,PA02000029,Q3397779,Ponts Bernard,,,fr:Ponts Bernard,3.3706430199999997,3.37209302,49.18604159,49.18518159
49.1617,3.4225,,C18,PA02000052,Q2911188,Bornes de délimitation,3,2004-10-18 ,fr:Bornes de délimitation de Coincy,3.421775,3.423225,49.162130000000005,49.16127
49.585379,3.734233,wayside_cross,C13,PA00115919,Q3003681,Croix,3,1932-06-03 ,fr:Croix monumentale de Samoussy,3.733508,3.7349580000000002,49.585809000000005,49.584949
49.3638,3.34734,building,C13,PA02000071,Q22995470,Maisons de source et aqueduc (également sur commune de Belleu),3,2007-05-07 ,fr:Belleu,3.346615,3.348065,49.36423,49.363369999999996
49.16561,3.265242,stone,grooves,PA00115842,Q3394285,Polissoir,2,1970-02-10 ,fr:Polissoir de Neuilly-Saint-Front,3.264517,3.2659670000000003,49.16604,49.16518
49.074,3.5426,place_of_worship,christian,PA00115629,Q3581333,,2,1941-04-25 ,fr:Église Saint-Denis de Courtemont-Varennes,3.541875,3.5433250000000003,49.07443,49.07357
49.151612,3.398622,,C12,PA00115555,Q3437617,Rocher gravé,2,1975-06-13 ,fr:Rocher gravé de Brécy,3.397897,3.399347,49.152042,49.151182
49.844881,3.285658,city_gate,C17,PA00115914,Q3399158,Porte dite des Canonniers,3,1930-10-11 ,fr:Porte des Canonniers,3.284933,3.2863830000000003,49.845311,49.844451
49.807314,4.0201029,marketplace,yes,PA02000013,Q3126094,Halle,3,1998-02-13 ,fr:Halle de Plomion,4.0193779,4.0208279000000005,49.807744,49.806884
49.167388,3.583474,archaeological_site,megalith,PA00115600,Q3033993,Dolmen de Carauda,2,1889 ,fr:Dolmen de Caranda,3.5827489999999997,3.584199,49.167818000000004,49.166958
49.741576,3.773375,,,PA00115808,Q3424008,Relais de poste,3,1933-05-29 ,fr:Relais de poste de Marle,3.77265,3.7741000000000002,49.742006,49.741146
49.5042,3.8241,archaeological_site,fortification,PA02000081,Q22995473,Oppidum,3,2013-05-27 ,,3.823375,3.824825,49.50463,49.503769999999996
49.85637,3.95299,archaeological_site,megalith,PA00115549,Q3305903,Menhir dit La Haute-Ronde,2,1889 ,fr:Menhir de la Haute-Ronde,3.9522649999999997,3.953715,49.8568,49.85594
48.873314,3.495275,building,C16,PA02000069,Q3068899,Maison forte dite Ferme de Villefontaine,3,2007-09-14 ,fr:Ferme de Villefontaine,3.49455,3.496,48.873744,48.872884
49.692455,4.018657,,C17,PA00115823,Q3056751,Ermitage,3,1928-02-08 ,fr:Ermitage de Montcornet,4.017932,4.019382,49.692885000000004,49.692025
49.371701,3.814605,,C13,PA00115890,Q3403029,Ancien prieuré,3,1932-06-03 ,fr:Prieuré de Roucy,3.8138799999999997,3.81533,49.372131,49.371271
49.18376201,3.37166038,,,PA02000028,Q3397779,Ponts Bernard (également sur commune de Breny),3,2001-06-11 ,fr:Ponts Bernard,3.3709353799999997,3.37238538,49.184192010000004,49.18333201
49.178664,3.473731,building,C18,PA00115982,Q3280240,Maison natale de Paul Claudel,3,1964-07-07 ,fr:Maison natale de Paul Claudel,3.473006,3.474456,49.179094,49.178233999999996
49.425658,3.967631,archaeological_site,fortification,PA00116012,Q22966476,Oppidum de Variscourt,,,,3.966906,3.968356,49.426088,49.425228
49.35356,3.696607,yes,C12,PA00115701,Q3584315,Ruines de l'église,2,1921-11-08 ,fr:Église Saint-Rémi d'Hautevesnes,3.695882,3.6973320000000003,49.35399,49.35313
49.397211,3.468719,,C12,PA00115612,Q3403050,Ancien Prieuré de Saint-Ouen,2,1921-10-24 ,fr:Prieuré de Saint-Ouen,3.467994,3.469444,49.397641,49.396781
49.264948,3.598645,,C12,PA00115594,Q2957302,Ancienne chapelle de la Ferme des Dames,3,1927-06-28 ,fr:Chapelle de la Ferme des Dames,3.59792,3.59937,49.265378,49.264517999999995
49.25627244,3.08766162,,C16,PA02000074,Q3108392,Glacière,3,2008-05-09 ,fr:Glacière de Villers-Cotterêts,3.08693662,3.08838662,49.25670244,49.255842439999995
49.045017,3.402843,tower,yes,PA00115592,Q3533021,Tour Balhan,3,1926-12-02 ,fr:Tour Balhan,3.4021179999999998,3.403568,49.045447,49.044587
49.161772,3.422086,,C11,PA00115605,Q2820561,Ancienne abbaye,3,1928-06-05 ,fr:Abbaye de Coincy,3.421361,3.4228110000000003,49.162202,49.161342
49.214032,3.479614,,C13,PA00115920,Q2970629,Restes du château,3,1928-06-05 ,fr:Château de Saponay,3.478889,3.4803390000000003,49.214462000000005,49.213602
49.876717,3.145904,,,PA00115969,Q940173,Camp Romain,2,1840 ,fr:Camp Romain,3.1451789999999997,3.146629,49.877147,49.876287
49.565084,3.61646,building,C17,PA00115733,Q22966420,,3,1927-06-24 ,,3.615735,3.617185,49.565514,49.564654
49.5151255,3.1521467,,,PA00115537,Q3001714,Ancien couvent des Feuillants,3,1928-02-08 ,fr:Couvent des Feuillants de Blérancourt,3.1514216999999998,3.1528717,49.515555500000005,49.5146955
43.952444,6.8135278,citywalls,C14,PA00080387,Q2974378,Fortifications et citadelle,,,fr:Citadelle d'Entrevaux,6.8128028,6.8142528,43.952874,43.952014
44.166035,6.603585,building,C17,PA00080506,Q2932744,Maison communale,3,1948-11-29 ,,6.60286,6.60431,44.166465,44.165605
43.832079,5.7837208,building,C17,PA00080426,Q22998311,,3,1987-03-10 ,,5.7829958,5.7844458,43.832509,43.831649
44.124917,6.00425,,,PA00080513,Q3402913,Ancien prieuré Saint-Jean-de-Taravon,3,1992-01-30 ,fr:Prieuré Saint-Jean-de-Taravon,6.003525,6.004975,44.125347000000005,44.124487
43.817687,6.0929493,building,C17,PA04000020,Q22995535,,3,1999-01-19 ,,6.0922243,6.0936743,43.818117,43.817257
43.959933,5.780712,building,C15,PA04000018,Q22995531,,3,1999-01-19 ,,5.779987,5.781437,43.960363,43.959503
44.2389,6.0169,,C 5,PA00080464,Q3151503,Roche ornée avec inscription gallo-romaine dite la Pierre Ecrite,2,1909-03-10 ,fr:Inscription de la Pierre Écrite,6.016175,6.017625,44.23933,44.23847
43.972086,5.672126,citywalls,C15,PA00080450,Q2405491,Rempart,3,1943-07-09 ,fr:Remparts de Revest-des-Brousses,5.6714009999999995,5.672851,43.972516,43.971655999999996
43.833728,5.783069,wayside_cross,C16,PA00080421,Q3003357,Croix en pierre située autrefois dans le cimetière Notre-Dame,3,1927-03-19 ,fr:Croix de Manosque,5.782344,5.783794,43.834158,43.833298
43.9585478,5.7805737,building,C17,PA00080398,Q3145398,Hôtel Arnaud (ancien),3,1980-12-24 ,fr:Hôtel Arnaud,5.7798487,5.7812987,43.9589778,43.9581178
43.959994,5.780836,,C17,PA00080394,Q3001764,Collège (ancien),3,1927-03-09 ,fr:Collège de Forcalquier,5.780111,5.781561,43.960424,43.959564
43.9375,5.7676,building,C17,PA00080415,Q3145901,Hôtel de Miravail (ancien),,,fr:Hôtel de Miravail,5.766875,5.768325,43.93793,43.93707
44.028332642842,5.9767234325409,building,C17,PA00080432,,Hôtel de Crose et portail Saint-Félix,3,1989-02-21 ,fr:Hôtel de Crose,5.9759984325409,5.9774484325409,44.028762642842004,44.027902642842
44.115086,6.23149,,C19,PA04000003,Q3552682,Usine à plâtre de Champourcin,3,1996-06-17 ,fr:Usine à plâtre de Champourcin,6.230765,6.232215,44.115516,44.114656
44.023850643807,6.3850522041321,tower,yes,PA00080371,Q3533521,"Tour de l'Annonciade, dite aussi Tour de Poriane",3,1989-02-21 ,fr:Tour de l'Annonciade,6.3843272041320995,6.3857772041321,44.024280643807,44.023420643807
43.812258,5.7496,city_gate,,PA00080446,Q3398958,Porte de l'enceinte (ancienne),3,1937-10-27 ,fr:Porte Saint-Joseph de Pierrevert,5.748875,5.750325,43.812688,43.811828
43.837336,5.983177,place_of_worship,christian,PA00135600,Q3581361,Église paroissiale Saint-Blaise et vestiges de l'ancien prieuré Saint-Mayeul,,,fr:Église Saint-Denis de Valensole,5.982452,5.9839020000000005,43.837766,43.836906
43.959111,5.78325,monastery,convent,PA00080395,Q1450288,Couvent des Cordeliers (restes de l'ancien),3,1968-09-12 ,fr:Couvent des Cordeliers de Forcalquier,5.782525,5.783975,43.959541,43.958681
43.825455784665,6.1297166347504,,,PA00080458,Q3556380,Vestiges antiques correspondant à trois états d'occupation,2,1983-05-06 ,fr:Vestiges antiques de Riez,6.1289916347504,6.1304416347504,43.825885784665005,43.825025784665
44.0932873983,5.6128978729248,,C20,PA04000008,Q3068928,"Ferme, dite Les Graves, située au Contadour",3,1996-06-17 ,fr:Ferme des Graves,5.6121728729248,5.6136228729248,44.0937173983,44.0928573983
43.955861719545,6.1736726760864,place_of_worship,christian,PA00080390,Q3580474,Église (ancienne),3,1926-12-02 ,fr:Église Notre-Dame d'Estoublon,6.1729476760864,6.1743976760864,43.956291719545,43.955431719545
43.9811,5.5628,building,C17,PA00080489,Q22998315,,3,1932-06-03 ,,5.562075,5.563525,43.98153,43.980669999999996
43.97119922,6.76019844,bridge,,PA00080460,Q3396986,Pont de Gueydan sur le Colomp,2,1944-02-28 ,fr:Pont de Gueydan,6.75947344,6.76092344,43.971629220000004,43.97076922
43.8866,5.6969,,C19,PA04000015,Q3325572,Moulin Delestic dit aussi moulin Agnelier ou de l'Agnelet,3,1993-05-28 ,fr:Moulin Delestic,5.696175,5.697625,43.88703,43.88617
43.87776919883,5.6613492965698,city_gate,C13,PA00080449,Q3398971,Porte Saint-Pierre,3,1984-12-28 ,fr:Porte Saint-Pierre de Reillanne,5.6606242965698,5.6620742965698,43.87819919883,43.87733919883
44.100098698062,5.6158590316772,,C19,PA04000007,Q3325623,"Ferme, dite Le Moulin de Giono, située au Contadour",3,1996-06-17 ,fr:Moulin de Giono,5.6151340316772,5.6165840316772,44.100528698062,44.099668698062
43.958683,5.781608,building,C16,PA00080400,Q3278805,Maison Jean Rey,3,1943-09-17 ,fr:Maison Jean Rey,5.780883,5.782333,43.959113,43.958253
43.956944,5.8336,yes,C12,PA00080444,Q2956966,Chapelle Saint-Pierre (ruines),3,1984-07-11 ,fr:Chapelle Saint-Pierre de Pierrerue,5.832875,5.834325,43.957374,43.956514
43.948889,6.811111,,C12,PA04000005,Q2942250,"Ancienne cathédrale de Glandèves, Notre-Dame de la Sed, dite aussi chapelle de l'Hôpital",3,1996-06-27 ,fr:Cathédrale Notre-Dame-de-la-Sed d'Entrevaux,6.810386,6.8118360000000004,43.949319,43.948459
43.694,6.033,,,PA00080514,Q2821900,Abri Donner,3,1992-04-07 ,fr:Abri Donner,6.032275,6.0337250000000004,43.694430000000004,43.69357
44.195333,5.9431111,,,PA00080496,Q3053740,Enceinte (restes de l'ancienne),2,1875 ,fr:Enceinte de Sisteron,5.9423861,5.9438361,44.195763,44.194903
43.9542,5.7847,monastery,C16,PA04000010,Q3402929,Prieuré et chapelle Saint-Pancrace,3,1997-10-14 ,fr:Prieuré Saint-Pancrace,5.783975,5.785425,43.95463,43.95377
44.0041,6.6401,,C18,PA00080401,Q3355121,Oratoire Saint-Joseph,3,1966-02-03 ,fr:Oratoire Saint-Joseph du Fugeret,6.639375,6.640825,44.00453,44.00367
44.5526,6.0803,castle,manor,PA00080570,Q22998456,Manoir de Kapados,,,,6.079575,6.081025,44.55303,44.55217
44.562779,6.493584,fountain,yes,PA00080560,Q22998434,Fontaine,3,1927-03-19 ,,6.492859,6.494309,44.563209,44.562349
44.7987,6.5646,,,PA05000012,Q14627616,Ancien cellier dit de la maison Planche,3,1993-02-04 ,fr:Cellier de la maison Planche,6.563875,6.5653250000000005,44.79913,44.798269999999995
44.5627,6.4946,building,C13,PA00080562,Q1798885,"Maison des Chanonges ou du Chapître, anciennement collège des Chanoines de la cathédrale",2,1988-10-24 ,,6.493875,6.495325,44.56313,44.56227
44.6576,6.6527,yes,C18,PA00080575,Q22998447,Chapelle Notre-Dame-des-Neiges et Saint-Ours,3,1986-10-21 ,,6.651975,6.653425,44.658030000000004,44.65717
44.3914,5.4711,tower,defensive,PA00080603,Q22998488,Donjon,3,1932-06-03 ,,5.470375,5.471825,44.39183,44.390969999999996
44.4284,5.7146,building,,PA00080626,Q22998516,"Maison dite hôtel de Perrinet, actuellement mairie, ancien hôtel de Lesdiguières",2,1927-05-16 ,,5.713875,5.715325,44.428830000000005,44.42797
44.6697,6.6241,,C17,PA00080589,Q22998467,Place-forte,2,1966-10-18 ,,6.623375,6.624825,44.67013,44.66927
44.9439,6.5531,,C17,PA00080624,Q22998514,Maison-Ferme,3,1987-06-29 ,,6.552375,6.553825,44.94433,44.94347
44.8774,6.6855,,,PA05000011,Q18380153,Téléphérique militaire de Terre Rouge ou des Gondrans,,,,6.684775,6.686225,44.87783,44.87697
44.3147,5.8227,,C17,PA05000003,Q22995543,Ancien château de Laragne,3,1996-08-02 ,,5.821975,5.823425,44.31513,44.31427
44.786,6.534,,,PA00132926,Q22975780,Village minier du Fournel,3,1994-10-01 ,,6.533275,6.534725,44.78643,44.78557
44.7854,6.5537,,C17,PA00080646,Q22916155,Ensemble domanial dit Château Saint-Jean,3,1992-05-13 ,,6.552975,6.554425,44.785830000000004,44.78497
44.5652,6.4966,fountain,yes,PA00080557,Q22998431,Fontaine,3,1930-10-11 ,,6.495875,6.497325,44.56563,44.564769999999996
44.6697,6.6243,,,PA00080588,Q22998466,Mesure banale de grains en pierre,3,1944-02-09 ,,6.623575,6.625025,44.67013,44.66927
44.794666,6.928049,,C17,PA05000019,Q22995558,Ensemble paroissial d'Abriès,3,2014-02-07 ,,6.927324,6.928774,44.795096,44.794236
44.7339,6.8352,,C15,PA00135710,Q22995413,"Maison, au hameau de la Rua",2,1995-10-12 ,,6.834475,6.8359250000000005,44.73433,44.73347
44.5635,6.4937,fountain,yes,PA00080559,Q22998433,Fontaine,3,1948-11-29 ,,6.4929749999999995,6.494425,44.56393,44.563069999999996
44.7868,6.5541,building,C17,PA00132713,Q22969366,maison Giraud,3,1994-03-25 ,,6.553375,6.554825,44.78723,44.78637
44.7305,6.843,building,C16,PA00080580,Q22998444,,3,1930-10-11 ,,6.842275,6.843725,44.73093,44.73007
44.5636,6.4949,building,C12,PA00080561,Q22998435,Hôtel des Gouverneurs (ancien),,,,6.494175,6.495625,44.56403,44.56317
44.3322,6.0437,,C18,PA00080568,Q3034419,Domaine de Charance,3,1987-09-08 ,fr:Domaine de Charance,6.042975,6.044425,44.33263,44.33177
44.794,6.9276,,C17,PA00080516,,Vieille Halle,,,,6.926875,6.928325,44.79443,44.793569999999995
44.5643,6.496,fountain,yes,PA00080558,Q22998432,Fontaine,3,1948-11-29 ,,6.495275,6.4967250000000005,44.564730000000004,44.56387
43.7643,7.4698,,,PA00080821,Q3117247,Grotte du Vallonet,2,2004-04-28 ,fr:Grotte du Vallonnet,7.469075,7.470525,43.76473,43.76387
43.700485,7.278842,citywalls,,PA06000038,Q15948841,Fortifications de la porte Pairolière,2,2012-03-13 ,fr:Fortifications de la porte Pairolière,7.278117,7.279567,43.700915,43.700055
43.698395,7.285116,,C19,PA00080957,Q3580416,Ensemble concerté constitué au fond du port Lympia,3,1991-02-11 ,fr:Port Lympia,7.284391,7.2858410000000005,43.698825,43.697964999999996
43.69510438,7.12334685,citywalls,C13,PA00080847,Q15953236,Remparts et cimetière avoisinant,2,1945-02-20 ,fr:Remparts de Saint-Paul-de-Vence,7.12262185,7.12407185,43.69553438,43.694674379999995
43.8164444,7.21755556,,C19,PA06000019,Q2310539,"Siphon de Saint-Blaise, ouvrage technique remarquable du canal de la Vésubie (également sur commune de Saint-Blaise)",3,2001-11-28 ,fr:Canal de la Vésubie,7.21683056,7.21828056,43.8168744,43.8160144
44.0937448,7.0517124,castle,C12,PA00080827,Q15944484,Château (restes),3,1941-12-22 ,fr:Château de Roubion,7.0509874,7.0524374000000005,44.094174800000005,44.0933148
43.75229638,7.480652,monastery,monastery,PA00080822,Q15952772,Monastère Saint-Martin (ruines de l'ancien),3,1970-08-04 ,fr:Monastère Saint-Martin,7.479927,7.481377,43.75272638,43.751866379999996
43.696832,7.273641,,C18,PA00080778,Q13517189,Caserne Rusca (ancienne),3,1976-04-27 ,fr:Caserne Rusca (Nice),7.2729159999999995,7.274366,43.697262,43.696402
43.760323972541,7.4579787254333,,C20,PA00132719,Q1809766,Site corbuséen du Cap Martin,,,fr:Site corbuséen du Cap Martin,7.4572537254333,7.4587037254333,43.760753972541,43.759893972541
43.758278,7.473493,tomb,C1,PA00080823,Q15952739,Tombeau romain,2,1951-06-12 ,fr:Mausolée de Lumone,7.472768,7.4742180000000005,43.758708,43.757847999999996
44.1880468,7.05585679,building,,PA00080748,Q22916190,Maison Gibert,3,1942-11-19 ,,7.05513179,7.05658179,44.188476800000004,44.1876168
43.87706953,7.44728356,,C13,PA00080870,Q15953013,Immeubles et place Saint-Michel,3,1947-03-18 ,fr:Place Saint-Michel (Sospel),7.44655856,7.44800856,43.87749953,43.87663953
43.696383,7.275092,castle,palace,PA00132718,Q3361109,"Palais de la Préfecture, ancien palais des rois de Sardaigne",,,fr:Palais des ducs de Savoie,7.274367,7.275817,43.696813,43.695952999999996
43.7303151,7.3500359,archaeological_site,fortification,PA06000002,Q22995560,Oppidum du Castellar,3,1996-09-05 ,fr:Oppidum du Castellar,7.3493109,7.3507609,43.7307451,43.7298851
43.678083,6.8025556,archaeological_site,megalith,PA00080945,Q3034129,Dolmen des Puades,3,1989-04-26 ,fr:Dolmen des Puades,6.8018306,6.8032806,43.678513,43.677653
43.745007,7.400885,building,C12,PA00080894,Q22999271,,3,1953-03-05 ,,7.40016,7.40161,43.745437,43.744577
43.630282,6.953489,,C18,PA00080933,Q22999290,Domaine de Saint-Donat,3,1990-04-03 ,,6.952764,6.954214,43.630712,43.629852
43.7309818,7.1061774,,,PA00080915,Q22999284,Commanderie de Saint-Martin (restes de l'ancienne),3,1927-08-14 ,,7.1054524,7.1069024,43.731411800000004,43.7305518
43.70383003,7.32792833,archaeological_site,roman_villa,PA00080663,Q32228632,"Villa de May, actuellement musée d'Histoire et d'Archéologie",3,1980-01-25 ,fr:Villa de May (Beaulieu-sur-Mer),7.32720333,7.32865333,43.70426003,43.70340003
43.87834067,7.44936532,building,C16,PA00080874,Q22999253,Maisons à arcades,3,1949-12-10 ,,7.44864032,7.45009032,43.87877067,43.87791067
43.632194,6.8033611,archaeological_site,megalith,PA00080833,Q3034022,Dolmen de Lou Serre Dinguille,2,1889 ,fr:Dolmen de Lou Serre Dinguille,6.8026361,6.8040861,43.632624,43.631764
43.8503056,7.16119444,castle,C13,PA00080724,Q15944477,Château (ruines),3,1933-06-28 ,fr:Château de Gilette,7.16046944,7.16191944,43.8507356,43.8498756
43.5801091,7.1274152,,,PA00080654,Q15948785,Enceinte gréco-romaine (restes),3,1939-02-16 ,fr:Enceinte gréco-romaine d'Antibes,7.1266902,7.1281402,43.5805391,43.5796791
43.657913,6.923616,yes,C17,PA00080728,Q22916169,Chapelle Saint-Thomas,3,1931-04-17 ,,6.922891,6.924341,43.658343,43.657483
43.8835,7.3613,building,C13,PA00080758,Q22916193,,3,1932-10-21 ,,7.360575,7.362025,43.88393,43.88307
43.744421,7.422912,,C19,PA00080928,Q13518172,Riviera Palace,3,1989-12-14 ,fr:Riviera Palace (Beausoleil),7.422187,7.423637,43.744851000000004,43.743991
43.745433,7.4007340000001,building,C16,PA00080895,Q22999273,,3,1953-03-05 ,,7.4000090000001,7.4014590000001,43.745863,43.745003
43.8594444,7.22566667,citywalls,,PA00080752,Q13516879,Rempart,3,1942-07-04 ,fr:Rempart de Levens,7.22494167,7.22639167,43.8598744,43.8590144
43.704138,7.312234,building,C13,PA00080922,Q3449335,,3,1932-10-04 ,fr:Rue Obscure de Villefranche-sur-Mer,7.311509,7.312959,43.704568,43.703708
43.759875,7.463186,archaeological_site,roman_villa,PA00080824,Q627266,Villa E 1027 d'Eileen Gray,2,2000-03-27 ,fr:Villa E-1027,7.462461,7.463911,43.760305,43.759445
43.72274887,7.11254665,citywalls,,PA00080918,Q15953242,Remparts (vestiges des anciens),,,fr:Remparts de Vence,7.1118216499999996,7.11327165,43.72317887,43.722318869999995
43.658028,6.924639,castle,palace,PA00080740,Q22916187,Palais épiscopal (ancien),2,1937-12-23 ,,6.923914,6.925364,43.658458,43.657598
43.699519,7.278405,,C15,PA00125704,Q3001619,Ancien couvent Saint-François,3,1993-06-23 ,fr:Couvent Saint-François de Nice,7.27768,7.27913,43.699949000000004,43.699089
43.5511797,7.0458551,,C20,PA00080931,Q13518185,Parc et jardins de Champfleuri,3,1990-04-03 ,fr:Villa Champfleuri,7.0451301,7.0465801,43.5516097,43.5507497
43.8600278,7.22569444,,,PA00080751,Q22916192,Passage voûté,3,1942-07-04 ,,7.22496944,7.22641944,43.8604578,43.859597799999996
43.60567384,7.06765783,,C1,PA00080649,Q2859215,Aqueduc de Clausonnes (restes) (également sur commune de Valbonne),3,1936-07-25 ,fr:Aqueduc de Clausonnes,7.06693283,7.06838283,43.60610384,43.60524384
43.99026877,7.54706194,,C18,PA00080857,Q22999239,Plaques commémoratives inscrites dans le roc et les parois rocheuses,2,1947-09-15 ,fr:Route Royale Nice-Turin,7.54633694,7.54778694,43.99069877,43.98983877
43.70598624,7.31123093,citywalls,C13,PA00080923,Q22999286,Remparts (vestige dit Le Bastionnet),3,1959-10-07 ,,7.31050593,7.31195593,43.70641624,43.70555624
43.656889,6.8315556,archaeological_site,megalith,PA00080946,Q3034004,Dolmen de Colbas I,3,1989-04-26 ,fr:Dolmen de Colbas 1,6.8308306,6.8322806,43.657319,43.656459
43.577541,7.1261,,,PA00080658,Q13518447,Monument romain provenant de Biot,2,1945-04-19 ,fr:Monument romain provenant de Biot,7.125375,7.126825,43.577971,43.577110999999995
43.8781,7.4507,building,C15,PA00080871,Q22999244,,3,1931-01-12 ,,7.449975,7.451425,43.878530000000005,43.87767
43.721846626727,7.1038815379143,wayside_cross,C17,PA00080951,Q22999292,Calvaire,3,1989-12-14 ,,7.1031565379143,7.1046065379143,43.722276626727,43.721416626727
43.687703,7.234733,,,PA00125705,Q3360981,"Ancienne villa les Palmiers, actuellement Archives municipales, et son parc, actuellement parc des Grands Cèdres",3,1993-06-23 ,fr:Palais de Marbre (Nice),7.234008,7.235458,43.688133,43.687273
43.70016024,7.11910334,yes,C17,PA00125707,Q13518213,Chapelle Notre-Dame de la Gardette ou Saint-Georges,3,1993-06-10 ,fr:Chapelle Notre-Dame de la Gardette,7.11837834,7.11982834,43.700590240000004,43.69973024
43.877075,7.448884,castle,palace,PA00080875,Q22999255,Palais de la Gabelle (ancien),3,1949-12-10 ,,7.4481589999999995,7.449609,43.877505,43.876644999999996
43.8104,7.2207,,C19,PA06000021,Q2310539,"Section des vallons de la Garde et de Costa Rasta, section représentative du canal de la Vésubie",3,2001-11-28 ,fr:Canal de la Vésubie,7.219975,7.221425,43.81083,43.80997
43.674493,6.945725,archaeological_site,roman_villa,PA00125703,Q22969133,"Villa d'Andon, située quartier Magagnosc",2,1995-10-12 ,,6.945,6.9464500000000005,43.674923,43.674063
43.7536,7.381764,,C16,PA00080888,Q3216163,Sanctuaire de Laghet,3,1931-01-12 ,fr:Laghet,7.381039,7.3824890000000005,43.75403,43.75317
43.81311787,7.50624308,,,PA06000028,Q13518297,"Abri Pendimoun, gisement préhistorique",3,2007-05-21 ,fr:Abri Pendimoun,7.50551808,7.50696808,43.81354787,43.81268787
43.6935002,7.3288951,building,C20,PA06000016,Q13518776,maison dite Villa La Ligne Droite,2,2001-12-10 ,fr:Villa La Ligne Droite,7.3281701,7.3296201000000005,43.693930200000004,43.6930702
43.87819786,7.45007111,building,C18,PA00080872,Q22999247,Maison Gallis,3,1949-12-10 ,,7.44934611,7.45079611,43.87862786,43.87776786
43.937056,7.517347,city_gate,,PA00080677,Q15953109,Porte d'Italie,3,1986-10-21 ,fr:Porte de Gênes (Breil-sur-Roya),7.516622,7.518072,43.937486,43.936626
43.718823,7.278099,,,PA00080803,Q3558109,Mur présumé ligure (vieux),3,1929-03-28 ,fr:Vieux mur ligure,7.277374,7.278824,43.719253,43.718393
43.658827,6.925891,city_gate,,PA00080741,Q22916188,Porte Neuve,3,1925-10-21 ,,6.925166,6.926616,43.659257000000004,43.658397
43.8773,7.4475,building,C12,PA00080873,Q22999250,Maison Romane,3,1939-05-19 ,,7.446775,7.448225,43.87773,43.87687
43.696853,7.273499,,,PA00080777,Q2879075,Caserne Lympia (ancienne),3,1943-09-16 ,fr:Bagne de Nice,7.272774,7.274224,43.697283,43.696422999999996
44.06807806,7.25559635,castle,C17,PA00080842,Q15952117,Château Gubernatis ou palais Gubernatis,3,1933-06-06 ,fr:Maison Gubernatis (Saint-Martin-Vésubie),7.25487135,7.25632135,44.06850806,44.067648059999996
43.80281368,7.40279354,,C12,PA00080813,Q15953011,Place Lascaris,3,1942-09-30 ,fr:Place Lascaris,7.40206854,7.40351854,43.80324368,43.80238368
43.746344,7.422445,,,PA00080665,Q13518437,Camp ligure sis au Mont des Mules,2,1939-01-28 ,fr:Camp ligure du Mont des Mules,7.42172,7.42317,43.746774,43.745914
43.65786,6.92472,place_of_worship,christian,PA00080727,Q1329745,Cathédrale (ancienne),2,1920-06-30 ,fr:Cathédrale Notre-Dame-du-Puy de Grasse,6.923995,6.925445,43.65829,43.65743
43.699008,7.278419,,C17,PA00080776,Q3360951,Bourse du Travail,3,1949-12-10 ,fr:Palais communal de Nice,7.277694,7.2791440000000005,43.699438,43.698578
43.87747737,7.44651936,,C16,PA00080869,Q22999242,Hospice (ancien),3,1931-02-02 ,,7.44579436,7.44724436,43.87790737,43.87704737
43.559799,7.041158,archaeological_site,roman_villa,PA00080954,Q3558514,Villa Domergue,3,1990-09-19 ,fr:Villa Domergue,7.040433,7.041883,43.560229,43.559369
43.689794,7.229538,,C20,PA00132715,Q13518764,"Demeure dite abbaye de Roseland, quartier de Fabron",2,1996-09-03 ,fr:Abbaye de Roseland,7.228813,7.230263,43.690224,43.689364
43.8519444,7.23802778,,C11,PA00080749,Q15945070,Ancienne abbaye de la Madone-des-Prés,2,1965-10-05 ,fr:Abbaye de la Madone-des-Prés,7.23730278,7.23875278,43.8523744,43.8515144
43.72269794,7.1142162,,,PA00080914,Q22999283,Colonnes romaines,2,1886-07-12 ,,7.1134912,7.1149412000000005,43.723127940000005,43.72226794
43.6574625,6.9233405,,C20,PA06000032,Q22995569,Monument à Léon Chiris,3,2009-07-23 ,,6.9226155,6.9240655,43.6578925,43.6570325
43.94604889,7.18423342,building,,PA00080885,Q22999261,,3,1927-05-02 ,,7.18350842,7.18495842,43.94647889,43.94561889
43.69582182,7.12251082,,C15,PA00080843,Q22916209,Arceau avec fenêtre du 15s dit Le Pontail,3,1932-10-21 ,,7.1217858199999995,7.12323582,43.69625182,43.69539182
43.8844167,7.36188889,,C12,PA00080756,Q5118800,Chateau (restes),3,1927-02-28 ,fr:Rempart de Lucéram,7.36116389,7.36261389,43.884846700000004,43.8839867
43.69770373,7.12149898,city_gate,,PA00080846,Q22916210,Porte de la ville,3,1926-05-15 ,,7.12077398,7.12222398,43.69813373,43.69727373
43.5773286,7.1260875,citywalls,,PA00080660,Q15945158,Remparts et demi-bastion 17 dit Fort Saint-André,3,1930-01-23 ,fr:Bastion Saint-André (Antibes),7.1253625,7.1268125,43.5777586,43.5768986
43.7454,7.4007,building,C13,PA00080896,Q22999275,,3,1928-02-03 ,,7.3999749999999995,7.401425,43.74583,43.744969999999995
43.6596689,6.9257655,building,C14,PA00080739,Q22916185,Maison Tournaire,3,1932-10-21 ,,6.9250405,6.9264905,43.6600989,43.6592389
43.5805036,7.121678,building,C17,PA00080657,Q22916166,Immeuble dit Porte de France,3,1928-03-31 ,,7.120953,7.122403,43.5809336,43.5800736
43.6996977695,7.3094701766968,,C17,PA00080960,Q3016578,Port de la Darse (bâtiments et éléments d'infrastructure),3,1991-02-11 ,fr:Darse de Villefranche-sur-Mer,7.3087451766968,7.3101951766968005,43.7001277695,43.6992677695
44.4797,4.2397,,C17,PA00116714,Q2983820,Collège des Oratoriens (ancien),3,1988-04-19 ,fr:Collège des Oratoriens de Joyeuse,4.238975,4.240425,44.48013,44.47927
44.37230556,4.646666667,building,,PA00116668,Q22966747,Hôtel de Digoine,3,1946-11-23 ,,4.645941667,4.647391667,44.37273556,44.37187556
44.6569,4.7627,,,PA00116702,Q22966759,Terrain dit dégagement de l'église,2,1954-01-26 ,,4.761975,4.763425,44.65733,44.65647
44.4806962,4.69084208,building,C18,PA00116862,Q3145954,Hôtel de Roqueplane,2,1947-04-14 ,fr:Hôtel de Roqueplane,4.69011708,4.6915670800000004,44.4811262,44.480266199999996
44.4793,4.239,building,C18,PA00116716,Q3145920,Hôtel de Montrevel,3,1988-04-19 ,fr:Hôtel de Montravel,4.238275,4.239725,44.47973,44.47887
44.5571,4.5018,building,,PA00116852,Q22966768,Maison ancienne,3,1941-12-08 ,,4.501075,4.502525,44.55753,44.55667
44.4821,4.6893,building,C18,PA00116863,Q3145988,Hôtel de Tourville,3,1953-04-24 ,fr:Hôtel de Tourville,4.688575,4.690025,44.482530000000004,44.48167
44.37230556,4.646666667,building,C18,PA00116669,Q22966748,Hôtel Doyse,,,,4.645941667,4.647391667,44.37273556,44.37187556
44.3712,4.6458,building,C16,PA00116675,Q22966754,,3,1927-04-12 ,,4.645075,4.6465250000000005,44.37163,44.37077
44.48210851,4.69010716,building,,PA00116864,Q3149056,"Immeuble dit Lacombe, à la base du clocher de la cathédrale",2,1920-12-20 ,fr:Maison de Sampzon,4.68938216,4.69083216,44.482538510000005,44.48167851
44.7903,4.2256,farm,C15,PA00116766,Q2364130,Ferme dite Ferme-Auberge,2,1986-02-18 ,fr:Ferme-auberge de Sagnes-et-Goudoulet,4.224875,4.226325,44.79073,44.78987
44.6766,4.2215,building,,PA00116826,Q3149055,Immeuble dit Jardet,3,1988-04-19 ,fr:Immeuble Jardet,4.220775,4.222225,44.67703,44.67617
45.2711,4.6676,building,C16,PA00116652,Q22966729,Maison du 16e siècle,3,1978-09-07 ,,4.666875,4.668325,45.27153,45.270669999999996
44.372371,4.647018,,C16,PA00116676,Q3361159,Ancien Palais des Evêques,2,1946-09-16 ,fr:Palais des évêques de Bourg-Saint-Andéol,4.646293,4.647743,44.372801,44.371941
44.557408,4.5020559,building,C18,PA00116850,Q3146301,Hôtel du Sénéchal,,,fr:Hôtel du Sénéchal,4.5013309,4.5027809,44.557838000000004,44.556978
44.481381426073,4.6978139877319,bridge,,PA00116866,Q3397584,Pont romain franchissant l'Escoutay,2,1986-08-13 ,fr:Pont romain de Viviers,4.6970889877319,4.6985389877319,44.481811426073,44.480951426073
45.0688,4.8353,,C19,PA00116837,Q2055975,"Passerelle Seguin sur le Rhône (également sur commune de Tain-l'Hermitage, dans la Drôme)",3,1985-12-30 ,fr:Passerelle Marc Seguin,4.834575,4.836025,45.069230000000005,45.06837
44.36402778,4.58375,archaeological_site,megalith,PA00116663,Q22966742,Dolmen,2,1900 ,,4.583025,4.584475,44.36445778,44.36359778
45.2108,4.7033,bridge,C19,PA00116844,Q3397070,Pont suspendu sur la Cance dit Pont du Moulin (ancien) (également sur commune de Quintenas),2,1981-04-06 ,fr:Pont de Moulin sur Cance,4.7025749999999995,4.704025,45.21123,45.21037
44.620581904687,4.3903255462646,building,C16,PA00116635,Q18215225,,3,1927-04-12 ,fr:Maison Delichères,4.3896005462645995,4.3910505462646,44.621011904687,44.620151904687
44.5556,4.598,milestone,C,PA00116823,Q2911162,Borne milliaire de Mélas,2,1932-08-10 ,fr:Borne milliaire de Mélas,4.597275,4.598725,44.55603,44.55517
44.3485,4.4816,,,PA00116803,Q3034169,Groupe de dolmens de la forêt de Malbosc,2,1889-12-27 ,fr:Dolmens de la forêt de Malbosc,4.480875,4.482325,44.34893,44.34807
44.3705,4.645611111,building,C18,PA00116667,Q22966745,Hôtel Bonnot de Villeurain,3,1961-10-10 ,,4.644886111,4.646336111,44.37093,44.37007
44.657,4.7627,,,PA00116699,Q2911198,Deux bornes milliaires gallo-romaines,2,1903-09-26 ,fr:Bornes milliaires de Cruas,4.761975,4.763425,44.65743,44.656569999999995
44.918213752632,4.8302882909775,,,PA00116827,Q3328021,Murailles romaines (ruines),3,1933-06-06 ,,4.8295632909775,4.8310132909775,44.918643752632,44.917783752632
44.3752,4.2001,,C12,PA00116646,Q2985862,Commanderie de Jalès (ancienne),3,1981-12-23 ,fr:Commanderie de Jalès,4.199375,4.200825,44.37563,44.37477
44.3404,4.447,,,PA00135633,Q3117191,Grotte dite de la Combe d'Oulen,3,1995-08-25 ,fr:Grotte de la Combe d'Oulen,4.446275,4.447725,44.340830000000004,44.33997
44.7123,4.2079,,,PA00116734,Q2985941,Commanderie de l'Hôpital (ancienne),3,1963-07-19 ,fr:Commanderie de l'Hôpital,4.207175,4.2086250000000005,44.71273,44.71187
44.3732,4.646,building,C17,PA00116666,Q22966744,Hôtel Balzagette du Charneve,3,1946-06-13 ,,4.645275,4.646725,44.37363,44.372769999999996
44.3939288,4.4116115,,,PA00135636,Q2403244,Grotte du Déroc,,,fr:Grotte du Déroc,4.4108865,4.4123365,44.3943588,44.393498799999996
44.8276,4.677,bridge,C19,PA00116785,Q3397599,Pont suspendu sur l'Eyrieux (ancien),2,1982-05-07 ,fr:Pont sur l'Eyrieux,4.6762749999999995,4.677725,44.82803,44.827169999999995
44.372,4.646694444,building,C18,PA00116670,Q15950617,Hôtel de Gabriac,3,1947-09-15 ,fr:Hôtel de Gabriac,4.645969444,4.6474194440000005,44.37243,44.37157
44.556884904214,4.5010323822498,building,C16,PA00116851,Q3279208,Maison d'Olivier de Serres,2,1927-10-10 ,fr:Maison d'Olivier de Serres,4.5003073822498,4.5017573822498,44.557314904214,44.556454904214
44.371278,4.645537,building,C18,PA00116673,Q22966751,,3,1946-02-19 ,,4.644812,4.646262,44.371708,44.370847999999995
44.5565,4.5027,,C18,PA00116848,Q3100388,Gendarmerie,,,fr:Gendarmerie de Villeneuve-de-Berg,4.501975,4.503425,44.55693,44.55607
44.313953608354,4.2158854007721,wayside_cross,C16,PA00116774,Q3003520,Croix de cimetière,2,1910-11-19 ,,4.2151604007721,4.2166104007721,44.314383608354,44.313523608354
44.8778,4.5742,city_gate,,PA00116680,Q3399150,Porte de ville (ancienne),3,1927-05-31 ,fr:Porte de ville de Chalencon,4.573475,4.574925,44.87823,44.87737
44.5572,4.5007,city_gate,,PA00116853,Q3399118,Porte dite de l'Hôpital,3,1941-07-05 ,fr:Porte de l'Hôpital,4.499975,4.501425,44.55763,44.55677
44.5424,4.1906,bridge,,PA00116814,Q22966764,Pont du Gua sur la Baume (également sur commune de Beaumont),2,1984-12-05 ,fr:Pont du Gua,4.189875,4.191325,44.54283,44.54197
44.3713,4.6468,catholic,C12,PA00116677,Q22966755,,,,,4.646075,4.647525,44.37173,44.37087
44.71,3.8724,,,PA00116725,Q2992100,Village de Concoules (ancien),3,1982-11-04 ,fr:Concoules (Lespéron),3.8716749999999998,3.873125,44.71043,44.70957
44.454,4.3401,building,C16,PA00116763,Q22966761,,3,1927-04-12 ,,4.3393749999999995,4.340825,44.45443,44.45357
44.7439,4.243,monastery,C13,PA00116679,Q3402968,Prieuré de Belvezet (ancien),3,1981-02-23 ,fr:Prieuré de Belvezet,4.242275,4.243725,44.74433,44.743469999999995
45.0675963,4.8336325,building,,PA00116833,Q22966765,Maison Louis XV,3,1927-05-31 ,,4.8329075,4.8343575,45.0680263,45.0671663
44.5675,4.6872,,C16,PA00116758,Q2969441,Domaine de Joviac (également sur commune de Le Teil),,,fr:Château de Joviac,4.686475,4.687925,44.567930000000004,44.56707
44.37166667,4.646805556,building,C15,PA00116671,Q22966749,Hôtel Nicolai,3,1926-07-09 ,,4.646080556,4.647530556,44.372096670000005,44.37123667
44.4795,4.24,castle,C16,PA00116713,Q2969442,,3,1988-04-19 ,fr:Château de Joyeuse,4.239275,4.240725,44.47993,44.47907
44.509,4.3727,castle,,PA00116641,Q2968410,,3,1927-05-31 ,fr:Château de Balazuc,4.371975,4.373425,44.50943,44.50857
44.6654,4.289,milestone,,PA00116742,Q2911164,Borne milliaire,2,1932-07-11 ,fr:Borne milliaire de Pont-de-Labeaume,4.288275,4.289725,44.66583,44.66497
45.2411111,4.6688888888889,monastery,convent,PA00116626,Q3001626,Couvent Sainte-Marie (ancien),3,1981-03-02 ,fr:Couvent Sainte-Marie d'Annonay,4.6681638888889,4.6696138888889,45.2415411,45.240681099999996
45.0683,4.832,milestone,,PA00116628,Q2911145,Borne milliaire,3,1926-11-15 ,fr:Borne milliaire d'Arras-sur-Rhône,4.831275,4.832725,45.06873,45.06787
44.36991667,4.641222222,,,PA00116653,Q22966730,Bas-relief mithriaque,2,1927-02-03 ,,4.640497222,4.641947222,44.37034667,44.36948667
44.5233,4.2022,castle,,PA00116813,Q2970955,Château de Versas,3,1927-05-31 ,fr:Château de Versas,4.201475,4.2029250000000005,44.52373,44.52287
44.5416,4.2921,building,C16,PA00116721,Q3278605,Maison Bastide (annexe de la mairie),2,1928-06-08 ,fr:Maison Bastide,4.2913749999999995,4.292825,44.542030000000004,44.54117
44.6023,4.4273,archaeological_site,fortification,PA00116723,Q3354369,Oppidum de Jastres-Sud,3,1986-07-31 ,fr:Oppidum de Jastres-Sud,4.426575,4.428025,44.60273,44.60187
44.482540732564,4.6893315017223,building,C18,PA00116861,Q3145836,Hôtel de Fontanes dit de Beaulieu,3,1986-08-01 ,fr:Hôtel de Fontanès,4.6886065017223,4.6900565017223,44.482970732564,44.482110732563996
44.480263815973,4.6643829345703,yes,C12,PA00116858,Q2956949,Chapelle Saint-Ostian,2,1983-03-21 ,fr:Chapelle Saint-Ostian de Viviers,4.6636579345703,4.6651079345703,44.480693815973,44.479833815972995
50.01,4.7268,,C17,PA00078555,Q3128434,Haut-fourneau,2,1991-03-14 ,fr:Haut-fourneau d'Haybes,4.726075,4.727525,50.01043,50.00957
49.7417,4.859,,C19,PA00078562,Q3077245,Ancienne usine,3,1991-10-18 ,fr:Forge de Vrigne-aux-Bois,4.858275,4.859725,49.74213,49.74127
49.5386,5.0576,building,C15,PA00078343,Q22915430,Maison à arcades,3,1927-02-28 ,,5.056875,5.058325,49.539030000000004,49.53817
49.7023,4.9475,,C16,PA00078517,Q2967807,"Château-Bas, à l'entrée de la citadelle",,,fr:Château-bas de Sedan,4.946775,4.948225,49.70273,49.70187
49.7626,4.713,,C19,PA08000014,Q15953433,Ancienne usine métallurgique  La Macérienne ,,,fr:Usine La Macérienne,4.712275,4.713725,49.76303,49.76217
49.9387,4.6306,,C20,PA08000015,Q15948419,"Cité ouvrière Biard, dite cité Paris-Campagne",3,2012-12-31 ,fr:Cité Paris-Campagne,4.629875,4.631325,49.93913,49.938269999999996
49.8527,4.464,,,PA00078427,Q2911190,Bornes de Saint-Rémi (également sur commune de Tremblois-les-Rocroi),2,1931-03-17 ,fr:Bornes de Saint-Rémi,4.463275,4.4647250000000005,49.85313,49.85227
49.4864,4.9369,building,C17,PA00078508,Q3280229,Maison natale de Dom Mabillon,3,1927-02-28 ,fr:Maison natale de Dom Mabillon,4.9361749999999995,4.937625,49.486830000000005,49.48597
49.761997,4.714175,,C15,PA00078363,Q22893721,Enceinte (ancienne),3,1926-07-19 ,,4.71345,4.7149,49.762427,49.761567
49.9252,4.5205,citywalls,C16,PA00078491,Q3078502,Fortifications (anciennes),,,fr:Fortifications de Rocroi,4.519775,4.521225,49.92563,49.924769999999995
49.5387,5.0575,building,C15,PA00078342,Q22915429,Maison à arcades,3,1927-02-28 ,,5.056775,5.058225,49.53913,49.53827
49.759782,4.720092,citywalls,C18,PA00078418,Q22915515,Remparts (anciens),3,1948-09-27 ,,4.719367,4.720817,49.760212,49.759352
49.5387,5.0575,building,C15,PA00078345,Q22915432,Maison à arcades,3,1927-02-28 ,,5.056775,5.058225,49.53913,49.53827
49.8483,4.4916,,,PA00078536,Q2911190,Bornes de Saint-Rémi (également sur commune de Chilly),2,1931-03-17 ,fr:Bornes de Saint-Rémi,4.490875,4.492325,49.84873,49.84787
49.7051,4.9446,monastery,convent,PA00078519,Q3001680,"Couvent des Capucins Irlandais (ancien), puis hôpital militaire",2,1962-06-25 ,fr:Couvent des Capucins irlandais,4.943875,4.945325,49.70553,49.70467
49.5808,5.1055,,,PA00078476,Q3066670,Temple antique du type «fanum»,2,1980-08-07 ,fr:Fanum de Mouzon,5.104775,5.106225,49.581230000000005,49.58037
49.634,5.1714,,C16,PA00078357,Q3078493,Anciennes fortifications,,,fr:Fortifications de Carignan,5.170675,5.172125,49.63443,49.63357
49.6036,4.7878,,C19,PA00078538,Q3128433,Ancien haut-fourneau,3,1972-03-23 ,fr:Haut-fourneau de Vendresse,4.787075,4.788525,49.60403,49.60317
49.4764,4.5334,,,PA00078352,Q2967809,Château-ferme,3,1945-07-11 ,fr:Château-ferme de Brieulles-sur-Bar,4.532675,4.534125,49.47683,49.47597
49.5387,5.0575,building,C15,PA00078344,Q22915431,Maison à arcades,3,1927-02-28 ,,5.056775,5.058225,49.53913,49.53827
49.3343,4.5951,,C20,PA00078525,Q3391823,Plate-forme d'artillerie,2,1922-09-12 ,fr:Plate-forme d'artillerie de Semide,4.594375,4.5958250000000005,49.33473,49.33387
49.6539,4.5388,,C18,PA00132580,Q3424007,Ancien relais de poste,3,1994-05-03 ,fr:Relais de poste à chevaux de Launois-sur-Vence,4.538075,4.539525,49.65433,49.65347
49.605,5.0767,building,C15,PA00078473,Q3280365,Maisons dites Maisons Espagnoles (quatre),3,1942-07-04 ,fr:Maisons espagnoles de Mouzon,5.075975,5.077425,49.60543,49.604569999999995
43.0222,1.9677,,C14,PA00093781,Q22936859,Ancien prieuré et remparts,,,,1.966975,1.968425,43.02263,43.02177
42.8653,1.2014,castle,,PA00135439,Q5118808,Château de Mirabat (également sur communes d'Oust et d'Ustou),3,1995-12-11 ,fr:Château de Mirabat,1.200675,1.202125,42.86573,42.864869999999996
43.0264,1.6955,,,PA00093811,Q15950310,Grotte ornée du Portel,2,1969-02-24 ,fr:Grotte du Portel,1.694775,1.696225,43.026830000000004,43.02597
43.1258,1.1744,marketplace,yes,PA00093904,Q22937183,Halle,3,1973-09-17 ,,1.173675,1.1751250000000002,43.12623,43.12537
43.0459,1.6278,building,C16,PA00093935,Q22937399,Maison en pans de bois,3,1944-10-18 ,,1.6270749999999998,1.628525,43.046330000000005,43.04547
43.0264,1.6955,building,C16,PA00093934,Q22937385,Maison en pans de bois,3,1944-10-18 ,,1.694775,1.696225,43.026830000000004,43.02597
42.8888,1.7928,wayside_cross,C17,PA00093887,Q22937143,Croix de carrefour en fer forgé,2,1979-06-08 ,,1.7920749999999999,1.793525,42.889230000000005,42.88837
42.8357,1.2029,castle,,PA09000003,Q22976216,Château de la Garde,,,,1.202175,1.2036250000000002,42.836130000000004,42.83527
42.8637,1.2006,,C16,PA00132657,Q22969313,Maison-forte,3,1994-03-16 ,,1.1998749999999998,1.201325,42.86413,42.86327
43.08825,1.87381,building,,PA00093830,Q22936948,Hôtel de ville,3,1929-06-25 ,,1.8730849999999999,1.874535,43.088680000000004,43.08782
43.0603,1.3373,archaeological_site,megalith,PA00093814,Q22936929,Dolmen de Bidot,2,1889 ,,1.3365749999999998,1.338025,43.06073,43.05987
48.591536,3.555257,building,C17,PA10000009,Q22976256,,3,1996-12-23 ,,3.554532,3.555982,48.591966,48.591105999999996
48.1448354,4.798177,,C17,PA10000010,Q3115316,Ancienne grange d'Outre-Aube,3,1998-04-08 ,fr:Grange d'Outre-Aube,4.797452,4.798902,48.1452654,48.1444054
48.434778,4.455333,,,PA00078136,Q22915393,Tronçons de voies romaines de Langres à Remps et de Troyes à Naix,3,1982-08-05 ,fr:Tronçons de voies romaines de Langres à Remps et de Troyes à Naix,4.454608,4.4560580000000005,48.435208,48.434348
48.4948,3.5015,,C16,PA00078170,Q2870789,Auditoire (ancien),3,1928-09-19 ,fr:Auditoire de Nogent-sur-Seine,3.500775,3.502225,48.49523,48.494369999999996
48.195931,4.076094,wayside_cross,,PA00078304,Q2934494,Calvaire dit La Croix Blanche,2,1977-03-28 ,fr:Calvaire de la Croix Blanche,4.075369,4.076819,48.196361,48.195501
48.041351,3.912479,city_gate,,PA00078107,Q3398964,Porte Saint-Nicolas,3,1926-06-16 ,fr:Porte Saint-Nicolas (Ervy-le-Châtel),3.9117539999999997,3.913204,48.041781,48.040921
48.298124,4.071652,building,C16,PA00078263,Q22915414,Hôtel d'Autruy,3,1925-12-21 ,fr:Hôtel d'Autruy,4.070927,4.072377,48.298554,48.297694
48.292256,4.078607,building,C18,PA10000028,Q22976260,Maison de la congrégation des Soeurs de la Providence,3,2010-09-06 ,,4.077882,4.079332,48.292686,48.291826
48.483838,3.54663,archaeological_site,megalith,PA00125374,Q3305898,Menhir dit de la Grande-Pierre,3,1993-05-14 ,fr:Menhir de la Grande-Pierre,3.545905,3.547355,48.484268,48.483408
48.447842,4.579719,wayside_cross,C18,PA00078288,Q3003407,Croix,3,1972-03-29 ,fr:Croix de Vallentigny,4.578994,4.580444,48.448272,48.447412
48.427259,4.413948,marketplace,yes,PA00078133,Q28019687,Halle,3,1982-12-29 ,fr:Halle de Lesmont,4.413223,4.4146730000000005,48.427689,48.426829
48.467007,3.56972,,,PA00135308,Q380385,Ancienne abbaye du Paraclet,,,fr:Abbaye du Paraclet,3.5689949999999997,3.570445,48.467437000000004,48.466577
48.375532,4.733917,bridge,C17,PA10000007,Q3396564,Pont d'une arche dit Henri IV,3,1996-12-03 ,fr:Pont de Henri IV (Soulaines-Dhuys),4.733192,4.734642,48.375962,48.375102
48.532024,3.687887,monastery,abbey,PA00078206,Q1259463,Abbaye de Sellières (ancienne),3,1988-08-26 ,fr:Abbaye de Sellières,3.687162,3.688612,48.532454,48.531594
48.341278,4.562167,,,PA00078209,Q22915402,Tronçons de voies romaines de Langres à Remps et de Troyes à Naix,3,1982-08-05 ,fr:Tronçons de voies romaines de Langres à Remps et de Troyes à Naix,4.5614419999999996,4.562892,48.341708000000004,48.340848
48.467007,3.56972,,C17,PA00078111,Q380385,Ancienne abbaye du Paraclet (également sur commune de Saint-Aubin),,,fr:Abbaye du Paraclet,3.5689949999999997,3.570445,48.467437000000004,48.466577
48.321528,4.579833,,,PA00078127,Q22915383,Tronçons de voies romaines de Langres à Remps et de Troyes à Naix,3,1982-08-05 ,fr:Tronçons de voies romaines de Langres à Remps et de Troyes à Naix,4.579108,4.580558,48.321958,48.321098
48.4336,3.6248,archaeological_site,megalith,PA00125375,Q3305925,Menhir dit de la Pierre à l'Abbé,3,1993-05-14 ,fr:Pierre à l'Abbé,3.624075,3.625525,48.43403,48.43317
48.146933,4.785978,,C12,PA00078313,Q647070,Ancienne abbaye de Clairvaux,,,fr:Abbaye de Clairvaux,4.785253,4.786703,48.147363,48.146502999999996
48.4274,4.4134,building,C18,PA00078134,Q22915385,Maison du 18s,3,1954-01-26 ,,4.412675,4.414125,48.42783,48.42697
48.4267,4.4141,building,C16,PA00078135,Q22915389,Maison à pans de bois,3,1982-12-29 ,,4.413375,4.414825,48.42713,48.426269999999995
48.2912,4.0159,archaeological_site,tumulus,PA00078233,Q5187529,Tumulus,2,1965-10-29 ,fr:Croix La Beigne,4.015175,4.016625,48.291630000000005,48.29077
48.5503,3.5988,,,PA00078310,Q3485402,Site archéologique,3,1982-04-06 ,fr:Site archéologique des Grèves,3.598075,3.5995250000000003,48.55073,48.54987
47.977839,4.496423,yes,C15,PA00078167,Q2382905,Grenier à sel (ancien),3,1984-10-11 ,fr:Grenier à sel de Mussy-sur-Seine,4.495698,4.497148,47.978269000000004,47.977409
48.350203,4.536227,,C18,PA00078098,Q2972517,,2,1980-12-15 ,fr:Cimetière de Dienville,4.535502,4.536952,48.350633,48.349773
48.153302,4.271536,wayside_cross,C17,PA00078115,Q3003480,Croix en fer,3,1926-05-29 ,fr:Croix de cimetière de Fouchères,4.270811,4.272261,48.153732,48.152871999999995
48.2248,4.2948,building,C16,PA10000004,Q22976251,Maison du 16e siècle,2,1997-03-24 ,,4.294075,4.2955250000000005,48.22523,48.22437
48.387095,3.525673,archaeological_site,megalith,PA00078237,Q3305910,Menhir dit la Pierre au Coq,2,1959-04-03 ,fr:Pierre-au-Coq (Soligny-les-Étangs),3.5249479999999997,3.526398,48.387525000000004,48.386665
48.339139,4.564667,,,PA00078061,Q22915377,Tronçons de voies romaines de Langres à Remps et de Troyes à Naix,3,1982-08-05 ,fr:Tronçons de voies romaines de Langres à Remps et de Troyes à Naix,4.563942,4.565392,48.339569000000004,48.338709
48.027634,4.016608,wayside_cross,C16,PA00078292,Q3003534,Croix de cimetière,2,1912-11-30 ,fr:Croix de cimetière de Vanlay,4.015883,4.017333,48.028064,48.027204
48.140223,4.675549,,C13,PA10000026,Q3280269,Ancienne maison seigneuriale,3,2010-04-26 ,fr:Maison seigneuriale de Champignol-lez-Mondeville,4.674824,4.676274,48.140653,48.139793
48.00428,4.36809,building,C17,PA00078203,Q22915401,Maison du 17s,3,1943-09-16 ,,4.3673649999999995,4.368815,48.00471,48.00385
48.032853,4.198017,,C16,PA00078175,Q2872351,Autel et croix,3,1925-05-15 ,fr:Autel de Pargues,4.197292,4.198742,48.033283000000004,48.032423
48.508431,4.573022,building,C16,PA00078082,Q22915381,Maison à pans de bois,3,1928-10-29 ,,4.572297,4.573747,48.508861,48.508001
48.031056,4.197651,,C20,PA10000031,Q15242260,Eolienne de Pargues,3,2011-11-28 ,fr:Éolienne de Pargues,4.1969259999999995,4.198376,48.031486,48.030626
47.959832,4.020964,,,PA00078093,Q2956856,Autel et croix,3,1925-05-15 ,fr:Chapelle Saint-Jacques de Coussegrey,4.020239,4.021689,47.960262,47.959402
48.1706,4.6707,,,PA00078285,Q3591544,Etablissement gallo-romain (vestiges),3,1988-11-03 ,fr:Établissement gallo-romain du Val de Millières,4.669975,4.671425,48.17103,48.17017
47.955929,4.1326,wayside_cross,C16,PA00078110,Q3003564,Croix de la fontaine Saint-Georges,2,1942-04-14 ,fr:Croix de la fontaine Saint-Georges,4.131875,4.133325,47.956359,47.955498999999996
48.4591,3.941,,,PA00135307,Q3485403,Site archéologique des Hardillères,3,1995-10-10 ,fr:Site archéologique des Hardillères,3.9402749999999997,3.941725,48.45953,48.45867
48.29562,4.07042,building,C16,PA00078281,Q22915425,,3,1926-06-16 ,fr:Hôtel Deheurles,4.069695,4.0711450000000005,48.29605,48.29519
48.555,3.598,,,PA00078311,Q3497423,Station de potiers gallo-romains,2,1937-09-23 ,fr:Station de potiers gallo-romains de La Villeneuve-au-Châtelot,3.597275,3.598725,48.55543,48.55457
48.2991,4.0802,building,C16,PA00078269,Q18292638,Hôtel du Petit Louvre,3,1986-09-10 ,fr:Hôtel du Petit Louvre,4.0794749999999995,4.080925,48.299530000000004,48.29867
48.114566,4.646788,,C13,PA10000015,Q3115327,Ancienne grange de Sermoise,3,2001-11-12 ,fr:Grange de Sermoise,4.646063,4.647513,48.114996000000005,48.114136
48.555325,3.503129,archaeological_site,megalith,PA00125378,Q3305913,Menhir dit de la Pierre Aiguë,3,1993-05-14 ,fr:Pierre Aiguë,3.502404,3.503854,48.555755000000005,48.554895
48.628643,4.239537,wayside_cross,C14,PA00078246,Q3003533,Croix de cimetière,2,1909-04-14 ,fr:Croix de cimetière de Trouans,4.238812,4.240262,48.629073,48.628212999999995
48.309028,4.586306,,,PA00078244,Q22915405,Tronçons de voies romaines de Langres à Remps et de Troyes à Naix,3,1982-08-05 ,fr:Tronçons de voies romaines de Langres à Remps et de Troyes à Naix,4.585581,4.5870310000000005,48.309458,48.308597999999996
48.335944,4.567694,,,PA00078284,Q22915428,Tronçons de voies romaines de Langres à Remps et de Troyes à Naix,3,1982-08-05 ,fr:Tronçons de voies romaines de Langres à Remps et de Troyes à Naix,4.566969,4.5684190000000005,48.336374,48.335513999999996
48.434778,4.45533333,,,PA00078217,Q22915403,Tronçons de voies romaines de Langres à Remps et de Troyes à Naix,3,1982-08-05 ,fr:Tronçons de voies romaines de Langres à Remps et de Troyes à Naix,4.45460833,4.45605833,48.435208,48.434348
48.4085,4.515222,,,PA00078068,Q22915380,Tronçons de voies romaines de Langres à Remps et de Troyes à Naix,3,1982-08-05 ,fr:Tronçons de voies romaines de Langres à Remps et de Troyes à Naix,4.5144969999999995,4.515947,48.40893,48.408069999999995
48.375291,4.735703,building,C17,PA00078241,Q2364281,Maison communale,3,1926-06-19 ,fr:Maison communale de Soulaines-Dhuys,4.734978,4.736428,48.375721,48.374860999999996
48.375548,4.734061,building,,PA00078240,Q22915404,,3,1970-01-21 ,,4.7333359999999995,4.734786,48.375978,48.375118
48.434778,4.455333,,,PA00078052,Q22915375,"Tronçons de voies romaines de Langres à Remps, et de Troyes à Naix",3,1982-08-05 ,fr:Tronçons de voies romaines de Langres à Remps et de Troyes à Naix,4.454608,4.4560580000000005,48.435208,48.434348
48.585877,3.490557,,C12,PA00078160,Q2985852,Ancienne commanderie de templiers de Fresnoy,2,1994-01-04 ,fr:Commanderie de Fresnoy,3.489832,3.491282,48.586307000000005,48.585447
48.228096,4.30597,,C17,PA10000016,Q639245,Ancienne abbaye,3,2001-11-12 ,fr:Abbaye Saint-Pierre de Montiéramey,4.305245,4.306695,48.228526,48.227666
48.146271,4.218471,castle,manor,PA00078213,Q3286386,Manoir des Tourelles,2,1903-05-22 ,fr:Manoir des Tourelles,4.217746,4.219196,48.146701,48.145841
48.041659,3.911363,marketplace,yes,PA00078106,Q3126080,Halle,3,1947-05-30 ,fr:Halle d'Ervy-le-Châtel,3.910638,3.9120880000000002,48.042089000000004,48.041229
47.9767,4.5005,tower,yes,PA00078168,Q3533666,Tour du Boulevard,3,1984-11-09 ,fr:Tour du Boulevard,4.499775,4.501225,47.97713,47.97627
47.988615,4.362023,marketplace,yes,PA00078202,Q3126096,Halle de Ricey-Haut,3,1980-05-14 ,fr:Halle de Ricey-Haut,4.361298,4.362748,47.989045000000004,47.988185
48.304607,4.554729,farm,C16,PA00125379,Q3068931,Ferme du Breuil (ancienne grange de l'abbaye de Clairvaux),3,1993-02-25 ,fr:Ferme du Breuil,4.554004,4.555454,48.305037,48.304176999999996
48.434778,4.455333,,,PA00078193,Q22915399,Tronçons de voies romaines de Langres à Remps et de Troyes à Naix,3,1982-08-05 ,fr:Tronçons de voies romaines de Langres à Remps et de Troyes à Naix,4.454608,4.4560580000000005,48.435208,48.434348
48.494156,3.500739,building,C18,PA00078172,Q22915396,,3,1929-06-25 ,,3.5000139999999997,3.501464,48.494586,48.493725999999995
43.212034,2.349567,building,C16,PA00102611,Q22953425,Maison Gally,3,1947-05-30 ,,2.348842,2.350292,43.212464000000004,43.211604
43.278,2.6619,building,C14,PA00102549,Q3278679,Maison Cros,3,1948-04-14 ,fr:Maison Cros,2.661175,2.6626250000000002,43.27843,43.27757
43.1857,2.2661,,C16,PA00102738,Q3003598,Deux croix discoïdales encastrées dans un cimetière,3,1948-09-27 ,fr:Croix discoïdales de Lavalette,2.2653749999999997,2.266825,43.18613,43.185269999999996
43.212585,2.352158,building,C17,PA00102608,Q22953421,Maison Cotte,3,1948-04-13 ,,2.351433,2.3528830000000003,43.213015,43.212154999999996
43.3496,1.9843,,C16,PA00102624,Q2968785,Ancien château,3,1948-04-27 ,fr:Château de Castelnaudary,1.9835749999999999,1.985025,43.350030000000004,43.34917
43.3261,2.5292,,C17,PA00102644,Q3145982,Ancien hôtel de Tapié,3,1948-04-10 ,fr:Hôtel de Tapié,2.528475,2.529925,43.32653,43.325669999999995
43.211455,2.35477,,C18,PA00102599,Q22953403,Ancien hôtel de Murat,3,1939-05-13 ,,2.3540449999999997,2.355495,43.211885,43.211025
43.2155,2.3518,building,C18,PA00102603,Q22953407,,3,1948-04-10 ,,2.351075,2.352525,43.21593,43.21507
43.1829,3.0064,building,C17,PA00102817,Q22953472,,3,1946-12-27 ,,3.005675,3.0071250000000003,43.18333,43.182469999999995
43.0069,2.6274,building,C18,PA00102926,Q22953500,Maison dite Azalbert,3,1952-04-07 ,,2.626675,2.6281250000000003,43.00733,43.00647
43.267,2.7053,,C17,PA11000008,Q3396362,Canal du Midi,3,1997-12-11 ,fr:Canal du Midi,2.7045749999999997,2.706025,43.267430000000004,43.26657
43.3253,1.8848,,C17,PA11000003,Q22976269,Canal du Midi,3,1996-09-19 ,fr:Canal du Midi,1.884075,1.8855250000000001,43.32573,43.32487
42.9964,2.2563,building,C17,PA00102523,Q22953366,Maison Digeon,3,1948-04-05 ,,2.255575,2.257025,42.99683,42.99597
43.4064,2.485,wayside_cross,C17,PA00102622,Q3003640,Croix du lavoir,3,1948-04-13 ,fr:Croix du lavoir de Castans,2.484275,2.485725,43.40683,43.405969999999996
43.0917,2.6186,building,C14,PA00102717,Q3278886,Maison Maynard,3,1931-08-27 ,fr:Maison Maynard,2.6178749999999997,2.619325,43.092130000000004,43.09127
43.3176,1.9567,building,C18,PA00102630,Q3145848,Hôtel de Gauzy,3,1948-04-10 ,fr:Hôtel de Gauzy,1.955975,1.9574250000000002,43.31803,43.31717
43.1994,3.1873,archaeological_site,roman_villa,PA00102691,Q3079947,"Villa gallo-romaine, dite Fount de Rome",2,1970-06-30 ,fr:Fount de Rome,3.186575,3.188025,43.19983,43.198969999999996
43.3179,1.9558,building,C18,PA00102629,Q3145741,Hôtel de Bataille,3,1948-04-10 ,fr:Hôtel de Bataille,1.955075,1.956525,43.31833,43.31747
43.211107,2.35145,fountain,yes,PA00102597,Q22953401,Fontaine Saint-Michel,3,1948-04-10 ,,2.3507249999999997,2.352175,43.211537,43.210677
43.3146,1.804,wayside_cross,C17,PA00102557,Q3003433,Croix de chemin,2,1941-10-01 ,fr:Croix de chemin de Belflou,1.803275,1.8047250000000001,43.31503,43.31417
43.408,1.8752,wayside_cross,,PA00102893,Q3003596,Croix discoïdale,3,1952-04-07 ,fr:Croix discoïdale de Saint-Paulet,1.874475,1.875925,43.40843,43.40757
43.3188,1.9542,building,C17,PA00102634,Q3279001,Maison Sibra et Dunyach,3,1948-04-10 ,fr:Maison Sibra et Dunyach,1.9534749999999999,1.954925,43.319230000000005,43.31837
43.2502,2.6678,,C17,PA11000006,Q22976275,Canal du Midi,3,1996-09-19 ,fr:Canal du Midi,2.667075,2.6685250000000003,43.25063,43.24977
43.19841,1.7525,yes,,PA00102561,Q2957475,Chapelle du Saint-Sépulcre,,,fr:Chapelle du Saint-Sépulcre de Belpech,1.7517749999999999,1.753225,43.198840000000004,43.19798
43.3156,1.9589,,C18,PA00102937,Q3145275,Hôpital,,,fr:Hôpital de Castelnaudary,1.958175,1.9596250000000002,43.316030000000005,43.31517
43.1803,3.0021,yes,C16,PA00102841,Q22953497,Vestiges des anciens remparts,3,1946-12-19 ,,3.001375,3.002825,43.180730000000004,43.17987
43.0063,2.6274,,C14,PA00102923,Q3488733,Socle de croix,3,1926-02-17 ,fr:Socle de croix de Villerouge-Termenès,2.626675,2.6281250000000003,43.006730000000005,43.00587
43.3148,1.9611,wayside_cross,C16,PA00102627,Q3003313,Croix de pierre,2,1913-12-27 ,fr:Croix de Castelnaudary,1.960375,1.9618250000000002,43.31523,43.31437
42.997,2.2558,building,C16,PA00102527,Q22953374,,3,1948-04-05 ,,2.2550749999999997,2.256525,42.99743,42.99657
43.1441,3.0036,,,PA00102807,Q22953459,Site archéologique de Port La Nautique,,,,3.002875,3.004325,43.14453,43.14367
43.2239,2.2562,wayside_cross,C13,PA00102646,Q3003315,Croix,3,1948-04-27 ,fr:Croix de Caux-et-Sauzens,2.255475,2.2569250000000003,43.22433,43.22347
43.269,2.4004,building,C16,PA00102658,Q3278731,Maison Fraisse,3,1948-04-13 ,fr:Maison Fraisse,2.399675,2.401125,43.26943,43.26857
43.1853,3.0029,yes,C13,PA00102792,Q22953445,Chapelle des Pénitents-Bleus,3,1956-06-18 ,,3.002175,3.003625,43.18573,43.18487
43.2832,2.5842,,,PA00102875,Q3483931,Ancien silo,3,1963-04-24 ,fr:Silo de Rieux-Minervois,2.583475,2.584925,43.28363,43.28277
43.23911,2.37357,wayside_cross,C16,PA00102590,Q22953392,Croix du Pont-Rouge,3,1948-04-10 ,,2.372845,2.374295,43.23954,43.238679999999995
43.309457,2.2151,wayside_cross,C16,PA00102782,Q3003364,Croix en fer forgé,3,1948-09-27 ,fr:Croix de Montolieu,2.214375,2.215825,43.309887,43.309027
43.2043,2.3917,wayside_cross,C18,PA00102589,Q22953391,Croix,3,1946-12-12 ,,2.390975,2.3924250000000002,43.204730000000005,43.20387
42.97576,2.92344,,,PA00102879,Q2911200,Bornes milliaires et vestiges d'habitat,2,1974-02-26 ,fr:Bornes milliaires de Roquefort-des-Corbières,2.9227149999999997,2.924165,42.97619,42.97533
43.1842,3.004,,C12,PA00102789,Q2274963,Ancien archevêché et ses abords,,,fr:Chapelle de la Madeleine (Narbonne),3.003275,3.004725,43.18463,43.183769999999996
43.1822,2.3242,,,PA00102935,Q3107778,Gisement néolithique de La Farguette,3,1990-08-22 ,fr:Gisement néolithique de La Farguette,2.3234749999999997,2.324925,43.18263,43.18177
43.189911,3.010315,,,PA00102842,Q3556386,Vestiges archéologiques d'époque gallo-romaine,,,,3.0095899999999998,3.01104,43.190341000000004,43.189481
42.9968,2.2556,building,,PA00102528,Q22953375,,3,1951-02-07 ,,2.2548749999999997,2.256325,42.99723,42.99637
43.326,2.527,,,PA00102640,Q2820255,Ancienne église abbatiale,,,fr:Abbatiale Saint-Pierre-et-Saint-Paul de Caunes-Minervois,2.526275,2.527725,43.32643,43.32557
43.3605556,2.14402778,place_of_worship,christian,PA00102784,Q2984029,Église Saint-Vincent,2,1862 ,fr:Collégiale Saint-Vincent de Montréal,2.14330278,2.14475278,43.3609856,43.360125599999996
43.3121,2.9107,,C17,PA00102537,Q2968109,Ancien château d'Argeliers,3,1951-02-07 ,fr:Château d'Argeliers,2.9099749999999998,2.911425,43.31253,43.31167
43.276983,2.659008,,C15,PA00102546,Q2957374,Ancienne chapelle des Clarisses,3,1948-04-13 ,fr:Chapelle des Clarisses d'Azille,2.658283,2.659733,43.277413,43.276553
43.237762,2.373261,,C17,PA11000001,Q22976264,Canal du Midi,3,1996-09-19 ,,2.3725359999999998,2.373986,43.238192,43.237331999999995
42.9964,2.2567,building,C12,PA00102524,Q22953367,Maison Fradin,3,1948-04-05 ,,2.255975,2.257425,42.99683,42.99597
43.0397,2.7298,wayside_cross,C16,PA00102704,Q3003485,Croix de cimetière et autel,3,1962-10-08 ,fr:Croix de cimetière de Jonquières,2.729075,2.730525,43.040130000000005,43.03927
43.317,1.9575,building,C16,PA00102633,Q3278969,Maison Rigaud,3,1948-04-10 ,fr:Maison Rigaud,1.956775,1.958225,43.31743,43.31657
43.1814,3.001,building,C16,PA00135719,Q3279897,Maison dite des Trois Nourrices,2,1913-02-10 ,fr:Maison des Trois Nourrices,3.000275,3.001725,43.18183,43.180969999999995
43.327,2.5281,building,C16,PA00102642,Q3145703,Hôtel d'Alibert,,,fr:Hôtel d'Alibert,2.5273749999999997,2.528825,43.32743,43.32657
43.3156,1.9589,,C18,PA00102631,Q3146137,Ancien hôtel de ville,3,1948-04-10 ,fr:Hôtel de ville de Castelnaudary,1.958175,1.9596250000000002,43.316030000000005,43.31517
42.9967,2.2561,building,C17,PA00102526,Q22953372,Maison Maury-Rigaud,3,1948-04-05 ,,2.255375,2.256825,42.99713,42.996269999999996
43.327,2.5278,,C16,PA00102643,Q3145975,Ancien hôtel de Sicard,3,1948-04-10 ,fr:Hôtel de Sicard,2.527075,2.528525,43.32743,43.32657
43.2116,2.3502,,C16,PA00102595,Q22953399,Evêché,3,1948-04-10 ,,2.349475,2.350925,43.21203,43.211169999999996
43.3176,1.956,,C14,PA00102625,Q2979777,Restes du cloître des Cordeliers,3,1929-03-20 ,fr:Cloître des Cordeliers de Castelnaudary,1.9552749999999999,1.956725,43.31803,43.31717
43.212714,2.348338,,C18,PA00102582,Q22953386,Ancien bassin de distribution des eaux,3,1947-05-29 ,,2.347613,2.349063,43.213144,43.212284
43.32,1.9543,,C14,PA00102626,Q3001683,Ancien couvent des Carmes,3,1948-04-14 ,fr:Couvent des Carmes de Castelnaudary,1.9535749999999998,1.955025,43.32043,43.31957
43.184121,3.000185,,C14,PA11000046,,Ancienne église des Carmes,3,2014-11-28 ,,2.99946,3.00091,43.184551,43.183690999999996
43.3117,1.9633,,C18,PA00102632,Q3162291,Jardin Bauzé,3,1948-04-10 ,fr:Jardin Bauzé,1.962575,1.9640250000000001,43.31213,43.31127
43.2958,2.3152,wayside_cross,C16,PA00102535,Q3003429,Croix de chemin,2,1932-09-24 ,fr:Croix de chemin d'Aragon,2.314475,2.315925,43.29623,43.29537
43.1868,3.0077,,C14,PA00102799,Q22953452,Restes de l'église et du couvent des Cordeliers,3,1947-03-06 ,,3.0069749999999997,3.008425,43.18723,43.18637
43.1853,2.2677,wayside_cross,C16,PA00102737,Q3003496,Croix de cimetière,3,1949-11-22 ,fr:Croix de cimetière de Lavalette,2.266975,2.268425,43.18573,43.18487
43.1905,2.334,,,PA00102934,Q22953503,Habitat néolithique d'Auriac,3,1990-08-22 ,,2.333275,2.334725,43.19093,43.19007
43.2662,2.904,,,PA11000016,Q986344,Canal du Midi : hameau du Somail,,,fr:Canal du Midi,2.903275,2.904725,43.26663,43.265769999999996
43.1795,3.0159,,,PA00102793,Q22953446,Cimetière païen et paléochrétien de Saint-Loup,,,,3.0151749999999997,3.016625,43.17993,43.179069999999996
43.3809,2.3346,wayside_cross,C16,PA00102909,Q3003341,Croix en fer forgé sur la place,3,1951-06-25 ,fr:Croix de La Tourette-Cabardès,2.333875,2.335325,43.38133,43.380469999999995
43.205031,2.362608,place_of_worship,christian,PA00102593,Q22953396,Église Saint-Saturnin,3,1946-12-11 ,,2.3618829999999997,2.363333,43.205461,43.204601
43.1439,2.9987,,,PA11000043,Q22995575,Vivier antique du lac des Capelles,2,2013-08-02 ,,2.997975,2.999425,43.144330000000004,43.14347
42.8574,2.7234,,C20,PA11000045,Q22995579,Ancienne cave coopérative,3,2013-11-19 ,,2.7226749999999997,2.724125,42.85783,42.85697
43.3119,1.9609,,C17,PA11000004,Q202494,Canal du Midi,3,1996-09-19 ,fr:Canal du Midi,1.960175,1.9616250000000002,43.31233,43.31147
43.2966,2.3141,castle,C16,PA00102536,Q2968090,,3,1948-04-10 ,fr:Château d'Aragon,2.3133749999999997,2.314825,43.29703,43.29617
42.9527,2.3742,wayside_cross,C14,PA00102540,Q3003289,Croix en fer forgé,3,1948-04-27 ,fr:Croix d'Arques,2.373475,2.374925,42.95313,42.95227
42.9971,2.2559,building,C16,PA00102522,Q22953365,Maison Calmet,3,1948-04-14 ,,2.255175,2.256625,42.997530000000005,42.99667
43.3258,2.4213,,,PA00102898,Q3117231,Grotte dite du Gazel ou des Marronniers,2,1948-04-29 ,fr:Grotte du Gazel,2.420575,2.422025,43.32623,43.32537
43.1829,3.0026,building,C13,PA00102832,Q22953490,,3,1946-12-19 ,,3.001875,3.0033250000000002,43.18333,43.182469999999995
43.1817,3.0023,building,C12,PA00102827,Q22953486,,3,1934-09-21 ,,3.001575,3.003025,43.18213,43.18127
43.2287,2.3973,,C12,PA00102591,Q22953393,Ancienne église Saint-Martin-de-Poursan,3,1948-04-13 ,,2.396575,2.398025,43.229130000000005,43.22827
43.1843,3.0007,,C17,PA00102839,Q22953495,Puits,3,1946-12-19 ,,2.999975,3.0014250000000002,43.18473,43.18387
43.096743,2.520273,wayside_cross,C16,PA00102904,Q3003458,Croix de chemin en pierre,2,1911-07-02 ,fr:Croix de chemin de Serviès-en-Val,2.519548,2.520998,43.097173,43.096312999999995
43.298424,2.679943,,,PA00102853,Q2957244,Ancienne chapelle seigneuriale sur le Plô,3,1942-11-19 ,fr:Chapelle de Pépieux,2.679218,2.6806680000000003,43.298854,43.297993999999996
43.149071,3.145219,,,PA00102788,Q22953442,Vestiges de l'amphithéatre gallo-romain,,,,3.144494,3.145944,43.149501,43.148641
43.0918,2.6193,building,C14,PA00102714,Q22953437,,2,1930-10-01 ,,2.618575,2.620025,43.09223,43.09137
43.28791,2.97096,yes,C13,PA00102845,Q3076360,Ruines de l'ancienne grange cistercienne de Fontcalvy,2,1983-12-09 ,fr:Fontcalvy,2.9702349999999997,2.971685,43.28834,43.287479999999995
44.2592,2.4868,,C16,PA12000034,Q3126049,Halle-oratoire du hameau de Naves,3,2004-10-11 ,fr:Halle-oratoire de Naves,2.486075,2.487525,44.25963,44.25877
44.3518,2.5768,building,,PA00094232,Q22937841,,3,1947-07-21 ,,2.576075,2.577525,44.35223,44.351369999999996
44.287762,2.872863,,C15,PA00094182,Q3003401,Deux croix de pierre,2,1979-07-11 ,fr:Croix de Ségur,2.872138,2.8735880000000003,44.288192,44.287332
44.348139,2.038361,building,C16,PA00094225,Q22937825,,3,1935-11-18 ,,2.037636,2.039086,44.348569000000005,44.347709
43.9129,3.3166,,C12,PA00094009,Q3424618,Anciens remparts,2,1895-04-06 ,fr:Remparts de La Couvertoirade,3.315875,3.3173250000000003,43.91333,43.91247
44.21773,1.9723,,,PA00094086,Q3399146,Restes de la porte de Ville,3,1928-02-17 ,fr:Porte de ville (Najac),1.9715749999999999,1.973025,44.218160000000005,44.2173
44.34938421,2.574794,,C18,PA00094132,Q3146066,Préfecture,3,1947-06-23 ,fr:Hôtel de préfecture de l'Aveyron,2.5740689999999997,2.575519,44.34981421,44.348954209999995
43.913889,3.317222,tower,defensive,PA00094005,Q2985869,Donjon et les restes du château,2,1945-05-26 ,fr:Commanderie de La Couvertoirade,3.316497,3.317947,43.914319,43.913458999999996
44.34905706,2.57544566,building,C16,PA00094126,Q22937677,Maison Renaissance dite de l'Annonciation,2,1976-05-25 ,,2.57472066,2.5761706600000003,44.34948706,44.34862706
44.3517,2.5768,catholic,C17,PA00094133,Q22937716,Presbytère de la cathédrale,3,1950-04-17 ,,2.576075,2.577525,44.35213,44.35127
43.8837,2.6029,building,C16,PA12000026,Q3278868,Maison Malaval,3,2003-02-24 ,fr:Maison Malaval,2.602175,2.603625,43.88413,43.883269999999996
44.34869336,2.57433517,building,C16,PA00094123,Q22937654,,3,1950-04-17 ,,2.57361017,2.57506017,44.34912336,44.34826336
43.8417,2.673,marketplace,yes,PA12000033,Q3126087,Halle,2,2004-10-11 ,fr:Halle de Combret,2.672275,2.673725,43.842130000000004,43.84127
44.353583,2.0373333,,C15,PA12000029,Q22995581,Ancienne église Saint-Jacques,3,2003-09-18 ,,2.0366082999999997,2.0380583,44.354013,44.353153
43.94527625,2.8358883,,C18,PA00094193,Q3361234,Ancien évêché,3,1983-12-29 ,fr:Palais épiscopal de Vabres-l'Abbaye,2.8351633,2.8366133000000002,43.94570625,43.94484625
44.34857731,2.5767779,building,C17,PA00094129,Q22937705,,3,1947-07-03 ,,2.5760529,2.5775029000000003,44.349007310000005,44.34814731
44.350887,2.57248,,C19,PA12000055,,"Grand Hôtel Le Broussy, aujourd'hui Hôtel Mercure, et Grand Café Riche, actuel café Le Broussy s",3,2014-10-16 ,,2.571755,2.573205,44.351317,44.350457
44.00890695,3.15771622,citywalls,C15,PA12000014,Q3078497,Fortifications,3,1998-09-28 ,fr:Fortifications de La Cavalerie,3.15699122,3.1584412200000003,44.00933695,44.008476949999995
43.88238446,2.6022433,,,PA00094166,Q3146185,Ancien hôtel de ville,2,1897-03-06 ,fr:Hôtel de ville de Saint-Sernin-sur-Rance,2.6015183,2.6029683,43.88281446,43.881954459999996
44.34870312,2.57456031,building,C16,PA00094122,Q22937646,,3,1950-04-17 ,,2.5738353099999998,2.57528531,44.349133120000005,44.34827312
44.352167,2.037139,building,C15,PA00094223,Q22937808,Maison du 15e siècle,,,,2.0364139999999997,2.037864,44.352597,44.351737
44.3503,2.5743,building,C17,PA00094120,Q22937634,,3,1947-06-23 ,,2.573575,2.575025,44.35073,44.349869999999996
44.49771624,2.13795588,,,PA00094253,Q3289850,Marché couvert médiéval,3,1992-09-03 ,fr:Halle (construction),2.1372308799999997,2.13868088,44.498146240000004,44.49728624
44.12965756,2.93149976,,C15,PA12000005,Q3456832,Réseau hydraulique médiéval,3,1997-02-28 ,fr:Réseau hydraulique médiéval de Castelnau-Pégayrols,2.93077476,2.93222476,44.13008756,44.12922756
44.43679225,2.03170352,,,PA12000003,Q3403063,Ancien prieuré,3,1996-10-22 ,fr:Prieuré de Villeneuve,2.03097852,2.0324285200000003,44.437222250000005,44.43636225
43.9262,2.5469,wayside_cross,,PA00094100,Q3003374,Croix de pierre,2,1929-03-08 ,fr:Croix de Plaisance,2.546175,2.547625,43.92663,43.92577
44.4635,2.6319,,,PA00132663,Q3034162,Site archéologique du dolmen du Roc de la Françoune,,,fr:Dolmen du Roc de la Françoune,2.631175,2.632625,44.463930000000005,44.46307
44.344139,2.032917,,C15,PA00094202,Q2961253,Ancienne chartreuse Saint-Sauveur,2,1840 ,fr:Chartreuse Saint-Sauveur,2.0321919999999998,2.033642,44.344569,44.343709
44.2726,2.5235,marketplace,yes,PA00093983,Q3126084,Halle,2,1937-12-02 ,fr:Halle de Calmont,2.5227749999999998,2.524225,44.27303,44.272169999999996
44.073197,2.88374,building,C13,PA00094199,Q22937747,"Maison du 13e siècle, à l'entrée du village du Minier",3,1932-10-04 ,,2.883015,2.884465,44.073627,44.072767
44.36826421,2.93945519,archaeological_site,megalith,PA00094034,Q3034110,Dolmen de la Vernhiette,2,1989-07-12 ,fr:Dolmen de la Vernhiette,2.93873019,2.94018019,44.36869421,44.36783421
44.43766,2.033163,building,C15,PA00094229,Q22937833,Maison voisine de la porte de ville carrée,3,1928-02-17 ,,2.032438,2.033888,44.43809,44.43723
44.35036137,2.5749701,building,C15,PA00094119,Q22937626,Maison de Benoit,2,1944-01-21 ,,2.5742450999999997,2.5756951,44.35079137,44.34993137
44.34971574,2.57503619,building,C16,PA00094128,Q22937699,,3,1950-04-17 ,,2.57431119,2.57576119,44.35014574,44.34928574
44.5028,2.0066,,,PA00094028,Q2284047,Galerie de la rivière souterraine de la Jonquière : partie dite Grotte de Foissac,2,1978-03-06 ,fr:Grotte de Foissac,2.005875,2.0073250000000002,44.50323,44.50237
44.352,2.0375,building,C16,PA00094208,Q22937767,Maison Armand,,,,2.036775,2.038225,44.35243,44.351569999999995
44.5531382,2.6719188,bridge,,PA12000038,Q3396831,Pont dit d'Estaing,,,fr:Pont d'Estaing,2.6711937999999997,2.6726438,44.5535682,44.5527082
44.10245363,2.90562512,building,C13,PA00094070,Q3278612,Maison Bermont,3,1930-03-18 ,fr:Maison Bermont,2.9049001199999998,2.90635012,44.10288363,44.10202363
44.18267739,2.78673605,building,C15,PA00094172,Q15950290,Maison du 15s,3,1928-02-13 ,fr:Grenier-des-Évêques,2.78601105,2.78746105,44.18310739,44.18224739
43.9989,2.621,,,PA00093978,Q3355128,Oratoire,3,1937-05-13 ,fr:Oratoire de Brousse-le-Château,2.620275,2.621725,43.99933,43.99847
44.33705066,2.6273758,building,C16,PA00094163,Q22937722,Maison Renaissance,3,1978-07-17 ,,2.6266507999999997,2.6281008,44.337480660000004,44.33662066
44.3496572,2.57545236,building,,PA00094130,Q22937712,,3,1947-07-03 ,,2.57472736,2.57617736,44.350087200000004,44.3492272
44.097887,3.078833,,C11,PA00094062,Q3145847,Ancien hôtel de Galy,3,1978-07-11 ,fr:Hôtel de Galy,3.078108,3.079558,44.098317,44.097457
44.35197127,2.5759152,building,C16,PA00094243,Q22937860,Hôtel de Bonald,3,1991-10-14 ,,2.5751901999999998,2.5766402,44.35240127,44.35154127
44.350577,2.563907,,C16,PA00094111,Q17484074,Ancien collège des Jésuites ou ancien lycée Foch,,,fr:Ancien collège des jésuites de Rodez,2.563182,2.564632,44.351007,44.350147
44.449044,2.488162,building,C18,PA00094180,Q22937734,Maison de la fin du 18e siècle,3,1947-07-28 ,,2.487437,2.488887,44.449474,44.448614
44.4965,2.1398,,C15,PA00094254,Q22937868,"Ancienne porte de Ville, dite Porte de la Barbacane",3,1993-11-25 ,,2.139075,2.1405250000000002,44.49693,44.496069999999996
44.34864457,2.57470358,building,C15,PA00094121,Q22937642,,3,1950-04-17 ,,2.57397858,2.57542858,44.34907457,44.348214569999996
44.35333239,2.58117772,bridge,C14,PA00094131,Q3397008,Pont de La Guioule-sous-Rodez,3,1947-06-17 ,fr:Pont de La Guioule-sous-Rodez,2.58045272,2.58190272,44.35376239,44.35290239
44.5226,2.3808,wayside_cross,C15,PA00094145,Q3003523,"Croix de cimetière à double face, de la fin du 15e siècle",2,1958-10-11 ,fr:Croix de cimetière de Saint-Cyprien-sur-Dourdou,2.3800749999999997,2.381525,44.52303,44.522169999999996
44.352083,2.036972,building,C16,PA00094222,Q22937807,,2,1928-08-21 ,,2.036247,2.037697,44.352513,44.351653
44.3484,2.5761,building,,PA00094124,Q22937665,,3,1947-07-03 ,,2.5753749999999997,2.576825,44.34883,44.34797
44.35033123,2.57523497,building,,PA00094117,Q22937621,Maison des Anglais,2,1862 ,,2.57450997,2.57595997,44.35076123,44.34990123
43.6503,4.5955,building,C16,PA00081164,Q22986097,Maison dite La Rougnoux,3,1932-10-04 ,,4.594775,4.5962250000000004,43.65073,43.64987
43.744188821757,4.7949796915054,citywalls,,PA00081225,Q22986188,,2,1904-06-09 ,,4.7942546915054,4.7957046915054,43.744618821757,43.743758821757
43.5923,5.1278,,,PA00081314,Q22986375,Le portail dit de Bouissière,3,1933-06-06 ,,5.127075,5.128525,43.59273,43.59187
43.5921631,5.1260719,,,PA00081315,Q22986376,"Portail en pierre, sculpté",3,1933-05-01 ,,5.1253469,5.1267969,43.5925931,43.5917331
43.5604,5.0726,tomb,,PA00081240,Q22986221,Tombeau romain,3,1926-11-02 ,,5.071875,5.0733250000000005,43.56083,43.55997
43.591447,5.1267859,building,C16,PA00081312,Q22986371,Maison des Templiers (ou Hôtel de Foresta),2,1962-02-09 ,,5.1260609,5.1275109,43.591877000000004,43.591017
43.67816,4.62644,building,C17,PA00081172,Q22986115,Maison du 17s.,3,1927-07-05 ,,4.625715,4.627165,43.67859,43.67773
43.67893,4.62777,,C12,PA00081129,Q22986050,Commanderie de Sainte-Luce de l'Ordre de Malte (ancienne),2,1977-10-17 ,,4.627045,4.628495,43.67936,43.6785
43.7228,4.8107,,,PA00081382,Q22986413,Oratoire Saint-Marc,3,1938-10-12 ,,4.809975,4.811425,43.72323,43.72237
43.6186,5.1236,,,PA00081460,Q22916262,Edifice romain appelé Les Antiquités (ruines),3,1938-08-26 ,,5.122875,5.124325,43.61903,43.61817
43.7066,4.6777,archaeological_site,megalith,PA00081263,Q3034035,Dolmen de Saint-Contignarde (restes),2,1894-11-20 ,fr:Dolmen de Coutignargues,4.676975,4.678425,43.70703,43.70617
43.6081,5.1743,milestone,,PA00081399,Q2911146,Borne milliaire,3,1941-10-14 ,fr:Borne milliaire de Pélissanne,5.173575,5.175025,43.60853,43.60767
43.7042,4.9486,,,PA00081198,Q22986141,Oratoire Saint-Véran,3,1935-07-22 ,,4.947875,4.949325,43.70463,43.70377
43.3962,5.2925,archaeological_site,fortification,PA00081404,Q16668150,Oppidum de Teste-Nègre,2,1951-06-29 ,fr:Oppidum de Teste-Nègre,5.291775,5.2932250000000005,43.39663,43.39577
43.5427,4.9971,,,PA00081286,Q22986313,abri préhistorique Cornille,2,1949-06-11 ,,4.996375,4.997825,43.543130000000005,43.54227
43.67606,4.62309,building,,PA00081156,Q3145470,Hôtel de Vinsargues,3,1932-10-04 ,fr:Hôtel Damian de Vinsargues,4.622365,4.6238150000000005,43.67649,43.67563
43.5316,5.4471,,,PA00081093,Q22999520,Mur romain,3,1932-10-21 ,,5.446375,5.447825,43.53203,43.531169999999996
43.8619,4.6941,building,C13,PA00081234,Q22986208,,3,1937-09-17 ,,4.693375,4.694825,43.86233,43.86147
43.5980565,4.9112361,tower,yes,PA13000020,Q22995622,Tour et chapelle d'Entressen,3,1998-03-04 ,,4.9105111,4.9119611,43.5984865,43.5976265
43.837,4.9445,place_of_worship,christian,PA00081423,Q1486041,,2,1908-05-18 ,,4.943775,4.945225,43.837430000000005,43.83657
43.67666,4.62806,,,PA00081130,Q22986053,Construction romaine située entre l'Hôtel des Postes et l'ancien Archevêché,2,1922-11-07 ,,4.6273349999999995,4.628785,43.67709,43.67623
43.6768,4.62758,building,C17,PA00081155,Q3146114,Hôtel de ville,,,fr:Hôtel de ville d'Arles,4.626855,4.628305,43.67723,43.67637
43.67614,4.63161,,C11,PA00081118,Q2820365,Ancienne abbaye Saint-Césaire,,,fr:Abbaye Saint-Césaire (Arles),4.630885,4.632335,43.67657,43.675709999999995
43.4469,5.6848,building,C12,PA00081488,Q22916305,Maison du 12s (ancienne synagogue),3,1926-12-28 ,fr:Trets,5.684075,5.685525,43.44733,43.44647
43.513212,5.444803,building,,PA00081067,Q22999468,Immeuble dit Enclos des Décormis,3,1942-07-11 ,,5.444078,5.445528,43.513642000000004,43.512782
43.762261138071,4.9442982673645,wayside_cross,C15,PA00081244,Q22986225,Croix de cimetière,2,1942-03-26 ,,4.9435732673645,4.9450232673645,43.762691138071,43.761831138070995
43.8844,4.7199,wayside_cross,C14,PA13000012,Q22995619,"Croix de Saint-Julien, située quartier des Bouisses et des Abrigans",2,1999-11-18 ,,4.719175,4.720625,43.88483,43.88397
43.6937,5.2725,,,PA00081301,Q22916228,Grottes de Sainte-Anne-de-Goiron (également sur commune de La-Roque-d'Anthéron),3,1937-05-14 ,,5.271775,5.273225,43.69413,43.69327
43.675887,4.632347,,,PA13000047,Q22995716,Groupe cathédral paléochrétien et couvent Saint-Césaire,2,2004-11-29 ,,4.631622,4.633072,43.676317000000004,43.675457
43.671738,4.641206,,C16,PA13000049,Q22995718,Léproserie Saint-Lazare,3,2005-09-20 ,,4.640481,4.6419310000000005,43.672168,43.671307999999996
43.74297967274,4.7955697774887,,,PA00081211,Q22986160,Hôpital (restes de l'ancien),2,1904-06-09 ,fr:Hôpital des Baux-de-Provence,4.7948447774886995,4.7962947774887,43.74340967274,43.74254967274
43.5491,5.1979,,,PA00081515,Q22916328,Pavillon,3,1992-05-21 ,,5.197175,5.198625,43.549530000000004,43.54867
43.677416,4.627093,,C,PA00081127,Q22986046,Colonnes dites de Saint-Lucien,2,1840 ,,4.626368,4.627818,43.677846,43.676986
43.700052,4.674697,,,PA00081266,Q22986264,Grotte-Dolmen des Fées de Cordes,2,1894-11-20 ,fr:Hypogées de Fontvieille,4.673972,4.675422,43.700482,43.699622
43.709287,4.67619,,,PA00081265,Q20170977,Grotte-Dolmen du Castelet ou du Forgerin,2,1900 ,fr:Hypogées de Fontvieille,4.675465,4.676915,43.709717000000005,43.708857
43.742754892346,4.7948509454727,building,,PA00081223,Q22986185,"Maison de la Tour de Braü, dite aussi Le Trencat",2,1904-06-09 ,fr:Maison de la Tour de Braü,4.7941259454727,4.7955759454727005,43.743184892346,43.742324892346
43.6947859,5.0305211,building,C18,PA00081254,Q22986245,Maison du 18s,3,1930-03-18 ,,5.0297960999999995,5.0312461,43.6952159,43.6943559
43.74421594982,4.7953028976917,building,C15,PA00081216,Q16662463,Immeuble dit Maison Jean de Brion,2,1908-06-20 ,fr:Maison Jean de Brion,4.7945778976917,4.7960278976917,43.744645949820004,43.74378594982
43.6374,5.0939,,C20,PA13000062,Q22995725,"Monument aux morts de la guerre de 1914-1918, dit aussi Monument du Sublime Réveil ou monument d'Eugène Piron",2,2011-09-13 ,,5.093175,5.094625,43.63783,43.63697
43.6197,5.6779,,,PA00081292,Q22986329,Oratoire Saint-Bacque,3,1935-10-07 ,,5.677175,5.678625,43.62013,43.61927
43.7437361,4.7953194,building,C16,PA00081212,Q1404836,Hôtel de Manville,,,fr:Fenêtre Post Tenebras Lux,4.7945944,4.7960444,43.7441661,43.7433061
43.597628,5.209083,milestone,,PA00081309,Q2911153,Borne milliaire romaine,2,1942-04-02 ,fr:Borne milliaire de Lançon-Provence,5.208358,5.209808,43.598058,43.597198
43.790993557606,5.0366306304932,city_gate,,PA00081395,Q22986446,Porte de ville Sainte-Anne,3,1926-12-28 ,,5.0359056304931995,5.0373556304932,43.791423557606,43.790563557606
43.6378,5.6382,,,PA00081294,Q22986333,"Porte, attenant à la Tour de l'Horloge",3,1928-02-17 ,,5.637475,5.638925,43.63823,43.63737
43.743681137163,4.7944338619709,building,,PA00081213,Q22986164,Hôtel des Porcelets,2,1904-06-09 ,fr:Hôtel des Porcelets,4.7937088619709,4.7951588619709,43.744111137163,43.743251137163
43.6766,4.62698,building,,PA00081174,Q22986121,,3,1927-07-05 ,,4.626255,4.627705,43.67703,43.67617
43.4968499,4.9984872,,C18,PA13000055,Q22995721,Monument au bailli de Suffren dit aussi le bateau de Suffren,3,2009-07-23 ,,4.9977621999999995,4.9992122,43.4972799,43.4964199
43.658383,4.633892,,C20,PA13000003,Q22995610,"Hôpital Joseph Imbert, quartier de Fourchon",3,1996-10-03 ,,4.633167,4.634617,43.658813,43.657953
43.526956,5.444336,building,C17,PA00081020,Q20717468,Hôtel de Boades,3,1947-04-23 ,,5.443611,5.445061,43.527386,43.526526
43.68897,4.6135,bridge,C19,PA00081183,Q3396961,"Pont suspendu dit ancien pont de Fourques (également sur commune de Fourques, dans le Gard)",3,1988-07-06 ,fr:Pont de Fourques,4.612775,4.614225,43.6894,43.688539999999996
43.5124,5.4725,,C18,PA00081097,Q22999526,Oratoire Notre-Dame,3,1935-07-22 ,,5.471775,5.473225,43.51283,43.51197
43.72672,4.743714,,,PA00081257,Q22986249,Autel gallo-romain de la Coquille,2,1948-01-13 ,,4.742989,4.744439,43.72715,43.72629
43.7909,5.0405,building,C16,PA00081392,Q22986433,Maison du 16s,3,1926-12-28 ,,5.039775,5.041225,43.79133,43.79047
43.68116,4.62367,,,PA00081188,Q22986135,"Terrain de 362, 40 m2 contenant des vestiges archéologiques",3,1953-10-21 ,,4.622945,4.624395,43.68159,43.68073
43.689435,5.668151,,C19,PA00081293,Q3397056,Ancien pont suspendu de Mirabeau (également sur commune de Mirabeau (Vaucluse) ),3,1988-07-06 ,fr:Pont de Mirabeau,5.667426,5.668876,43.689865000000005,43.689005
43.70403,4.72133,,C,PA00081256,Q743255,Aqueduc de Barbegal,3,1937-02-05 ,fr:Aqueduc et moulins de Barbegal,4.720605,4.722055,43.704460000000005,43.7036
43.65689,4.62092,bridge,C19,PA00081184,Q315318,Pont Van-Gogh et maison pontière,,,fr:Pont Van-Gogh (Arles),4.620195,4.621645,43.65732,43.656459999999996
43.6765,4.62191,building,,PA00081173,Q22986117,,3,1927-07-05 ,fr:Martin de Tours,4.621185,4.622635,43.67693,43.676069999999996
43.6482,5.5837,castle,C15,PA00081409,Q22986468,Château (ancien),,,,5.582975,5.584425,43.648630000000004,43.64777
43.5315,5.4479,,C18,PA00080973,Q1363883,"Ancien archevêché, puis Musée des tapisseries et théâtre",,,,5.447175,5.448625,43.53193,43.53107
43.569342,4.678891,,C17,PA00081131,Q22986055,Domaine de l'Armeillère ou l'Armeillière,,,,4.678166,4.679616,43.569772,43.568912
43.67749,4.628538,building,,PA00081152,Q22986073,Hôtel de Nicolay (ancien),3,1928-06-20 ,,4.627813,4.629263,43.67792,43.67706
43.61085,4.631424,tower,yes,PA00081191,Q15953376,Tour d'Amphoux,3,1932-11-14 ,fr:Tour d'Amphoux,4.630699,4.632149,43.61128,43.61042
43.6339,5.6877,,,PA00135621,Q3034170,Dolmens des Cudières,3,1996-03-25 ,fr:Dolmens des Cudières,5.686975,5.6884250000000005,43.63433,43.633469999999996
43.74385940858,4.7952412068844,building,,PA00081214,Q22986167,Hôtel de ville,2,1914-04-18 ,,4.7945162068844,4.7959662068844,43.74428940858,43.74342940858
43.4168392,5.2161681,,C17,PA00081322,Q2969801,"Ancien château des Covet de Marignane, actuel hôtel de ville",2,1996-07-05 ,fr:Château de Marignane,5.2154431,5.2168931,43.4172692,43.4164092
43.8063,4.6557,monastery,abbey,PA00081467,Q22986482,Abbaye Saint-Honorat (vestiges de l'ancienne),3,1961-04-19 ,,4.654975,4.6564250000000005,43.80673,43.80587
43.6937,5.2725,,,PA00081418,Q22916228,Grottes de Sainte-Anne-de-Goiron (également sur commune de Lambesc),3,1937-05-14 ,,5.271775,5.273225,43.69413,43.69327
43.67717,4.62983,,C15,PA00135618,Q22995120,Ecole Saint-Charles,,,,4.629105,4.630555,43.6776,43.676739999999995
43.723281,4.712274,,C19,PA00081268,Q16008572,Moulins dits moulins de Rome et d'Alphonse Daudet,2,1931-03-06 ,,4.711549,4.712999,43.723711,43.722851
43.744188821757,4.794809371233,building,C16,PA00081221,Q22986181,Maison dite Porte d'Eyguières,3,1979-04-23 ,fr:Porte d'Eyguières,4.794084371233,4.795534371233,43.744618821757,43.743758821757
43.67909,4.62944,building,C16,PA00081177,Q22986125,Maison du 16s.,3,1927-07-05 ,,4.628715,4.630165,43.679520000000004,43.67866
43.6608216,4.9614299,milestone,,PA00081433,Q2911177,Borne milliaire,,,fr:Borne milliaire de la Calanque,4.9607049,4.9621549,43.6612516,43.6603916
43.6639,5.3452,,,PA00081412,Q22986472,Autel mérovingien,3,1937-02-05 ,,5.344475,5.345925,43.66433,43.66347
43.293809,5.567574,,C20,PA13000059,Q22995722,"Monument aux morts de la guerre de 1914-1918, dit aussi Monument de la Victoire",3,2010-02-22 ,,5.5668489999999995,5.568299,43.294239000000005,43.293379
43.485872741394,5.2227652072906,yes,C17,PA00081226,Q22986191,Chapelle Notre-Dame de Caderot,3,1974-12-16 ,,5.2220402072906,5.2234902072906,43.486302741394,43.485442741393996
43.5033,5.3856,,C20,PA00081110,Q481647,"Tuilerie des Milles, ancien camp d'internement",,,fr:Camp des Milles,5.384875,5.386325,43.503730000000004,43.50287
43.67836,4.63002,building,,PA00081165,Q22986099,,3,1927-07-05 ,,4.629295,4.630745,43.67879,43.677929999999996
43.569633373501,4.5043194293976,wayside_cross,,PA00081455,Q17347005,Croix de Méjanes,2,1941-05-26 ,fr:Croix de Méjanes,4.5035944293976,4.5050444293976,43.570063373501,43.569203373501
43.72416961,4.736706018,,,PA00081259,Q22986252,"Bas-relief, dans la propriété de M. Degioanni",2,1931-06-08 ,,4.7359810179999995,4.737431018,43.72459961,43.723739609999996
43.6725,4.61639,milestone,,PA00081205,Q2911179,Borne milliaire,2,1927-04-20 ,fr:Borne milliaire du château d'Estoublon,4.615665,4.617115,43.67293,43.67207
43.6778,4.62771,building,,PA00081159,Q22986090,,3,1926-10-28 ,,4.626985,4.6284350000000005,43.67823,43.677369999999996
43.67842,4.62757,building,C16,PA00081178,Q22986127,Hôtel Laugier de Montblanc ou maison Genin,3,1927-07-06 ,,4.626845,4.6282950000000005,43.678850000000004,43.67799
43.6944,5.0297,fountain,yes,PA00081253,Q22986244,Fontaine publique,2,1923-06-16 ,,5.028975,5.030425,43.69483,43.69397
43.6768,4.62758,,C 4,PA00081140,Q3078621,Forum,,,fr:Forum d'Arles,4.626855,4.628305,43.67723,43.67637
43.5686,5.3538,castle,C17,PA00081241,Q22986223,,3,1984-08-29 ,,5.353075,5.354525,43.569030000000005,43.56817
43.70278,4.72139,,,PA00081120,Q743255,Aqueduc de Barbegal (restes),2,1886-07-12 ,fr:Aqueduc et moulins de Barbegal,4.720665,4.7221150000000005,43.70321,43.702349999999996
43.7093,4.6844,,,PA00081264,Q22986258,Grotte-Dolmen de Bonnias,2,1889 ,fr:Hypogées de Fontvieille,4.683675,4.685125,43.70973,43.70887
43.55763,5.359501,archaeological_site,fortification,PA00081242,Q3354377,Oppidum celto-ligure,3,1970-08-27 ,fr:Oppidum de Pierredon à Éguilles,5.358776,5.360226,43.558060000000005,43.5572
43.67984,4.63021,building,,PA00081171,Q22986112,,3,1927-07-05 ,,4.629485,4.630935,43.68027,43.67941
43.679523,4.630364,building,C16,PA00081176,Q22986123,Maison du 16s.,3,1927-07-05 ,,4.629639,4.631089,43.679953000000005,43.679093
43.516667,5.312778,,,PA13000038,Q623422,Aqueduc de Roquefavour,,,fr:Aqueduc de Roquefavour,5.312053,5.313503,43.517097,43.516237
43.677741,4.628364,building,C16,PA00081166,Q22986100,Maison du 16s,3,1927-07-05 ,,4.627639,4.6290890000000005,43.678171,43.677310999999996
43.744188821757,4.7949796915054,building,C12,PA00081222,Q22986184,Maison dite Les Remparts,3,1976-10-12 ,,4.7942546915054,4.7957046915054,43.744618821757,43.743758821757
43.676168,4.625194,,,PA00081142,Q22986068,Hospices,3,1927-07-05 ,,4.6244689999999995,4.625919,43.676598,43.675737999999996
43.4203859,4.6938122,,C17,PA00081193,Q22986140,La Tourvieille (ou château de la Tourvieille ou Tour du Tanpan),3,1933-06-23 ,,4.6930872,4.6945372,43.4208159,43.4199559
43.737368,5.174389,,C19,PA00081320,Q14627615,"Ancien pont suspendu franchissant la Durance et maison de gardien (également sur commune de Mérindol, dans le Vaucluse)",,,fr:Pont suspendu sur la Durance,5.173664,5.175114,43.737798,43.736937999999995
43.7053,5.172,,C1,PA00081116,Q22986037,Fragments antiques de la porte de la ville et de la chapelle du cimetière,2,1915-10-07 ,,5.171275,5.172725,43.70573,43.70487
43.575062716667,5.4220354333333,,C18,PA00081098,Q22999527,Oratoire Notre-Dame,3,1935-07-22 ,,5.4213104333333,5.4227604333333,43.575492716667,43.574632716667
43.534397,5.455657,,C1,PA00080972,Q22999299,Aqueduc gallo-romain,,,,5.454932,5.4563820000000005,43.534827,43.533967
43.6737,5.2725,,C18,PA00081304,Q22986357,Oratoire Sainte-Anne,3,1935-07-22 ,,5.271775,5.273225,43.67413,43.673269999999995
43.39,5.2774,archaeological_site,fortification,PA13000034,Q19945481,Oppidum de la Cloche,2,2004-04-28 ,fr:Oppidum de la Cloche,5.276675,5.278125,43.39043,43.38957
43.525589,5.452631,monastery,C17,PA00081105,Q13377308,"Prieuré des Hospitaliers de Saint-Jean-de-Malte, actuellement Musée Granet",,,,5.451906,5.453356,43.526019,43.525158999999995
43.529693,5.450373,building,C18,PA00081089,Q22999515,,3,1929-03-25 ,,5.449648,5.451098,43.530123,43.529263
43.80529,4.65666,building,C17,PA00081479,Q22916293,Maison du 17s,3,1942-11-06 ,,4.6559349999999995,4.657385,43.80572,43.80486
43.7450743529,4.7954799234867,building,,PA00081219,Q22986177,Immeuble dit Restes de la Maison du Roi,2,1905-11-25 ,,4.7947549234867,4.7962049234867,43.7455043529,43.744644352899996
43.681888,4.620833,,C18,PA00081194,Q16008675,Verrerie de Trinquetaille (ancienne),,,fr:Verrerie de Trinquetaille,4.620108,4.621558,43.682318,43.681458
43.743227705298,4.7955483198166,,,PA00081204,Q22986151,Baumes de Roucas,2,1908-06-23 ,,4.7948233198166,4.7962733198166,43.743657705298,43.742797705297995
43.4072949,5.0467851,,C20,PA13000035,Q22995681,Ecole maternelle de Ferrières,3,2001-03-19 ,,5.0460601,5.0475101,43.4077249,43.406864899999995
43.763363,4.947976,,C17,PA00081248,Q22986241,Moulin à huile,3,1942-07-04 ,,4.947251,4.948701,43.763793,43.762933
43.679263,4.614887,place_of_worship,christian,PA00081137,Q22986066,Église Saint-Genest (ancienne),3,1934-06-14 ,,4.614162,4.6156120000000005,43.679693,43.678833
43.67992,4.63121,building,C16,PA00081163,Q22986096,,3,1987-03-10 ,,4.630485,4.631935,43.680350000000004,43.67949
43.6793,4.62899,building,,PA00081146,Q22916219,Hôtel de Grille,3,1946-05-31 ,,4.628265,4.629715,43.67973,43.678869999999996
43.516667,5.312778,,C19,PA13000037,Q623422,Aqueduc de Roquefavour (également sur commune d'Aix-en-Provence),2,2005-05-02 ,fr:Aqueduc de Roquefavour,5.312053,5.313503,43.517097,43.516237
43.67644,4.62786,,,PA00081122,Q22986039,Archevêché (ancien),,,,4.627135,4.628585,43.67687,43.67601
43.6335,5.5336,,,PA00081384,Q22986416,Aqueduc romain,2,1922-11-07 ,,5.532875,5.534325,43.63393,43.63307
43.676986,4.62919,building,C18,PA00081144,Q3145466,Hôtel de Courtois,3,1932-10-04 ,fr:Hôtel Courtois de Langlade,4.628465,4.6299150000000004,43.677416,43.676556
43.677726,4.628159,building,C16,PA00081167,Q22986102,Maison du 16s,3,1927-07-05 ,,4.627434,4.628884,43.678156,43.677296
43.552222,5.439167,,,PA00081095,Q22999523,Vestiges de l'oppidum celto-ligure d'Entremont,,,fr:Oppidum d'Entremont,5.438442,5.439892,43.552652,43.551792
43.723358941523,4.7122229219531,,,PA00081258,Q15150082,Autel de la Patrie,3,1937-02-05 ,fr:Autel de la patrie de Fontvieille,4.7114979219531,4.7129479219531,43.723788941523004,43.722928941523
43.6587,5.3903,archaeological_site,roman_villa,PA00081415,Q22986481,Villa gallo-romaine,3,1937-02-05 ,,5.389575,5.391025,43.659130000000005,43.65827
43.526582,5.447008,monastery,convent,PA00080993,Q22999341,Couvent des Augustins (ancien),,,,5.446283,5.447733,43.527012,43.526151999999996
48.894861,-0.200139,,C13,PA00111317,Q21099776,Ancien Hôtel-Dieu,3,1927-05-31 ,fr:Hôtel-Dieu de Falaise,-0.20086400000000001,-0.199414,48.895291,48.894431
48.897763,-0.201117,yes,C13,PA00111315,Q20669840,Vestiges de l'enceinte fortifiée,,,fr:Remparts de Falaise,-0.201842,-0.200392,48.898193,48.897332999999996
49.28528,0.18274,,C17,PA00111603,Q22964104,Ancien couvent des Dominicains de l'Isle,3,1927-02-09 ,fr:Couvent des Dominicaines de l'Isle,0.182015,0.18346500000000002,49.28571,49.28485
49.018637,-0.036041,castle,manor,PA00111718,Q19945464,Manoir dit Cour d'Elu,3,1927-01-19 ,fr:Cour l'Élu,-0.03676599999999999,-0.035316,49.019067,49.018207
49.342361,0.101944,,C16,PA00111755,Q22964227,Ancien hôtel de l'Amirauté,3,1969-12-01 ,fr:Manoir du Grenier à sel,0.101219,0.10266900000000001,49.342791,49.341930999999995
49.118004,-0.393139,wayside_cross,C12,PA00111334,Q3003686,Croix romane,3,1932-10-04 ,fr:Croix romane de Feuguerolles-Bully,-0.393864,-0.39241400000000004,49.118434,49.117574
49.021667,0.406389,,C16,PA00111584,Q22964088,Ancien manoir Venelle-Dossin,,,fr:Manoir Venelle-Dossin,0.405664,0.407114,49.022097,49.021237
49.1362,0.1318,,C17,PA00111624,,Hostellerie Henri IV,,,fr:Hostellerie Henri IV,0.131075,0.132525,49.136630000000004,49.13577
49.278291,-0.566332,,C11,PA00111668,Q3403036,"Restes du prieuré de Saint-Gabriel, puis Centre d'apprentissage horticole",2,1840 ,fr:Prieuré de Saint-Gabriel (Saint-Gabriel-Brécy),-0.5670569999999999,-0.565607,49.278721000000004,49.277861
49.419583,0.233611,,,PA00111441,Q22964000,Puits situé dans la cour du Musée du Vieux Honfleur,2,1932-09-28 ,,0.232886,0.23433600000000002,49.420013000000004,49.419153
49.2112,-0.5391,wayside_cross,C17,PA00111631,Q22964139,Croix,3,1932-10-04 ,fr:Croix du cimetière de Putot-en-Bessin,-0.539825,-0.538375,49.21163,49.21077
48.8427,-0.894,,C17,PA00111814,Q22964270,Ancien Hôtel de ville,3,1987-07-21 ,,-0.894725,-0.893275,48.84313,48.84227
48.928361,-0.432917,archaeological_site,megalith,PA00111705,Q3332773,Mégalithe,3,1954-05-19 ,fr:Mégalithe du Pré-du-Vivret,-0.43364199999999997,-0.432192,48.928791000000004,48.927931
49.15839,-0.384015,city_gate,C17,PA00111512,Q22964039,Porte du 17e siècle,3,1928-02-17 ,,-0.38473999999999997,-0.38329,49.15882,49.157959999999996
48.99667,-0.32056,archaeological_site,megalith,PA00111677,Q3305932,Menhir dit la Roche Piquée,2,1951-11-24 ,fr:Menhir de la Roche Piquée (Saint-Germain-le-Vasson),-0.321285,-0.31983500000000004,48.9971,48.99624
48.8003,-0.8502,,,PA00111517,Q22964043,Pupitre en pierre,3,1928-09-19 ,,-0.8509249999999999,-0.849475,48.80073,48.79987
49.14524,0.22216,fountain,yes,PA00111474,Q15948814,Fontaine publique,2,1919-11-18 ,fr:Fontaine de La Ferronnays,0.221435,0.222885,49.14567,49.14481
49.4204,0.2285,,C17,PA00111442,Q22964001,Puits situé à l'angle de la rue du Puits et de la rue Bucaille (anciennement rue de l'Homme-de-Bois),3,1930-10-11 ,"fr:Puits de l'angle de la rue du Puits et de la rue Bucaille, à Honfleur",0.227775,0.229225,49.42083,49.41997
49.2532,0.1732,,C14,PA00111681,Q22964185,Ancien prieuré de Saint-Hymer,,,fr:Prieuré de Saint-Hymer,0.172475,0.173925,49.25363,49.25277
49.0325,-0.32472,archaeological_site,megalith,PA00111371,Q3387141,"Menhir dit La Pierre Tourneresse, situé dans le parc du château d'Outrelaize",2,1936-09-24 ,fr:Pierre Tourneresse,-0.325445,-0.32399500000000003,49.03293,49.03207
49.24361,-0.31278,archaeological_site,megalith,PA00111094,Q3387869,Mégalithe dit Les Pierres branlantes,2,1958-05-24 ,fr:Pierres branlantes,-0.313505,-0.312055,49.24404,49.243179999999995
48.969339,-0.223716,stone,grooves,PA00111107,Q3394298,Polissoir,3,1976-08-24 ,fr:Polissoirs de Poussendre,-0.224441,-0.222991,48.969769,48.968909
49.279583,-0.688611,,C13,PA00111725,Q2820447,Ancien prieuré,2,1908-05-18 ,fr:Abbaye Saint-Vigor-le-Grand,-0.689336,-0.687886,49.280013000000004,49.279153
49.30167,-0.45528,archaeological_site,megalith,PA00111635,Q3387768,Menhir dit Pierre debout,2,1934-02-21 ,fr:Pierre debout (Reviers),-0.456005,-0.45455500000000004,49.3021,49.30124
48.892065,-0.190039,,C17,PA00111308,Q22963879,Ancienne auberge de La Romaine,3,1946-09-20 ,fr:Auberge de la Romaine,-0.19076400000000002,-0.189314,48.892495000000004,48.891635
49.02,-0.03278,,C11,PA00111713,Q2820701,Ancienne abbaye,,,fr:Abbaye de Saint-Pierre-sur-Dives,-0.03350499999999999,-0.032055,49.020430000000005,49.01957
48.969529,-0.223522,stone,grooves,PA00111108,Q3394298,Polissoir,3,1976-08-24 ,fr:Polissoirs de Poussendre,-0.224247,-0.222797,48.969959,48.969099
49.018719,-0.036047,building,C16,PA00111717,Q22964210,Maison de bois contiguë au manoir dit cour d'Elu,3,1927-01-19 ,fr:Cour l'Élu,-0.036772,-0.035322000000000006,49.019149,49.018288999999996
49.020972,0.407778,,C15,PA00111581,Q20731610,Hospice,3,1927-01-19 ,fr:Hospice d'Orbec,0.407053,0.40850299999999995,49.021402,49.020542
49.28489,0.18337,,C17,PA00111606,Q20083809,Ancien hôtel de Brilly,3,1926-07-17 ,fr:Hôtel de ville de Pont-l'Évêque,0.182645,0.184095,49.28532,49.284459999999996
49.2856,0.18217,,C19,PA14000006,Q22995734,Ancienne prison,3,1997-12-05 ,,0.181445,0.182895,49.286030000000004,49.28517
49.109637,-0.423245,yes,C13,PA00132686,Q22969341,Chapelle Saint-Jean-Baptiste-du-Clos,3,1994-08-24 ,fr:Chapelle Saint-Jean-Baptiste-du-Clos,-0.42396999999999996,-0.42252,49.110067,49.109207
49.285162,0.182052,,C17,PA00111617,Q22964124,Siège de la Vicomté d'Auge,3,1971-10-29 ,,0.181327,0.182777,49.285592,49.284732
48.949639,-0.551306,archaeological_site,megalith,PA00111273,Q2894732,Menhir dit La Belle Roche,2,1954-05-19 ,fr:Belle Roche,-0.5520309999999999,-0.550581,48.950069,48.949208999999996
49.419491,0.233808,castle,manor,PA00111439,Q22963996,Manoir Vigneron,2,1932-09-28 ,,0.23308299999999998,0.234533,49.419921,49.419061
48.829583,-1.036667,,,PA00111722,Q22964212,Motte castrale,2,1983-03-11 ,fr:Motte castrale de Saint-Sever-Calvados,-1.037392,-1.035942,48.830013,48.829153
49.1523,0.2118,,,PA00111665,Q22964174,Théâtre amphithéâtre ou amphithéâtre,2,1984-12-21 ,,0.21107499999999998,0.212525,49.15273,49.151869999999995
48.7912,-0.8741,archaeological_site,megalith,PA00111674,Q13518433,Dolmen de la Loge aux Sarrazins,2,1934-06-26 ,fr:Dolmen de la Loge aux Sarrazins,-0.874825,-0.873375,48.791630000000005,48.79077
48.940903,-0.957778,wayside_cross,C17,PA00111519,Q18196033,Croix de chemin,3,1970-11-23 ,fr:Croix de chemin de Malloué,-0.958503,-0.957053,48.941333,48.940473
49.213524,-0.341889,yes,C13,PA14000045,Q22995775,Chapelle Saint-Vincent,3,2004-10-29 ,fr:Chapelle Saint-Vincent d'Hérouville-Saint-Clair,-0.342614,-0.341164,49.213954,49.213094
49.09302,-0.352778,building,C16,PA00111345,Q22963911,Maison sise à la lisière ouest du bourg,3,1948-03-06 ,,-0.35350299999999996,-0.352053,49.093450000000004,49.09259
49.419583,0.233472,citywalls,,PA00111443,Q22964002,Rempart de ville,2,1932-09-28 ,,0.232747,0.23419700000000002,49.420013000000004,49.419153
49.125164,0.319293,,C16,PA00111251,Q22963844,Chambre de Charité,3,1971-10-29 ,fr:Chambre de Charité de Courtonne-la-Meurdrac,0.318568,0.32001799999999997,49.125594,49.124734
49.28521,0.18253,,C19,PA14000007,Q22995735,Tribunal,3,1997-12-05 ,,0.181805,0.183255,49.28564,49.28478
45.033516,3.09247,building,,PA00093627,Q22935957,,3,1946-07-10 ,,3.091745,3.093195,45.033946,45.033086
44.7818,2.3537,citywalls,C15,PA15000022,Q22995876,Fortifications d'agglomération,3,2003-05-19 ,,2.352975,2.354425,44.78223,44.781369999999995
45.17472,2.32944,citywalls,,PA00093509,Q2968216,Fortifications de La Trizague,2,1978-09-08 ,fr:Château d'Escorailles,2.328715,2.330165,45.17515,45.17429
45.0336,3.093,,,PA00093634,Q22936027,Resserre adossée au côté est de l'église Notre-Dame,3,1946-07-10 ,,3.092275,3.093725,45.03403,45.03317
44.9049,2.4543,,C18,PA00093446,Q22935264,Ancien moulin du Pont-de-Mamou,3,1979-12-05 ,,2.453575,2.455025,44.90533,44.904469999999996
44.918671,2.54312,castle,C19,PA00093755,Q22936803,Château du Doux,3,1992-08-21 ,,2.542395,2.543845,44.919101000000005,44.918241
45.19,3.0709,,,PA00093573,Q22935534,Ensemble des vestiges en pierres sèches (fonds de Cabanes),3,1952-01-15 ,,3.070175,3.071625,45.19043,45.189569999999996
45.0336,3.0929,,,PA00093636,Q22936039,Resserre et hangar adossés au côté nord-est de l'église Notre-Dame,3,1946-07-10 ,,3.092175,3.0936250000000003,45.03403,45.03317
45.1681,2.383,,C12,PA00093507,Q22935373,Chapiteau roman servant de socle à une croix située dans le cimetière,2,1963-07-08 ,,2.382275,2.383725,45.168530000000004,45.16767
45.1398,2.8714,,,PA00093721,Q22936621,Restes des habitations préhistoriques des Fraux,2,1924-09-12 ,,2.870675,2.872125,45.14023,45.13937
44.9755,3.1771,,C19,PA00093539,Q1333442,Viaduc de Garabit (également sur commune de Ruynes-en-Margeride),3,1965-09-14 ,fr:Viaduc de Garabit,3.1763749999999997,3.177825,44.97593,44.975069999999995
45.138278,2.49425,,C15,PA00093668,Q22936342,Gendarmerie dite Maison du Président (ancien Hôtel-Dieu),3,1925-10-26 ,,2.493525,2.494975,45.138708,45.137848
45.137663,2.494211,building,C15,PA00093671,Q22936392,Maison de Bargues,2,1951-12-21 ,,2.493486,2.494936,45.138093000000005,45.137233
